timestamp(unix),attitude_roll(radians),attitude_pitch(radians),attitude_yaw(radians),rotation_rate_x(radians/s),rotation_rate_y(radians/s),rotation_rate_z(radians/s),gravity_x(G),gravity_y(G),gravity_z(G),user_acc_x(G),user_acc_y(G),user_acc_z(G),magnetic_field_x(microteslas),magnetic_field_y(microteslas),magnetic_field_z(microteslas),latitude(degree),longitude(degree),altitude(meter),speed(m/s),course(degree),timestamp(unix)
1478385111.08,0.426888,1.485873,-0.270065,-0.010796,0.046529,-0.009070,0.035119,-0.996396,-0.077209,0.032141,-0.011462,0.046127,12.221313,-4.607010,-2.868713,,,,,,
,,,,,,,,,,,,,,,,37.354238,-122.033504,47.674927,0.000000,305.156250,1478385200.67
,,,,,,,,,,,,,,,,37.354238,-122.033504,47.674927,0.000000,305.156250,1478385200.00
1478385111.10,0.421330,1.485474,-0.263807,-0.042658,0.014331,-0.014554,0.034852,-0.996362,-0.077766,-0.022111,0.008463,0.002647,11.769409,-4.831406,-2.272583,,,,,,
1478385111.12,0.424579,1.484326,-0.265763,-0.054657,0.089772,-0.037873,0.035576,-0.996264,-0.078695,-0.012016,0.035555,0.027135,11.470764,-4.531403,-2.276428,,,,,,
1478385111.14,0.430076,1.482755,-0.269785,-0.077950,0.052501,-0.024128,0.036661,-0.996127,-0.079921,0.021933,-0.025541,0.004207,12.070618,-4.681778,-2.645020,,,,,,
1478385111.16,0.428585,1.480875,-0.267264,-0.099312,0.068390,-0.027327,0.037319,-0.995960,-0.081678,0.007496,0.010471,0.018690,12.070618,-4.681778,-2.645020,,,,,,
1478385111.18,0.426774,1.479164,-0.263341,-0.094116,0.115530,-0.013299,0.037877,-0.995805,-0.083296,0.004070,-0.003249,0.013823,12.296875,-4.456924,-2.793457,,,,,,
1478385111.20,0.425129,1.477367,-0.258863,-0.088957,0.164574,-0.018497,0.038478,-0.995639,-0.084989,0.006032,0.018969,0.008054,11.844940,-4.681335,-2.197266,,,,,,
1478385111.21,0.429532,1.475682,-0.259717,-0.074049,0.173414,-0.004438,0.039550,-0.995480,-0.086344,0.027268,0.004803,0.004038,11.996307,-4.607010,-2.870972,,,,,,
1478385111.23,0.423557,1.474457,-0.250696,-0.068548,0.134321,0.026449,0.039535,-0.995363,-0.087690,0.046769,-0.006407,-0.002734,12.071747,-4.456848,-2.720703,,,,,,
1478385111.25,0.421978,1.472844,-0.247107,-0.044886,0.074931,0.049827,0.040054,-0.995207,-0.089217,0.051148,0.024534,-0.020906,12.071747,-4.456848,-2.720703,,,,,,
1478385111.27,0.409490,1.473035,-0.233493,0.004269,0.040207,0.075459,0.038861,-0.995225,-0.089536,0.046527,0.027848,-0.048022,11.771362,-4.456558,-2.423706,,,,,,
1478385111.29,0.394234,1.474342,-0.217667,0.040629,0.011914,0.107497,0.036991,-0.995352,-0.088917,0.049649,0.010794,-0.096157,11.546021,-4.606781,-2.650452,,,,,,
1478385111.31,0.372481,1.474716,-0.196502,0.140015,-0.066120,0.154463,0.034913,-0.995388,-0.089355,0.067062,0.040401,-0.057862,12.295990,-4.606781,-2.643005,,,,,,
1478385111.33,0.348345,1.479643,-0.177431,0.215789,-0.419680,0.191017,0.031071,-0.995848,-0.085560,0.174342,0.018004,-0.112026,12.071045,-4.682083,-2.945007,,,,,,
1478385111.35,0.298448,1.485709,-0.140439,0.258488,-0.731080,0.283187,0.024989,-0.996382,-0.081228,0.080450,0.012373,-0.060862,12.071045,-4.682083,-2.945007,,,,,,
1478385111.37,0.230730,1.493109,-0.086095,0.317879,-0.637676,0.306101,0.017748,-0.996984,-0.075553,-0.008379,0.039632,-0.019876,12.370605,-4.757004,-2.866760,,,,,,
1478385111.39,0.154363,1.500509,-0.020957,0.316500,-0.531804,0.325622,0.010798,-0.997531,-0.069394,-0.005564,0.014575,-0.054187,12.145050,-4.907074,-2.943604,,,,,,
1478385111.41,0.054470,1.508211,0.069665,0.388684,-0.444878,0.344149,0.003405,-0.998042,-0.062451,-0.028872,0.043208,-0.034793,11.770203,-4.907166,-3.022339,,,,,,
1478385111.43,-0.064617,1.516355,0.182403,0.417933,-0.273124,0.330783,-0.003514,-0.998518,-0.054301,0.002461,0.018828,-0.031942,11.845612,-4.907455,-3.321594,,,,,,
1478385111.45,-0.240646,1.524163,0.352627,0.453291,-0.316246,0.372395,-0.011110,-0.998913,-0.045273,0.044984,0.037289,-0.053528,11.845612,-4.907455,-3.321594,,,,,,
,,,,,,,,,,,,,,,,37.354238,-122.033504,48.838379,0.000000,305.156250,1478385201.00
1478385111.47,-0.512008,1.531755,0.615997,0.621038,-0.457227,0.399009,-0.019123,-0.999238,-0.034026,0.068180,0.066453,-0.035584,11.094299,-5.057022,-2.878601,,,,,,
1478385111.49,-0.925220,1.536502,1.020353,0.672146,-0.447380,0.403399,-0.027388,-0.999412,-0.020630,0.069853,0.028648,-0.039429,11.319305,-5.207458,-3.325928,,,,,,
1478385111.51,-1.367037,1.534456,1.454009,0.657196,-0.424732,0.428009,-0.035581,-0.999340,-0.007352,0.051221,0.013179,-0.095004,11.318634,-5.357468,-3.325500,,,,,,
1478385111.53,-1.719025,1.526335,1.800091,0.694730,-0.193472,0.388219,-0.043960,-0.999012,0.006564,-0.119462,0.056461,-0.032291,11.468170,-5.432388,-3.248779,,,,,,
1478385111.55,-1.943338,1.516299,2.027807,0.628807,0.388008,0.311709,-0.050734,-0.998515,0.019826,-0.298845,0.027431,0.033167,11.468170,-5.432388,-3.248779,,,,,,
1478385111.57,-2.052063,1.507236,2.151175,0.462996,0.885684,0.218768,-0.056303,-0.997981,0.029403,-0.231310,0.071101,0.128022,10.491028,-5.731873,-2.732666,,,,,,
1478385111.59,-2.113884,1.500383,2.234487,0.395905,1.169401,0.139300,-0.060233,-0.997522,0.036358,0.008658,0.110681,0.195789,11.240448,-5.881943,-2.799744,,,,,,
1478385111.61,-2.155068,1.493758,2.299989,0.370417,1.157886,0.165935,-0.064195,-0.997034,0.042452,0.246446,-0.004843,0.103254,11.088898,-6.031342,-2.200745,,,,,,
1478385111.63,-2.184726,1.485463,2.345247,0.383483,0.475456,0.294428,-0.069666,-0.996361,0.049099,0.369821,-0.071159,-0.115689,11.014496,-5.730820,-1.677429,,,,,,
1478385111.65,-2.205138,1.474819,2.366721,0.412206,-0.109869,0.417873,-0.077187,-0.995398,0.056793,0.055962,0.029761,-0.122269,11.014496,-5.730820,-1.677429,,,,,,
1478385111.67,-2.226018,1.462044,2.384472,0.471074,-0.174207,0.462672,-0.086061,-0.994092,0.066136,-0.115690,0.041715,-0.082142,10.637115,-6.180588,-1.454895,,,,,,
1478385111.69,-2.249191,1.449928,2.403205,0.453055,-0.247877,0.374929,-0.093877,-0.992704,0.075666,-0.081096,0.004728,-0.026120,11.537903,-6.030655,-1.521240,,,,,,
1478385111.71,-2.274157,1.438486,2.425553,0.487453,-0.032633,0.338187,-0.100616,-0.991260,0.085327,-0.057450,-0.016553,0.138367,10.862213,-6.255890,-1.752319,,,,,,
1478385111.73,-2.294468,1.427527,2.445846,0.439642,-0.078878,0.323018,-0.106996,-0.989754,0.094540,0.028932,0.002786,0.022174,10.184540,-6.705460,-1.307861,,,,,,
1478385111.75,-2.314001,1.416760,2.459452,0.448198,-0.413839,0.329591,-0.112970,-0.988160,0.103817,0.076257,0.024033,-0.014279,10.184540,-6.705460,-1.307861,,,,,,
1478385111.77,-2.341485,1.405736,2.476529,0.496619,-0.576195,0.301449,-0.117882,-0.986408,0.114464,-0.013954,0.008717,-0.027153,11.084869,-6.705673,-1.523804,,,,,,
1478385111.79,-2.370962,1.394146,2.494860,0.539245,-0.585767,0.290813,-0.122414,-0.984438,0.126084,-0.066383,-0.042173,-0.034577,10.785767,-6.555817,-1.677246,,,,,,
1478385111.81,-2.402794,1.382767,2.515067,0.550947,-0.601174,0.248054,-0.125874,-0.982374,0.138188,-0.042033,-0.015199,0.000773,10.109619,-6.630310,-1.158813,,,,,,
1478385111.83,-2.434661,1.371097,2.534050,0.583252,-0.709953,0.243537,-0.128845,-0.980126,0.150836,0.022339,0.051385,-0.053759,10.110748,-6.480606,-1.459229,,,,,,
1478385111.85,-2.468574,1.359331,2.556277,0.614540,-0.535642,0.175692,-0.130837,-0.977724,0.164125,-0.046943,-0.028730,-0.088731,10.110748,-6.480606,-1.459229,,,,,,
1478385111.87,-2.503144,1.346083,2.581112,0.707206,-0.526630,0.186562,-0.132794,-0.974858,0.178935,-0.030018,-0.034908,-0.126399,10.859528,-6.780670,-1.525818,,,,,,
1478385111.89,-2.538236,1.332546,2.604902,0.694868,-0.666535,0.180814,-0.133910,-0.971752,0.194333,0.049071,-0.035709,-0.078824,10.184387,-6.855820,-1.682373,,,,,,
1478385111.91,-2.569633,1.318948,2.624108,0.711529,-0.554576,0.168330,-0.134884,-0.968453,0.209534,0.033947,0.030709,0.059937,10.333496,-7.080887,-1.755127,,,,,,
1478385111.93,-2.598242,1.304938,2.645061,0.755614,-0.369163,0.132590,-0.135837,-0.964867,0.224899,-0.003826,0.006783,-0.022125,10.332489,-7.155441,-1.305054,,,,,,
1478385111.95,-2.624747,1.290113,2.665633,0.789622,-0.336829,0.148765,-0.136883,-0.960866,0.240830,-0.015186,-0.047099,-0.130204,10.332489,-7.155441,-1.305054,,,,,,
1478385111.97,-2.649341,1.274369,2.682146,0.812559,-0.494246,0.184698,-0.138052,-0.956386,0.257423,0.003424,-0.022526,-0.121269,10.181915,-7.380753,-1.605774,,,,,,
1478385111.99,-2.672924,1.258120,2.696294,0.821127,-0.501517,0.198582,-0.138946,-0.951514,0.274437,0.027495,-0.014566,-0.065423,10.180908,-7.605743,-1.605103,,,,,,
1478385112.01,-2.692206,1.240911,2.705418,0.843852,-0.571947,0.280697,-0.140721,-0.946080,0.291772,0.087895,0.020054,-0.047662,9.505524,-7.530228,-1.087158,,,,,,
1478385112.03,-2.710730,1.223398,2.710894,0.820894,-0.711637,0.296299,-0.142192,-0.940261,0.309338,0.107219,0.054672,0.013767,10.255249,-7.605301,-1.154419,,,,,,
1478385112.05,-2.728589,1.206332,2.714188,0.786895,-0.744986,0.284395,-0.143065,-0.934315,0.326478,0.023604,0.053608,0.112395,10.255249,-7.605301,-1.154419,,,,,,
1478385112.07,-2.747312,1.189892,2.719727,0.832141,-0.615724,0.192945,-0.142809,-0.928329,0.343236,-0.014326,0.084701,0.082499,9.878540,-7.980301,-1.157043,,,,,,
1478385112.09,-2.765948,1.173033,2.728905,0.859256,-0.454956,0.153903,-0.142111,-0.921930,0.360347,-0.025278,0.001672,-0.109722,9.654510,-7.830460,-1.309814,,,,,,
1478385112.11,-2.781447,1.155415,2.735373,0.882041,-0.552281,0.217780,-0.142211,-0.914963,0.377650,0.008254,-0.131684,-0.033061,9.427795,-7.979782,-0.636536,,,,,,
1478385112.13,-2.799124,1.139284,2.742382,0.753913,-0.527757,0.077661,-0.140452,-0.908334,0.393957,-0.081624,-0.179694,0.131754,10.027985,-8.055145,-1.005310,,,,,,
1478385112.15,-2.817682,1.125780,2.754651,0.748417,-0.227821,-0.092471,-0.137009,-0.902604,0.408087,-0.052871,-0.178069,0.018412,10.027985,-8.055145,-1.005310,,,,,,
1478385112.17,-2.833760,1.111816,2.776236,0.826917,0.427213,-0.309559,-0.134237,-0.896505,0.422208,-0.102931,-0.423670,-0.056257,9.426117,-8.354782,-0.635437,,,,,,
1478385112.19,-2.841600,1.098144,2.800707,0.794950,0.762278,-0.300145,-0.134532,-0.890364,0.434917,0.018397,-0.641847,0.033558,10.175293,-8.354248,-0.102966,,,,,,
1478385112.21,-2.850476,1.087083,2.823555,0.592424,0.418692,-0.413627,-0.133485,-0.885274,0.445502,0.180238,-0.588344,0.009058,10.398376,-8.804321,-0.174377,,,,,,
1478385112.23,-2.867166,1.081050,2.848913,0.360934,0.162062,-0.474567,-0.127477,-0.882452,0.452800,0.213994,-0.644724,-0.018230,9.497070,-8.878662,0.491882,,,,,,
1478385112.25,-2.890800,1.078373,2.869549,0.248348,-0.574101,-0.427641,-0.117327,-0.881190,0.457973,0.211718,-0.675619,-0.551677,9.497070,-8.878662,0.491882,,,,,,
1478385112.27,-2.933452,1.072135,2.888763,0.605882,-1.690313,-0.273031,-0.098826,-0.878224,0.467928,0.101084,-0.596737,-1.476625,8.968658,-9.478195,0.938354,,,,,,
1478385112.29,-2.973058,1.046720,2.896506,1.705993,-1.363484,0.211640,-0.083938,-0.865786,0.493324,-0.084076,-0.130368,-1.166053,7.763733,-10.452835,1.304199,,,,,,
1478385112.31,-2.978003,0.999338,2.893430,2.727721,0.132485,0.686570,-0.088085,-0.841113,0.533638,-0.059468,-0.622357,-0.716408,7.685486,-11.127686,1.455505,,,,,,
1478385112.33,-2.962717,0.931695,2.877683,3.601102,0.066554,1.147330,-0.106127,-0.802632,0.586957,-0.097563,-1.001521,-0.765195,7.606476,-11.726791,2.356506,,,,,,
1478385112.35,-2.948361,0.844928,2.860900,4.525298,0.015793,1.432998,-0.127468,-0.747923,0.651431,0.056514,-1.255571,-0.221911,7.606476,-11.726791,2.356506,,,,,,
1478385112.37,-2.945572,0.734089,2.840851,5.625551,-0.991796,1.962078,-0.144604,-0.669911,0.728223,-0.119419,-1.041225,0.280414,7.526611,-12.250137,4.007263,,,,,,
1478385112.39,-2.959325,0.616363,2.820524,5.521137,-1.403126,1.774859,-0.147906,-0.578071,0.802470,-0.066785,-0.959771,0.581670,6.166718,-13.296692,7.446777,,,,,,
1478385112.41,-2.980695,0.508235,2.807003,5.047567,-1.444673,1.303815,-0.139955,-0.486636,0.862321,-0.136321,-0.968549,0.673232,6.838135,-13.519958,9.179138,,,,,,
1478385112.43,-3.006258,0.413805,2.800898,4.349624,-1.317238,0.755920,-0.123534,-0.402096,0.907226,-0.060563,-0.812809,0.631242,6.609650,-13.743317,10.827576,,,,,,
1478385112.45,-3.026625,0.339166,2.799709,3.285686,-0.905904,0.415442,-0.108179,-0.332701,0.936807,-0.037161,-0.767015,0.671408,6.609650,-13.743317,10.827576,,,,,,
,,,,,,,,,,,,,,,,37.354238,-122.033504,48.822144,0.000000,305.156250,1478385202.00
1478385112.47,-3.034888,0.287988,2.800187,2.064839,-0.023386,0.173214,-0.102116,-0.284023,0.953364,0.032109,-0.763569,0.578618,6.380615,-14.116745,12.401367,,,,,,
1478385112.49,-3.025328,0.269631,2.799034,0.150651,0.600180,0.176941,-0.111811,-0.266376,0.957362,0.173976,-0.669446,0.117971,6.073425,-14.864182,14.950562,,,,,,
1478385112.51,-3.011586,0.289811,2.792894,-1.705371,0.675972,0.133321,-0.124234,-0.285771,0.950211,0.348035,-0.373118,0.023239,6.218903,-15.839111,15.029968,,,,,,
1478385112.53,-2.994790,0.342606,2.786045,-3.249739,0.766697,-0.186438,-0.137774,-0.335943,0.931751,0.320224,0.031575,-0.136936,5.690521,-16.589127,15.026917,,,,,,
1478385112.55,-2.975344,0.430269,2.781544,-4.996729,0.858177,-0.647579,-0.150400,-0.417115,0.896323,0.307185,0.369981,-0.528952,5.690521,-16.589127,15.026917,,,,,,
1478385112.57,-2.956422,0.544234,2.776147,-5.963254,0.892414,-0.784856,-0.157514,-0.517763,0.840899,0.168287,0.805925,-0.451662,5.610382,-17.939713,14.430115,,,,,,
1478385112.59,-2.927826,0.672228,2.765637,-6.558015,1.273064,-0.892754,-0.165988,-0.622730,0.764627,0.093768,1.178562,-0.471811,5.380524,-20.418900,10.235291,,,,,,
1478385112.61,-2.886870,0.807311,2.750247,-6.783260,1.636531,-1.125062,-0.174228,-0.722431,0.669133,0.073413,1.528034,-0.501851,5.378601,-21.621231,7.913879,,,,,,
1478385112.63,-2.838990,0.947523,2.733565,-6.960400,1.843865,-1.578879,-0.173945,-0.811972,0.557175,0.067896,1.685736,-0.321503,5.307098,-21.774002,5.138611,,,,,,
1478385112.65,-2.782937,1.089874,2.710715,-6.899705,1.742076,-1.810901,-0.162379,-0.886569,0.433162,0.149500,1.602969,0.046208,5.307098,-21.774002,5.138611,,,,,,
1478385112.67,-2.710804,1.229919,2.654835,-6.874371,0.327875,-1.485673,-0.139605,-0.942462,0.303770,0.180346,1.785922,0.027956,5.234741,-21.851028,3.113159,,,,,,
1478385112.69,-2.582959,1.349546,2.495250,-5.749642,-2.162318,-0.640103,-0.116315,-0.975624,0.186089,0.190839,1.758506,0.391685,6.441010,-21.479095,0.049072,,,,,,
1478385112.71,-2.409619,1.433075,2.260695,-3.910829,-3.074224,-1.084944,-0.091754,-0.990531,0.102121,0.145861,1.312904,0.758871,7.430359,-19.984177,-5.045532,,,,,,
1478385112.73,-2.283131,1.498040,2.082921,-2.369434,-1.856705,-2.015920,-0.055016,-0.997354,0.047512,-0.106102,0.962641,1.146168,7.736786,-19.160980,-6.844910,,,,,,
1478385112.75,-2.878527,1.539911,2.684264,0.205550,1.802430,-2.459728,-0.008030,-0.999523,0.029818,-0.666317,0.621410,1.744032,7.736786,-19.160980,-6.844910,,,,,,
1478385112.77,2.882356,1.480253,-2.998138,4.300825,4.750457,-0.823550,0.023178,-0.995904,0.087398,-1.594330,-0.836662,1.561650,8.340851,-18.561874,-7.740662,,,,,,
1478385112.79,-3.014088,1.411274,2.997388,2.793504,4.624489,2.408664,-0.020199,-0.987303,0.157557,-0.178638,-2.705919,-0.221583,9.315369,-18.335892,-6.756592,,,,,,
1478385112.81,-2.777674,1.353048,2.807871,1.961214,0.735874,2.304635,-0.076894,-0.976386,0.201884,0.439595,0.041694,-0.722071,9.454163,-19.306320,-2.177307,,,,,,
1478385112.83,-2.677350,1.300508,2.658695,1.466101,-2.598298,3.039292,-0.119552,-0.963694,0.238749,0.598785,1.388529,0.331823,7.498108,-20.204987,-0.844177,,,,,,
1478385112.85,-2.618900,1.227307,2.556495,3.292982,-1.881662,2.431167,-0.168123,-0.941585,0.291808,1.336061,0.978725,0.980668,7.498108,-20.204987,-0.844177,,,,,,
1478385112.87,-2.729234,1.175130,2.657511,2.495700,-0.514142,-1.913868,-0.154466,-0.922740,0.353116,1.015047,-0.026433,0.362735,6.595642,-20.654694,-0.551880,,,,,,
1478385112.89,-2.846829,1.150946,2.783004,2.212656,0.274985,-1.423921,-0.118420,-0.913150,0.390043,0.197369,-0.285336,0.529116,6.444519,-20.578720,0.421448,,,,,,
1478385112.91,-2.867947,1.106723,2.825867,2.288543,1.042578,0.365793,-0.120959,-0.894237,0.430940,-0.308911,-0.224034,0.215773,7.195740,-19.977737,1.402161,,,,,,
1478385112.93,-2.855245,1.064693,2.813520,1.729194,-0.602785,0.996005,-0.136924,-0.874640,0.465033,-0.642022,-0.372735,0.035073,6.744293,-19.600647,3.496521,,,,,,
1478385112.95,-2.868864,1.030816,2.795829,1.351211,-1.725628,0.825585,-0.138483,-0.857719,0.495117,-0.655096,0.085609,0.111404,6.744293,-19.600647,3.496521,,,,,,
1478385112.97,-2.866214,1.001647,2.775042,1.303505,-0.070670,1.008481,-0.146537,-0.842360,0.518610,-0.203927,0.154311,0.309225,6.743164,-19.675110,4.021667,,,,,,
1478385112.99,-2.847689,0.971445,2.756902,1.245120,0.076601,0.759842,-0.163417,-0.825702,0.539918,-0.123281,0.035251,0.179259,6.966919,-19.749512,4.624207,,,,,,
1478385113.01,-2.849894,0.949007,2.752072,0.904509,-0.557727,0.291672,-0.167512,-0.812838,0.557884,-0.143691,0.011477,0.241433,6.817200,-19.523987,5.146973,,,,,,
1478385113.03,-2.870457,0.935561,2.754847,0.524309,-1.043602,0.024706,-0.158919,-0.804932,0.571689,-0.222444,0.058823,0.399883,6.592957,-19.073181,5.968384,,,,,,
1478385113.05,-2.893322,0.930522,2.760869,0.169504,-0.798933,-0.196402,-0.146802,-0.801932,0.579098,-0.281909,-0.177545,0.691074,6.592957,-19.073181,5.968384,,,,,,
1478385113.07,-2.914312,0.933387,2.770885,-0.270487,-0.546641,-0.378105,-0.134097,-0.803640,0.579811,-0.287320,-0.490641,0.829521,6.294067,-18.773026,6.114502,,,,,,
1478385113.09,-2.929054,0.951833,2.778781,-1.224869,-0.297403,-0.476306,-0.122387,-0.814480,0.567136,-0.264683,-0.558673,0.990466,6.744080,-18.848251,5.894165,,,,,,
1478385113.11,-2.936735,0.983391,2.794440,-1.474129,0.765795,-0.993068,-0.112740,-0.832382,0.542615,-0.190437,-0.977845,1.200366,6.067078,-19.298248,5.888794,,,,,,
1478385113.13,-2.933163,1.019706,2.833347,-1.658988,2.304363,-1.576790,-0.108349,-0.851954,0.512284,0.479870,-1.841146,0.114044,6.742188,-19.448776,5.370972,,,,,,
1478385113.15,-2.925177,1.063859,2.869645,-2.152638,1.357643,-1.082368,-0.104252,-0.874235,0.474177,1.054951,-1.916994,-1.126872,6.742188,-19.448776,5.370972,,,,,,
1478385113.17,-2.947462,1.111219,2.882825,-2.186508,-1.516821,-0.777287,-0.085571,-0.896240,0.435237,0.309142,-0.917618,-1.550105,7.038330,-20.499359,4.777100,,,,,,
1478385113.19,-2.996850,1.142527,2.900982,-0.935901,-1.403852,-0.554705,-0.059901,-0.909686,0.410954,-0.238255,-0.188855,-1.289418,7.188904,-20.650177,3.954041,,,,,,
1478385113.21,-3.046687,1.145227,2.926221,0.418916,-1.274453,-0.418439,-0.039122,-0.910804,0.410981,-0.610826,0.082984,-1.721421,6.961639,-21.250488,3.653564,,,,,,
1478385113.23,-3.049094,1.112633,2.915060,2.459924,-0.320945,0.867704,-0.040854,-0.896867,0.440411,-0.289972,0.704041,-1.424984,7.260284,-21.550491,3.657471,,,,,,
1478385113.25,-3.015699,1.043723,2.883517,3.729758,0.732599,1.033075,-0.063158,-0.864283,0.499025,-0.186491,0.999506,-1.168276,7.260284,-21.550491,3.657471,,,,,,
1478385113.27,-2.983813,0.956165,2.877513,4.598944,1.642534,0.825542,-0.090608,-0.816986,0.569494,0.148973,0.077621,-1.215170,6.732147,-21.247498,6.651306,,,,,,
1478385113.29,-2.936091,0.854763,2.873527,5.121448,2.272131,1.109178,-0.133943,-0.754415,0.642586,0.365343,-0.175638,-0.871010,5.528473,-21.169800,9.338989,,,,,,
1478385113.31,-2.920031,0.747978,2.874996,5.242858,-0.025186,1.084907,-0.161094,-0.680158,0.715146,0.280006,-0.597568,-0.751066,5.002808,-20.191437,12.705811,,,,,,
1478385113.33,-2.934889,0.646498,2.878820,4.886211,-0.869380,0.829816,-0.163818,-0.602395,0.781207,0.012924,-1.256370,0.174878,5.152618,-19.138138,16.004150,,,,,,
1478385113.35,-2.961665,0.550628,2.888573,4.672949,-1.040461,0.332158,-0.152507,-0.523223,0.838439,-0.300526,-1.223207,0.682527,5.152618,-19.138138,16.004150,,,,,,
1478385113.37,-2.983039,0.464352,2.903841,4.086741,-0.485220,-0.080814,-0.141171,-0.447843,0.882897,-0.325137,-1.037066,0.857475,4.705231,-16.807907,21.242737,,,,,,
1478385113.39,-2.999313,0.395540,2.917957,3.171314,-0.677927,-0.026310,-0.130851,-0.385307,0.913464,-0.140450,-1.161278,0.928318,4.480591,-15.980652,23.487976,,,,,,
1478385113.41,-3.019027,0.348768,2.918759,1.678920,-1.141309,0.417488,-0.114898,-0.341740,0.932745,0.190353,-0.844051,0.641779,5.230713,-15.454147,24.993896,,,,,,
1478385113.43,-3.048659,0.339008,2.917305,-0.262478,-1.610359,-0.186564,-0.087518,-0.332551,0.939016,0.201333,-0.155287,0.814143,5.379364,-15.603699,25.445862,,,,,,
1478385113.45,-3.072421,0.363762,2.926523,-1.593003,-0.528397,-0.670967,-0.064594,-0.355793,0.932330,0.284840,0.110783,1.095166,5.379364,-15.603699,25.445862,,,,,,
,,,,,,,,,,,,,,,,37.354241,-122.033506,48.508362,0.950000,175.078125,1478385203.00
1478385113.47,-3.070627,0.411758,2.940727,-2.956880,0.798244,-0.851322,-0.064980,-0.400221,0.914112,0.063637,0.231383,0.398113,5.900696,-16.579208,24.928955,,,,,,
1478385113.49,-3.053395,0.495884,2.946444,-4.788760,0.906049,-0.367012,-0.077473,-0.475809,0.876130,-0.109706,0.241755,-0.022721,6.341034,-19.506531,22.617188,,,,,,
1478385113.51,-3.031964,0.606922,2.938019,-5.995592,0.944017,-0.206606,-0.089869,-0.570342,0.816476,0.071330,0.802230,0.035849,6.409515,-21.758911,20.224609,,,,,,
1478385113.53,-2.995487,0.731748,2.928132,-6.338055,1.952077,-0.486493,-0.108318,-0.668171,0.736081,-0.012624,1.346470,0.133228,6.554382,-24.087509,16.633057,,,,,,
1478385113.55,-2.937518,0.863269,2.909036,-6.784698,2.046560,-0.477394,-0.131721,-0.759971,0.636470,0.038337,1.905937,-0.144938,6.554382,-24.087509,16.633057,,,,,,
1478385113.57,-2.886016,1.000293,2.855665,-7.112548,-0.920949,0.348310,-0.136528,-0.841629,0.522513,0.041771,2.241852,-0.414573,5.875183,-26.191025,13.107544,,,,,,
1478385113.59,-2.846763,1.133715,2.735461,-7.295880,-4.421154,1.200580,-0.123000,-0.905991,0.405033,0.108596,1.618805,-0.219074,5.429596,-28.149796,4.333984,,,,,,
1478385113.61,-2.755174,1.263235,2.528927,-7.215448,-5.117728,1.463772,-0.114093,-0.953075,0.280413,0.250369,0.965877,0.605268,5.138000,-27.929749,-0.619568,,,,,,
1478385113.63,-2.508842,1.358879,2.204434,-5.303584,-1.588140,1.101791,-0.124385,-0.977629,0.169615,0.253382,1.324462,1.904268,3.871948,-27.559647,-5.508301,,,,,,
1478385113.65,-2.162637,1.409052,1.901911,-2.812951,4.572962,-0.419729,-0.133650,-0.986948,0.089843,-0.133089,2.125681,1.512712,3.871948,-27.559647,-5.508301,,,,,,
1478385113.67,-1.941706,1.445039,1.798514,-0.751813,6.065529,-1.534950,-0.116896,-0.992103,0.045462,-0.341920,1.686927,0.761850,2.004639,-26.812531,-8.379272,,,,,,
1478385113.69,-1.988415,1.468340,1.925531,0.748296,2.303799,-1.036256,-0.093487,-0.994756,0.041482,-0.227786,0.938497,0.261237,3.885468,-26.064148,-10.012695,,,,,,
1478385113.71,-2.276632,1.445041,2.215918,3.304422,-0.850185,0.964944,-0.095457,-0.992103,0.081359,0.149931,0.097602,0.444291,7.035309,-25.838379,-9.231873,,,,,,
1478385113.73,-2.451008,1.378548,2.418438,2.435317,2.068967,0.305835,-0.121707,-0.981577,0.147288,0.165927,-3.161642,-0.988749,6.278442,-26.886963,-7.811340,,,,,,
1478385113.75,-2.623452,1.343198,2.620827,2.130716,0.928152,-0.676508,-0.111751,-0.974211,0.196021,0.145076,-0.386232,-0.409202,6.278442,-26.886963,-7.811340,,,,,,
1478385113.77,-2.689108,1.305085,2.678846,1.649102,-1.167851,1.062690,-0.114807,-0.964906,0.236169,0.135208,0.489702,0.509131,5.974884,-27.110229,-6.088684,,,,,,
1478385113.79,-2.572571,1.247439,2.528871,2.805400,-1.622975,4.585099,-0.171207,-0.948174,0.267683,0.904255,0.925637,1.212695,7.324554,-26.959549,-5.400635,,,,,,
1478385113.81,-2.588489,1.132507,2.504150,5.240398,-1.114976,2.045751,-0.222946,-0.905479,0.361114,1.217178,0.342719,0.594025,3.567841,-27.782547,-3.410767,,,,,,
1478385113.83,-2.648523,1.089844,2.554405,0.690826,-2.059926,-0.508677,-0.218974,-0.886555,0.407517,0.418269,0.246144,-0.347398,2.511993,-28.305237,-1.094727,,,,,,
1478385113.85,-2.726055,1.082610,2.613808,1.254689,-0.186739,-1.185265,-0.189337,-0.883185,0.429111,0.109793,-0.157022,1.207867,2.511993,-28.305237,-1.094727,,,,,,
1478385113.87,-2.786083,1.051076,2.680852,2.454637,-0.385720,-0.619598,-0.172864,-0.867958,0.465583,-0.381168,-0.357536,0.695215,3.412811,-28.080078,-0.936462,,,,,,
1478385113.89,-2.813887,0.999156,2.705057,2.426505,-0.212429,0.852047,-0.174137,-0.841015,0.512221,-0.921139,-0.305347,0.035478,3.939331,-27.479324,-0.182983,,,,,,
1478385113.91,-2.796269,0.982670,2.675147,0.243831,-0.735000,0.487823,-0.187802,-0.831981,0.522051,-1.912815,-0.217777,0.574644,4.462097,-27.628265,0.872803,,,,,,
1478385113.93,-2.811393,0.976337,2.690643,0.098115,0.782940,-0.315982,-0.181590,-0.828451,0.529805,-0.567144,-0.478479,0.853862,3.108978,-28.002304,1.835327,,,,,,
1478385113.95,-2.776495,0.992004,2.680204,-1.028986,1.010404,0.138899,-0.195306,-0.837124,0.510959,-0.418708,-0.519947,1.118329,3.108978,-28.002304,1.835327,,,,,,
1478385113.97,-2.759205,1.005979,2.666422,-0.788081,0.217227,-0.051975,-0.199726,-0.844686,0.496603,0.116901,-1.146296,0.631113,3.786774,-27.477600,1.540588,,,,,,
1478385113.99,-2.747751,1.031725,2.675833,-1.124651,1.346364,-1.095439,-0.196988,-0.858186,0.474039,1.132764,-2.257140,-0.291498,3.486237,-27.702896,1.238220,,,,,,
1478385114.01,-2.755883,1.061745,2.701222,-1.157308,-0.022511,-0.977462,-0.183349,-0.873207,0.451544,1.557998,-1.525077,-1.264059,3.411011,-27.853210,0.937866,,,,,,
1478385114.03,-2.785221,1.085950,2.697390,-1.082175,-2.731768,-0.097993,-0.162601,-0.884747,0.436789,1.079716,-0.623966,-1.657950,3.639221,-27.328796,0.338623,,,,,,
1478385114.05,-2.868920,1.095693,2.694026,-0.085608,-4.862213,-0.093573,-0.123189,-0.889246,0.440530,-0.235316,0.186624,-1.676858,3.639221,-27.328796,0.338623,,,,,,
1478385114.07,-2.949607,1.079622,2.700904,1.210082,-2.546251,0.155447,-0.089997,-0.881780,0.462996,-0.805160,0.396016,-1.461943,3.041748,-26.954330,-0.193542,,,,,,
1478385114.09,-2.957590,1.048901,2.707148,1.650703,1.145519,0.072348,-0.091213,-0.866876,0.490109,-0.605335,0.196008,-1.332577,1.991180,-27.029190,-0.053772,,,,,,
1478385114.11,-2.918360,1.005460,2.712903,2.596436,2.442095,0.583992,-0.118595,-0.844408,0.522408,-0.012219,0.243807,-1.075844,1.767731,-26.428452,0.692200,,,,,,
1478385114.13,-2.873128,0.940656,2.698361,3.240730,1.274704,1.455871,-0.156302,-0.807945,0.568150,0.442389,-0.181130,-1.042531,1.470734,-24.775452,3.684265,,,,,,
1478385114.15,-2.843602,0.858181,2.673943,3.978829,-0.359582,2.072345,-0.191960,-0.756655,0.625000,0.601231,-0.622023,-1.059173,1.470734,-24.775452,3.684265,,,,,,
1478385114.17,-2.880401,0.767422,2.654087,4.253846,-3.764432,1.921357,-0.185850,-0.694282,0.695293,-0.178148,-0.761178,-0.351909,0.648224,-23.498291,5.847168,,,,,,
1478385114.19,-2.948159,0.671040,2.632915,4.668813,-3.766760,1.597272,-0.150550,-0.621801,0.768569,-0.755029,-0.400797,0.929017,0.427979,-21.696060,8.089600,,,,,,
1478385114.21,-2.995528,0.575750,2.632387,4.692816,-1.526525,0.461333,-0.122082,-0.544464,0.829853,-0.760288,-0.711487,1.176678,-0.317383,-19.968964,10.177002,,,,,,
1478385114.23,-3.004491,0.487377,2.640429,4.166667,0.282333,0.188672,-0.120759,-0.468310,0.875273,-0.632231,-0.972059,0.897966,0.513672,-17.791473,12.653748,,,,,,
1478385114.25,-2.991211,0.416470,2.651001,3.256378,1.296686,-0.101801,-0.137010,-0.404535,0.904201,-0.255355,-0.814566,0.981007,0.513672,-17.791473,12.653748,,,,,,
1478385114.27,-2.960451,0.370884,2.674279,1.853239,2.160195,-1.162810,-0.167904,-0.362440,0.916758,0.108166,-0.341357,0.783269,-0.228058,-14.487076,17.061401,,,,,,
1478385114.29,-2.940743,0.360174,2.716588,0.343757,1.373664,-2.125974,-0.186701,-0.352437,0.917023,0.459406,-0.011195,0.758667,-1.273529,-13.060822,18.321716,,,,,,
1478385114.31,-2.952240,0.381400,2.769611,-1.188120,-0.047529,-3.059939,-0.174698,-0.372220,0.911555,0.792404,0.379728,0.556020,-2.848724,-12.759781,19.354980,,,,,,
1478385114.33,-2.971072,0.433827,2.831458,-2.617183,0.400641,-3.150940,-0.153975,-0.420347,0.894204,0.172896,-0.470019,0.313972,-2.623489,-12.684708,19.432068,,,,,,
1478385114.35,-2.983409,0.517859,2.875326,-4.523908,0.452066,-2.271599,-0.136870,-0.495021,0.858033,-0.389314,0.163996,0.123839,-2.623489,-12.684708,19.432068,,,,,,
1478385114.37,-2.981593,0.625017,2.895520,-5.488610,0.715724,-1.428498,-0.129200,-0.585111,0.800595,0.133686,0.584882,0.043948,-2.783524,-14.934784,19.362183,,,,,,
1478385114.39,-2.967806,0.745204,2.905787,-6.046302,1.222876,-1.409910,-0.127082,-0.678122,0.723879,0.192161,0.761984,-0.130617,-3.241501,-17.110977,18.164185,,,,,,
1478385114.41,-2.944235,0.878118,2.911801,-6.793432,1.347320,-1.389499,-0.125216,-0.769539,0.626204,-0.080442,0.924629,0.083589,-2.645584,-18.763214,15.925049,,,,,,
1478385114.43,-2.905617,1.018751,2.894141,-7.037519,1.062326,-0.695165,-0.122608,-0.851453,0.509896,0.044559,1.474714,0.066398,-2.576004,-20.715469,13.681580,,,,,,
1478385114.45,-2.827313,1.159730,2.800109,-7.544000,-1.400419,0.723523,-0.123525,-0.916695,0.380015,0.048299,2.306771,-0.249690,-2.576004,-20.715469,13.681580,,,,,,
,,,,,,,,,,,,,,,,37.354234,-122.033499,46.651306,0.950000,183.515625,1478385204.00
1478385114.47,-2.652532,1.289902,2.548864,-7.532662,-3.868926,1.498837,-0.130235,-0.960808,0.244719,0.029374,2.488060,0.288759,-2.578400,-22.293610,10.536377,,,,,,
1478385114.49,-2.311177,1.392217,2.122258,-6.324119,-3.342411,0.176476,-0.131130,-0.984097,0.119825,0.081691,2.205349,0.840365,-3.625946,-23.874985,4.155640,,,,,,
1478385114.51,-1.898877,1.445548,1.678869,-2.774099,0.295799,-0.804178,-0.118258,-0.992167,0.040253,0.162798,1.614985,1.989059,-2.723373,-24.328049,1.091003,,,,,,
1478385114.53,-1.712000,1.470831,1.537843,-0.336021,3.179618,-1.165951,-0.098806,-0.995008,0.014045,-0.257945,1.800397,1.627251,-2.571014,-24.179184,-0.032959,,,,,,
1478385114.55,-1.749495,1.495169,1.635304,0.598429,2.391700,-1.311798,-0.074352,-0.997142,0.013430,-0.557164,1.631663,0.796751,-2.571014,-24.179184,-0.032959,,,,,,
1478385114.57,-2.478504,1.466138,2.385152,6.044967,0.756829,0.643050,-0.064306,-0.994528,0.082331,-0.898936,1.159689,0.669287,-1.969009,-23.879623,-0.477844,,,,,,
1478385114.59,-2.501025,1.387039,2.410584,3.965756,-0.302809,2.005167,-0.109206,-0.983164,0.146501,-0.613191,-5.092962,-0.729601,-2.501862,-24.701843,2.294312,,,,,,
1478385114.61,-2.591305,1.338295,2.513166,2.344589,-0.241162,0.170172,-0.120490,-0.973093,0.196398,1.002128,-0.952810,-0.915697,-2.876511,-24.175507,3.638977,,,,,,
1478385114.63,-2.642344,1.285973,2.544345,1.867966,-0.734701,1.612492,-0.134527,-0.959711,0.246691,0.215201,0.525370,-0.044176,-2.950714,-23.574234,4.911499,,,,,,
1478385114.65,-2.554114,1.226104,2.445096,2.382193,-1.134610,3.347404,-0.187290,-0.941179,0.281254,0.553058,1.768541,0.497616,-2.950714,-23.574234,4.911499,,,,,,
1478385114.67,-2.606467,1.135147,2.464437,4.814224,-1.553925,1.076880,-0.215198,-0.906596,0.363005,0.780734,0.357967,1.166597,-3.400696,-23.047653,6.480347,,,,,,
1478385114.69,-2.696882,1.064873,2.567382,2.623059,0.421232,-0.921586,-0.208480,-0.874728,0.437479,0.533980,0.026812,0.054281,-4.973312,-22.071335,7.811768,,,,,,
1478385114.71,-2.761796,1.047477,2.634625,1.617141,0.002011,-1.309121,-0.185276,-0.866165,0.464145,0.044926,-0.173965,-0.019656,-4.519348,-20.118103,11.035400,,,,,,
1478385114.73,-2.821964,1.009829,2.714881,3.063337,0.169288,-1.246313,-0.167164,-0.846741,0.505061,-0.408871,-0.429382,0.907278,-3.768112,-19.667572,11.566589,,,,,,
1478385114.75,-2.865715,0.967524,2.752362,1.080996,-1.056110,0.412538,-0.154539,-0.823484,0.545887,-0.921557,-0.349047,-0.120212,-3.768112,-19.667572,11.566589,,,,,,
1478385114.77,-2.866456,0.954783,2.732055,0.603355,-0.536453,0.559510,-0.156972,-0.816188,0.556054,-1.156901,-0.246480,1.005881,-4.291763,-18.916229,12.909058,,,,,,
1478385114.79,-2.851367,0.943670,2.723598,0.221968,0.720870,0.435277,-0.167929,-0.809717,0.562279,-0.482278,0.017908,1.310493,-3.239059,-18.240997,13.142578,,,,,,
1478385114.81,-2.829715,0.943493,2.699450,-0.290589,-0.390197,0.756130,-0.180107,-0.809613,0.558648,0.038796,-0.565722,1.165229,-3.837814,-17.790482,13.660217,,,,,,
1478385114.83,-2.827503,0.954798,2.695795,-1.112396,0.630965,-0.866493,-0.178504,-0.816197,0.549508,0.611289,-1.448787,1.022651,-3.840851,-18.315033,14.111755,,,,,,
1478385114.85,-2.833970,0.987943,2.729979,-1.122133,0.819379,-1.259171,-0.166660,-0.834896,0.524570,1.070530,-1.848378,0.193005,-3.840851,-18.315033,14.111755,,,,,,
1478385114.87,-2.844975,1.022435,2.740411,-1.806823,-0.649251,-0.713096,-0.152366,-0.853380,0.498525,0.517631,-1.514235,-1.108022,-5.269760,-19.365570,13.575623,,,,,,
1478385114.89,-2.888970,1.059746,2.750623,-1.526477,-2.369020,-0.766487,-0.122246,-0.872231,0.473570,-0.059593,-0.950248,-1.378080,-5.048737,-20.265625,13.505554,,,,,,
1478385114.91,-2.960463,1.078955,2.781391,-0.139384,-1.853296,-0.994502,-0.085072,-0.881465,0.464524,-0.510570,-0.042989,-1.264649,-4.226761,-21.091080,13.066223,,,,,,
1478385114.93,-2.994456,1.059071,2.809914,1.734469,0.491958,-0.171722,-0.071790,-0.871901,0.484391,-0.519808,0.298613,-1.506150,-4.385208,-22.514709,14.418945,,,,,,
1478385114.95,-2.973534,1.001462,2.817628,3.625618,1.733884,0.561512,-0.090170,-0.842260,0.531477,-0.264536,0.333120,-1.936522,-4.385208,-22.514709,14.418945,,,,,,
1478385114.97,-2.931119,0.909547,2.810208,4.814785,1.664127,1.317695,-0.128301,-0.789225,0.600552,0.272832,0.142848,-1.558270,-4.387009,-22.588745,15.394104,,,,,,
1478385114.99,-2.895384,0.801753,2.790921,5.144173,0.692862,2.179950,-0.169501,-0.718576,0.674476,0.443152,-0.601248,-1.263511,-4.983032,-20.936432,17.708191,,,,,,
1478385115.01,-2.867888,0.694828,2.762048,4.721301,0.133837,2.412729,-0.207635,-0.640253,0.739570,0.599984,-0.791692,-0.774314,-6.404282,-19.058304,20.838379,,,,,,
1478385115.03,-2.871639,0.601923,2.740875,3.863264,-1.304179,1.824991,-0.219816,-0.566228,0.794397,-0.011156,-0.624659,-0.722329,-9.095551,-15.227646,26.499939,,,,,,
1478385115.05,-2.897629,0.525285,2.731027,3.598430,-1.459247,1.076208,-0.208985,-0.501460,0.839562,-0.300002,-0.899786,0.253868,-9.095551,-15.227646,26.499939,,,,,,
1478385115.07,-2.913614,0.452834,2.743797,3.669363,0.044331,-0.193092,-0.203230,-0.437515,0.875944,-0.275896,-0.792160,0.809374,-8.044312,-14.100098,29.057068,,,,,,
1478385115.09,-2.917133,0.391311,2.775836,2.959944,0.659151,-0.939462,-0.205755,-0.381401,0.901221,-0.262232,-0.618004,0.771906,-8.120636,-13.798294,30.855408,,,,,,
1478385115.11,-2.912552,0.348642,2.804632,2.160217,0.700051,-0.660814,-0.213384,-0.341622,0.915293,-0.075709,-0.837943,1.115682,-7.521423,-13.572083,32.060730,,,,,,
1478385115.13,-2.913378,0.316709,2.821650,1.307937,-0.146334,-0.409272,-0.214987,-0.311441,0.925627,0.194540,-0.521750,1.050127,-7.669281,-12.821259,32.882019,,,,,,
1478385115.15,-2.934449,0.313509,2.840933,-0.167212,-0.899029,-1.141505,-0.195641,-0.308398,0.930922,0.201653,0.175143,0.856676,-7.669281,-12.821259,32.882019,,,,,,
1478385115.17,-2.957979,0.336803,2.869045,-1.344059,-0.600820,-1.715406,-0.172326,-0.330472,0.927951,0.079552,0.205411,1.012372,-6.396545,-13.195877,33.270874,,,,,,
1478385115.19,-2.973522,0.386472,2.895181,-2.794837,-0.204415,-1.488197,-0.154943,-0.376923,0.913193,-0.186457,0.112442,0.643035,-4.826538,-14.170471,33.664490,,,,,,
1478385115.21,-2.984590,0.465613,2.906491,-4.396630,-0.423423,-1.009728,-0.139714,-0.448970,0.882556,-0.239070,-0.038319,0.178494,-4.085205,-16.045303,33.827515,,,,,,
1478385115.23,-2.992599,0.567053,2.908735,-5.295989,-0.236308,-0.787478,-0.125210,-0.537148,0.834143,0.091762,0.370477,0.108072,-3.275421,-19.796417,32.721802,,,,,,
1478385115.25,-2.996475,0.681160,2.908126,-5.821056,-0.311865,-0.874073,-0.112339,-0.629695,0.768677,0.220172,0.769221,-0.319748,-3.275421,-19.796417,32.721802,,,,,,
1478385115.27,-3.013869,0.810764,2.912936,-6.849694,-0.907193,-1.168111,-0.087756,-0.724814,0.683333,0.022540,1.081808,-0.482848,-1.053207,-28.127884,26.244080,,,,,,
1478385115.29,-3.038086,0.955428,2.927144,-7.236612,-0.262933,-1.337959,-0.059644,-0.816561,0.574170,-0.218936,1.286654,0.183414,-0.084320,-31.208054,21.088074,,,,,,
1478385115.31,-3.041291,1.103558,2.949137,-7.408077,1.429466,-1.197912,-0.045103,-0.892816,0.448159,-0.271716,2.328362,0.269081,0.363251,-33.538437,15.699463,,,,,,
1478385115.33,-3.010653,1.241535,2.937304,-6.415777,0.166302,-0.055381,-0.042218,-0.946281,0.320576,-0.362674,2.691032,0.124645,1.941223,-34.894501,9.644287,,,,,,
1478385115.35,-2.908815,1.350629,2.810985,-5.352115,-1.481207,0.960144,-0.050379,-0.975861,0.212502,-0.164480,1.966706,0.259727,1.941223,-34.894501,9.644287,,,,,,
1478385115.37,-2.630710,1.438957,2.494380,-4.877888,-1.552403,0.926584,-0.064276,-0.991322,0.114673,0.060965,1.582997,0.655378,1.806030,-34.904404,-0.256958,,,,,,
1478385115.39,-2.099563,1.484196,1.957456,-2.329266,0.922369,0.233735,-0.074680,-0.996253,0.043632,-0.065930,1.554221,1.749428,1.063263,-34.533081,-3.940552,,,,,,
1478385115.41,-2.073358,1.492591,1.969518,0.757726,2.182094,-0.683751,-0.068466,-0.996944,0.037631,-0.448349,1.774043,1.443265,0.244904,-33.935715,-6.575562,,,,,,
1478385115.43,-2.400471,1.488044,2.336275,1.706800,1.537515,-0.715926,-0.055804,-0.996578,0.060978,-0.444059,1.381099,0.596997,1.521667,-33.711227,-7.088440,,,,,,
1478385115.45,-2.590963,1.427467,2.555257,3.152307,1.197262,2.683236,-0.074737,-0.989746,0.121727,-1.660142,-1.280777,-3.894584,1.521667,-33.711227,-7.088440,,,,,,
1478385115.47,-2.587169,1.341131,2.611691,2.937681,3.294438,0.545376,-0.119848,-0.973743,0.193550,0.495092,-3.042538,-0.068535,2.568176,-34.235474,-6.326355,,,,,,
,,,,,,,,,,,,,,,,37.354224,-122.033493,43.797974,0.950000,186.679688,1478385205.00
1478385115.49,-2.692022,1.298860,2.721153,2.616039,-1.657108,-0.171826,-0.116726,-0.963253,0.241907,0.243527,-0.189762,-0.163004,0.683411,-35.131653,-2.517517,,,,,,
1478385115.51,-2.675423,1.267140,2.686571,1.936189,0.321863,2.496012,-0.134396,-0.954249,0.267106,0.206158,1.499141,1.481734,1.884766,-34.455521,-1.382568,,,,,,
1478385115.53,-2.622362,1.167949,2.609039,4.463611,-1.903242,3.030636,-0.194535,-0.919948,0.340369,0.989335,1.150341,0.952249,0.234009,-34.530243,-1.098877,,,,,,
1478385115.55,-2.694625,1.087498,2.672836,3.019398,0.167921,-0.720615,-0.200860,-0.885467,0.419051,1.051705,-0.031708,0.607912,0.234009,-34.530243,-1.098877,,,,,,
1478385115.57,-2.756421,1.076080,2.735125,1.045068,-0.198700,-1.047722,-0.178385,-0.880103,0.439997,0.432794,-0.452935,0.741583,-1.644897,-34.678085,1.057861,,,,,,
1478385115.59,-2.791941,1.049980,2.775150,1.627508,0.040930,-0.019296,-0.170459,-0.867413,0.467480,-0.060925,-0.456454,1.011783,-1.271912,-34.300613,3.535400,,,,,,
1478385115.61,-2.791178,1.025266,2.778558,0.720888,-0.084872,0.362344,-0.178122,-0.854852,0.487340,-0.802011,-0.358328,0.878734,-0.522034,-34.074860,4.292236,,,,,,
1478385115.63,-2.824893,1.034691,2.785970,-0.721867,-1.540359,-0.879265,-0.159077,-0.859705,0.485389,-2.527111,-0.332663,0.839089,-1.497131,-34.074783,4.357483,,,,,,
1478385115.65,-2.816165,1.060436,2.796722,-1.280688,2.252919,-0.193492,-0.156178,-0.872569,0.462852,-0.892712,-0.587575,1.447746,-1.497131,-34.074783,4.357483,,,,,,
1478385115.67,-2.736830,1.075163,2.761823,-0.962250,2.039539,0.692197,-0.187288,-0.879667,0.437160,0.082429,-1.567079,0.718877,-0.970123,-33.700012,4.136658,,,,,,
1478385115.69,-2.704211,1.101493,2.746429,-1.507820,0.326512,-0.949218,-0.191565,-0.891884,0.409690,1.380012,-2.129326,-0.676933,-1.721588,-34.150391,3.755493,,,,,,
1478385115.71,-2.745642,1.143614,2.773621,-1.761795,-1.619449,-1.190066,-0.159793,-0.910137,0.382253,1.852130,-1.114659,-1.221975,-1.417419,-33.476135,3.006470,,,,,,
1478385115.73,-2.798526,1.174750,2.762887,-1.185975,-3.937821,-0.171893,-0.129765,-0.922593,0.363294,0.665151,-0.186095,-1.318662,-0.739059,-33.027039,2.111877,,,,,,
1478385115.75,-2.885636,1.183348,2.777846,0.239311,-3.095606,-0.504718,-0.095655,-0.925876,0.365518,-0.446414,0.474994,-0.946039,-0.739059,-33.027039,2.111877,,,,,,
1478385115.77,-2.935685,1.161598,2.807154,1.742132,0.082865,-0.207023,-0.081348,-0.917440,0.389470,-0.794949,0.399206,-0.955250,-1.261230,-32.502335,1.805176,,,,,,
1478385115.79,-2.938494,1.112546,2.846126,3.174442,2.469591,-0.329382,-0.089230,-0.896828,0.433287,-0.662082,0.676048,-0.982481,-2.386993,-32.501816,2.318848,,,,,,
1478385115.81,-2.904701,1.037995,2.883144,4.151355,3.649173,0.117989,-0.119206,-0.861387,0.493763,-0.031169,0.624510,-0.901172,-1.407486,-30.624191,4.948059,,,,,,
1478385115.83,-2.856856,0.948051,2.913827,4.737961,3.614354,0.503546,-0.163843,-0.812280,0.559783,0.388132,0.218118,-0.886107,-1.631348,-29.722244,6.893066,,,,,,
1478385115.85,-2.811375,0.851897,2.936895,4.802060,2.809547,1.001465,-0.213537,-0.752531,0.622976,0.705571,-0.143755,-0.918249,-1.631348,-29.722244,6.893066,,,,,,
1478385115.87,-2.781735,0.757244,2.940535,4.212213,0.747660,1.700994,-0.255912,-0.686922,0.680182,0.992973,-0.440993,-0.738944,-3.127594,-28.220245,8.898560,,,,,,
1478385115.89,-2.800828,0.664952,2.939145,4.382383,-1.835207,1.608711,-0.263004,-0.617022,0.741696,0.579212,-0.458677,-0.387235,-3.343796,-25.743683,10.464050,,,,,,
1478385115.91,-2.844594,0.574030,2.940082,4.230513,-2.157240,1.229340,-0.245745,-0.543021,0.802956,0.259539,-1.005487,0.367165,-3.853348,-21.315689,13.445679,,,,,,
1478385115.93,-2.886987,0.490643,2.940331,3.829807,-2.158979,1.119659,-0.222152,-0.471193,0.853596,0.039351,-1.364622,0.596752,-3.920364,-18.913818,15.312805,,,,,,
1478385115.95,-2.931996,0.419145,2.937634,3.258821,-2.316615,0.787021,-0.190055,-0.406980,0.893447,-0.175165,-1.123644,0.911973,-3.920364,-18.913818,15.312805,,,,,,
1478385115.97,-2.972586,0.358616,2.934252,2.753822,-1.987050,0.751791,-0.157503,-0.350979,0.923042,-0.184172,-1.131275,1.249947,-3.838242,-16.812256,16.882324,,,,,,
1478385115.99,-3.004978,0.310164,2.929049,2.067568,-1.423807,0.414525,-0.129692,-0.305215,0.943411,-0.255974,-0.459891,1.372660,-3.005249,-14.410385,18.758423,,,,,,
1478385116.01,-3.022046,0.279523,2.937443,1.349759,-0.304949,-0.566595,-0.114634,-0.275897,0.954327,-0.201605,0.233401,1.480228,-2.475967,-12.758270,20.858765,,,,,,
1478385116.03,-3.023752,0.269042,2.954103,0.060979,0.204593,-0.744793,-0.113338,-0.265808,0.957340,-0.089985,0.318756,0.993313,-3.076141,-11.103195,25.947754,,,,,,
1478385116.05,-3.025630,0.287382,2.964753,-1.411072,-0.056198,-0.499129,-0.110958,-0.283443,0.952548,-0.089344,0.163112,0.618283,-3.076141,-11.103195,25.947754,,,,,,
1478385116.07,-3.030102,0.331931,2.963341,-2.655707,-0.349251,0.011811,-0.105187,-0.325869,0.939545,-0.083183,0.392336,0.332077,-2.480545,-11.401154,27.979614,,,,,,
1478385116.09,-3.034171,0.399255,2.952257,-3.810143,-0.375178,0.166789,-0.098783,-0.388732,0.916040,-0.080645,0.649626,-0.081934,-2.490784,-13.274948,29.185120,,,,,,
1478385116.11,-3.031688,0.482961,2.938364,-4.451438,-0.046757,0.167645,-0.097138,-0.464404,0.880280,-0.096526,0.745562,-0.313065,-2.279846,-16.425018,29.121704,,,,,,
1478385116.13,-3.019542,0.577275,2.923644,-4.879299,0.424805,0.025030,-0.102019,-0.545742,0.831720,-0.107026,1.029431,-0.564203,-2.754211,-23.179047,25.087280,,,,,,
1478385116.15,-2.996741,0.678376,2.911162,-5.265077,0.967844,-0.310701,-0.112386,-0.627530,0.770439,-0.145075,1.367459,-0.481178,-2.754211,-23.179047,25.087280,,,,,,
1478385116.17,-2.968163,0.784788,2.902584,-5.200422,1.261328,-0.596118,-0.122094,-0.706675,0.696924,-0.146415,1.707652,-0.477335,-2.685745,-25.657120,22.020386,,,,,,
1478385116.19,-2.928035,0.890487,2.892139,-5.339630,1.718367,-0.793830,-0.133316,-0.777378,0.614744,-0.015060,1.980061,-0.595533,-2.916855,-28.060257,18.875183,,,,,,
1478385116.21,-2.888617,0.995243,2.881592,-5.040182,1.323792,-0.865978,-0.136231,-0.838891,0.526975,0.086289,1.411340,-0.254545,-2.919693,-29.863785,15.355652,,,,,,
1478385116.23,-2.853345,1.096575,2.851687,-5.196788,-0.157203,-0.536977,-0.129812,-0.889648,0.437806,0.120703,1.306793,-0.286851,-3.294693,-30.841705,12.429810,,,,,,
1478385116.25,-2.820252,1.203383,2.790570,-5.617679,-1.684871,-0.369896,-0.113450,-0.933260,0.340816,0.108842,1.489473,-0.133494,-3.294693,-30.841705,12.429810,,,,,,
1478385116.27,-2.769091,1.309064,2.691456,-5.203705,-2.222480,-0.392023,-0.094173,-0.965943,0.241009,0.075267,1.703187,0.436054,-2.012787,-31.749039,5.095337,,,,,,
1478385116.29,-2.731336,1.384876,2.621339,-2.773881,-0.852742,-1.006918,-0.073727,-0.982767,0.169512,-0.105808,1.508096,1.163664,-1.257294,-31.752716,1.427917,,,,,,
1478385116.31,-2.827242,1.415379,2.738549,-0.205898,2.236079,-1.667060,-0.047861,-0.987947,0.147207,-0.356008,1.007127,1.152293,-1.103241,-31.680191,-1.045776,,,,,,
1478385116.33,-2.933380,1.432011,2.924626,-1.927136,4.348110,-1.200549,-0.028597,-0.990385,0.135353,-0.706312,0.278196,-0.477058,-0.577026,-31.681015,-1.865479,,,,,,
1478385116.35,-2.964406,1.446225,2.994897,1.249755,0.280606,0.065211,-0.021900,-0.992251,0.122304,-0.634777,0.019213,0.216136,-0.577026,-31.681015,-1.865479,,,,,,
1478385116.37,-2.835541,1.378282,2.872105,3.595007,1.057334,2.089678,-0.057646,-0.981526,0.182436,-0.202959,-4.949367,-1.309282,1.747223,-32.131882,-2.740906,,,,,,
1478385116.39,-2.842519,1.309812,2.910771,2.605434,0.664807,-0.086295,-0.076025,-0.966136,0.246578,0.807531,-0.707646,-0.638332,0.694580,-32.205322,-1.176208,,,,,,
1478385116.41,-2.883046,1.269759,2.891857,1.092764,-3.216826,2.122714,-0.075811,-0.955029,0.286656,0.315862,0.389478,0.354412,0.394806,-31.528442,0.693787,,,,,,
1478385116.43,-2.690812,1.191535,2.701976,3.822687,0.810791,4.156793,-0.161299,-0.928938,0.333250,0.983519,1.830290,1.345964,-0.054932,-31.227707,1.438416,,,,,,
1478385116.45,-2.717806,1.106883,2.742566,3.596726,0.910262,-0.572164,-0.183999,-0.894308,0.407869,0.899438,0.358664,0.451887,-0.054932,-31.227707,1.438416,,,,,,
1478385116.47,-2.788903,1.086090,2.821952,1.272526,-0.192112,-1.368804,-0.160949,-0.884812,0.437268,0.439117,-0.092712,0.046573,-2.155350,-30.776077,3.066040,,,,,,
1478385116.49,-2.823085,1.058583,2.871521,1.861091,0.568983,-0.103879,-0.153477,-0.871662,0.465458,0.197743,-0.274045,0.708371,-1.931015,-29.948151,5.990784,,,,,,
1478385116.51,-2.825431,1.019160,2.867964,1.682837,-0.702680,1.139161,-0.162948,-0.851668,0.498106,-0.054276,-0.347429,0.417254,-2.156006,-29.722488,6.662842,,,,,,
,,,,,,,,,,,,,,,,37.354213,-122.033489,43.397339,1.100000,202.148438,1478385206.00
1478385116.53,-2.802219,0.988245,2.824216,0.809973,-0.654745,1.671986,-0.183145,-0.835062,0.518777,-0.306540,-0.156836,0.667929,-2.077957,-28.821808,7.335938,,,,,,
1478385116.55,-2.808076,0.970866,2.797967,0.259038,-1.767894,0.581380,-0.184827,-0.825375,0.533474,-0.923999,-0.057773,0.301578,-2.077957,-28.821808,7.335938,,,,,,
1478385116.57,-2.816875,0.972139,2.779550,-0.408228,-0.677036,0.544756,-0.179790,-0.826093,0.534084,-0.613728,-0.400225,0.966023,-3.052399,-28.596512,7.625488,,,,,,
1478385116.59,-2.799144,0.982545,2.754287,-1.027347,-0.056428,0.343455,-0.186335,-0.831912,0.522687,-0.623098,-0.212399,1.110583,-4.027832,-28.520996,8.140564,,,,,,
1478385116.61,-2.794915,1.010537,2.739357,-1.615787,-0.583321,-0.343877,-0.180559,-0.847117,0.499791,-0.530242,-0.382039,1.078883,-3.950699,-28.221527,7.615356,,,,,,
1478385116.63,-2.805005,1.051467,2.742330,-2.053946,-0.136098,-1.001557,-0.163911,-0.868152,0.468449,-0.172774,-1.340557,0.756359,-3.804291,-29.197052,7.094788,,,,,,
1478385116.65,-2.812550,1.099444,2.754648,-2.287054,0.188819,-0.885680,-0.146734,-0.890955,0.429730,0.582678,-1.840399,-0.229565,-3.804291,-29.197052,7.094788,,,,,,
1478385116.67,-2.809410,1.148409,2.732883,-2.662220,-1.733956,-0.220652,-0.133684,-0.912113,0.387529,0.934511,-1.348919,-1.302766,-3.656448,-29.947861,6.273499,,,,,,
1478385116.69,-2.863180,1.203631,2.723858,-2.401449,-3.642016,-0.932743,-0.098656,-0.933349,0.345149,0.336174,-0.134477,-1.209544,-4.257904,-30.699142,4.994751,,,,,,
1478385116.71,-2.958226,1.233601,2.743411,-0.710180,-3.592900,-0.386907,-0.060326,-0.943686,0.325295,-0.488090,0.642981,-1.104867,-3.507462,-30.925110,4.027954,,,,,,
1478385116.73,-2.992609,1.227224,2.736773,0.838701,-1.259249,0.370103,-0.050000,-0.941557,0.333122,-0.548694,0.815336,-0.959541,-3.659393,-31.375183,3.952759,,,,,,
1478385116.75,-2.999024,1.192736,2.726456,2.272464,-0.548984,0.422630,-0.052446,-0.929383,0.365373,-0.439833,0.826355,-1.262941,-3.659393,-31.375183,3.952759,,,,,,
1478385116.77,-2.999080,1.128359,2.717807,3.562497,-0.375564,0.780067,-0.060809,-0.903711,0.423803,-0.390866,0.657694,-1.278814,-4.108017,-30.849518,4.621704,,,,,,
1478385116.79,-2.985925,1.044311,2.709027,4.421328,0.888398,0.822433,-0.077907,-0.864579,0.496421,-0.209370,0.498246,-0.865287,-4.408905,-30.397568,6.567322,,,,,,
1478385116.81,-2.941926,0.950229,2.708364,4.727572,2.657611,0.725351,-0.115336,-0.813549,0.569944,0.196161,0.283519,-0.645750,-5.005264,-28.143234,10.904663,,,,,,
1478385116.83,-2.911586,0.856733,2.733048,4.718511,2.539401,0.123489,-0.149309,-0.755707,0.637662,0.168382,-0.416030,-0.861539,-6.428879,-27.015778,13.362000,,,,,,
1478385116.85,-2.858752,0.756754,2.758220,5.295900,4.148763,0.760358,-0.202914,-0.686565,0.698180,0.340274,-1.424382,-0.476103,-6.428879,-27.015778,13.362000,,,,,,
1478385116.87,-2.797139,0.641150,2.777511,5.921099,3.042397,1.119529,-0.270622,-0.598117,0.754334,0.111411,-1.555371,0.068099,-6.875809,-25.588531,15.603210,,,,,,
1478385116.89,-2.778325,0.527500,2.803985,5.499931,0.750030,0.875300,-0.307030,-0.503375,0.807680,0.293587,-1.871686,0.509062,-9.266525,-22.886612,17.521240,,,,,,
1478385116.91,-2.806494,0.431656,2.826175,4.406640,-1.861033,0.693131,-0.298697,-0.418375,0.857754,0.349570,-1.622701,0.633838,-10.072372,-17.483185,20.946960,,,,,,
1478385116.93,-2.873557,0.359425,2.839192,3.216584,-3.654701,0.272647,-0.247915,-0.351736,0.902674,0.257986,-1.107996,0.931890,-9.467621,-15.756165,22.972778,,,,,,
1478385116.95,-2.955328,0.308506,2.861616,2.485809,-3.546411,-0.884359,-0.176447,-0.303635,0.936308,0.029764,-0.709258,1.495058,-9.467621,-15.756165,22.972778,,,,,,
1478385116.97,-3.017519,0.277145,2.895782,1.217309,-1.998705,-1.615246,-0.119033,-0.273611,0.954446,-0.326264,-0.111490,1.364126,-8.414139,-14.404434,24.704346,,,,,,
1478385116.99,-3.042434,0.279983,2.930036,-0.633831,-0.085942,-1.530936,-0.095142,-0.276339,0.956339,-0.677090,0.093341,1.063665,-6.084991,-13.128357,25.773743,,,,,,
1478385117.01,-3.035047,0.314842,2.947942,-2.297594,0.901652,-0.700950,-0.101117,-0.309666,0.945453,-0.638049,0.357091,0.558056,-5.858994,-12.752914,26.224915,,,,,,
1478385117.03,-3.015754,0.382901,2.946155,-3.986290,0.878838,-0.208202,-0.116418,-0.373613,0.920250,-0.277183,0.485688,0.014412,-6.464157,-14.028290,25.847656,,,,,,
1478385117.05,-2.998363,0.476572,2.938470,-5.094635,0.625444,-0.349723,-0.126835,-0.458736,0.879474,0.012730,0.777980,-0.195789,-6.464157,-14.028290,25.847656,,,,,,
1478385117.07,-2.984422,0.589758,2.928473,-5.954447,0.290192,-0.453641,-0.130084,-0.556160,0.820832,0.035540,1.071052,-0.459504,-7.668671,-15.304123,25.014465,,,,,,
1478385117.09,-2.975343,0.715633,2.915356,-6.475638,-0.001067,-0.553643,-0.124888,-0.656095,0.744273,-0.104345,1.468412,-0.501551,-7.601425,-17.555695,23.446899,,,,,,
1478385117.11,-2.960780,0.851543,2.901784,-6.852987,0.614614,-0.796207,-0.118475,-0.752298,0.648083,-0.138834,1.782938,-0.315701,-7.762268,-20.557480,21.654297,,,,,,
1478385117.13,-2.918351,0.988307,2.887990,-6.845488,2.140183,-1.009955,-0.121789,-0.835096,0.536454,-0.122855,2.007993,-0.013810,-8.525574,-25.363022,16.111084,,,,,,
1478385117.15,-2.841385,1.124800,2.855704,-6.729650,2.269786,-0.916444,-0.127560,-0.902181,0.412065,-0.098804,1.784078,0.079390,-8.525574,-25.363022,16.111084,,,,,,
1478385117.17,-2.729143,1.252066,2.756690,-6.594611,0.049351,-0.226775,-0.125612,-0.949634,0.287083,0.018343,1.473728,0.126415,-8.227509,-27.016693,12.443970,,,,,,
1478385117.19,-2.491963,1.363348,2.482545,-6.456747,-2.031705,0.516705,-0.124586,-0.978560,0.164011,0.202344,1.572386,0.400351,-8.002640,-28.295441,8.700012,,,,,,
1478385117.21,-2.007818,1.427102,1.950058,-4.635265,-1.798966,0.225629,-0.129742,-0.989694,0.060608,0.333462,1.717721,1.070632,-8.375748,-29.048965,5.173584,,,,,,
1478385117.23,-1.691726,1.455735,1.618547,-1.108845,0.316168,-1.309493,-0.113970,-0.993388,0.013850,0.101015,1.249690,1.242544,-8.072403,-29.126450,2.701843,,,,,,
1478385117.25,-1.843186,1.486740,1.819649,0.985985,3.899108,-1.728704,-0.080862,-0.996469,0.022587,-0.490656,0.501550,0.301708,-8.072403,-29.126450,2.701843,,,,,,
1478385117.27,-2.399924,1.469040,2.433790,4.831330,1.660282,0.281530,-0.068620,-0.994827,0.074900,-1.054640,-0.864655,0.555883,-7.547287,-29.728317,0.833923,,,,,,
1478385117.29,-2.530874,1.395911,2.585265,3.386880,0.612865,1.575337,-0.099779,-0.984747,0.142543,0.116655,-2.445399,-0.496440,-7.174866,-29.801804,2.337830,,,,,,
1478385117.31,-2.569001,1.337102,2.650544,2.623619,0.801969,0.939887,-0.125469,-0.972817,0.194637,0.351391,0.344522,-0.859783,-8.298843,-29.050247,3.899414,,,,,,
1478385117.33,-2.552253,1.291909,2.637146,0.916209,0.777289,1.728549,-0.153007,-0.961362,0.228847,-0.009270,1.091535,1.069523,-9.499374,-28.598526,5.611023,,,,,,
1478385117.35,-2.534320,1.225628,2.617499,3.934931,-0.886530,2.198261,-0.193075,-0.941018,0.277860,0.449957,0.746042,1.541354,-9.499374,-28.598526,5.611023,,,,,,
1478385117.37,-2.647911,1.131283,2.706392,5.032785,-1.091222,0.087337,-0.201632,-0.904959,0.374692,0.657473,0.198431,0.569385,-11.368805,-26.571152,7.986267,,,,,,
1478385117.39,-2.707230,1.095946,2.775341,1.132214,-0.189480,-0.477890,-0.192407,-0.889361,0.414748,0.535409,-0.346891,0.116700,-11.592667,-25.368301,10.830444,,,,,,
1478385117.41,-2.738526,1.060702,2.809856,2.269874,-0.115730,0.337362,-0.191516,-0.872698,0.449132,0.155459,-0.313688,0.701030,-11.591660,-24.767181,11.953613,,,,,,
1478385117.43,-2.742263,1.016956,2.803540,1.612425,-0.565957,1.353186,-0.204493,-0.850511,0.484576,-0.059194,0.136445,0.384702,-12.039383,-24.016449,12.696899,,,,,,
1478385117.45,-2.727488,0.987983,2.776600,0.846118,-0.361433,0.848120,-0.221454,-0.834917,0.503856,-0.390133,0.248843,0.641301,-12.039383,-24.016449,12.696899,,,,,,
1478385117.47,-2.768136,0.967750,2.803599,1.353468,-1.179468,-0.701391,-0.206918,-0.823612,0.528061,-0.854514,-0.213345,0.727356,-12.708618,-22.214874,14.259766,,,,,,
1478385117.49,-2.782882,0.963337,2.799375,-0.630300,-0.705202,0.848880,-0.200383,-0.821101,0.534453,-0.452403,-0.790120,0.605013,-12.258163,-21.914276,14.863403,,,,,,
1478385117.51,-2.754364,0.972336,2.745592,-1.154180,-0.890595,1.303675,-0.212742,-0.826204,0.521659,-0.384334,-0.452864,1.400994,-12.709854,-22.138840,15.309570,,,,,,
,,,,,,,,,,,,,,,,37.354204,-122.033486,43.537170,1.100000,185.976562,1478385207.00
1478385117.53,-2.737362,0.991985,2.692945,-1.530995,-1.605956,0.673887,-0.215153,-0.837114,0.502941,-0.173153,-0.583144,1.653553,-12.258728,-21.913895,15.238403,,,,,,
1478385117.55,-2.740968,1.033160,2.677085,-2.758606,-0.097040,-1.261147,-0.199719,-0.858922,0.471557,0.308697,-1.634929,0.870468,-12.258728,-21.913895,15.238403,,,,,,
1478385117.57,-2.751348,1.099541,2.686814,-3.122809,-0.377985,-1.083059,-0.172710,-0.890999,0.419872,0.268047,-2.085670,-0.436458,-12.261322,-22.513962,15.165161,,,,,,
1478385117.59,-2.753258,1.173566,2.659727,-3.890435,-2.135826,-1.048630,-0.146486,-0.922136,0.358060,0.558733,-1.201826,-1.491071,-12.276306,-26.190018,14.126038,,,,,,
1478385117.61,-2.821695,1.237614,2.655145,-2.224205,-4.371119,-0.829648,-0.102848,-0.945006,0.310460,-0.211453,0.307067,-1.446584,-11.981506,-27.766281,12.858704,,,,,,
1478385117.63,-2.896935,1.252552,2.653144,0.089721,-3.026843,0.031745,-0.075792,-0.949786,0.303582,-0.052016,1.436435,-1.212777,-10.036728,-29.041626,12.506958,,,,,,
1478385117.65,-2.953724,1.230627,2.662957,1.725632,-2.210550,0.142610,-0.062314,-0.942698,0.327776,-0.787753,0.831355,-1.509417,-10.036728,-29.041626,12.506958,,,,,,
1478385117.67,-2.997067,1.178581,2.666403,2.862477,-2.068862,0.571278,-0.055051,-0.924065,0.378251,-0.294559,0.557411,-1.212113,-9.289307,-29.265564,13.565125,,,,,,
1478385117.69,-3.024612,1.111977,2.653584,3.566598,-1.657763,0.730692,-0.051692,-0.896576,0.439863,-0.420278,0.461182,-1.151320,-9.139053,-27.911667,17.462585,,,,,,
1478385117.71,-3.029983,1.029507,2.646114,4.332999,0.067044,0.522017,-0.057387,-0.857045,0.512036,-0.392626,0.768758,-1.092816,-8.687027,-26.709427,19.713501,,,,,,
1478385117.73,-3.011257,0.936971,2.651418,4.754364,1.810052,0.426045,-0.076971,-0.805768,0.587208,-0.160883,0.335385,-0.878086,-9.207047,-24.681671,22.477234,,,,,,
1478385117.75,-2.952712,0.833974,2.651517,5.168457,3.530181,1.096056,-0.126163,-0.740608,0.659987,0.139316,-0.413430,-0.701247,-9.207047,-24.681671,22.477234,,,,,,
1478385117.77,-2.881906,0.724429,2.652566,5.412345,3.218372,1.091348,-0.192296,-0.662708,0.723768,-0.103267,-1.212582,-0.552260,-10.851273,-22.654434,24.704712,,,,,,
1478385117.79,-2.847258,0.618359,2.671992,5.181517,1.927557,0.660027,-0.236385,-0.579699,0.779789,-0.059513,-1.804456,-0.037037,-12.716980,-19.877289,26.852722,,,,,,
1478385117.81,-2.830227,0.516097,2.686924,5.082717,0.697800,1.010120,-0.266456,-0.493489,0.827931,0.024101,-1.007869,0.419750,-16.894608,-13.874191,29.942871,,,,,,
1478385117.83,-2.846391,0.421454,2.709592,4.609949,-0.803152,0.039390,-0.265475,-0.409088,0.873024,-0.005460,-0.846665,0.779427,-17.111053,-11.472717,31.433533,,,,,,
1478385117.85,-2.881960,0.345436,2.745693,3.830036,-1.177248,-0.839102,-0.241560,-0.338607,0.909392,-0.079561,-1.156480,1.205354,-17.111053,-11.472717,31.433533,,,,,,
1478385117.87,-2.915453,0.286722,2.781795,2.746937,-1.008074,-0.989031,-0.215063,-0.282810,0.934755,-0.267954,-0.720593,1.150878,-16.655869,-9.896423,32.708313,,,,,,
1478385117.89,-2.939526,0.257566,2.812604,1.311075,-0.525959,-1.273335,-0.194074,-0.254728,0.947338,-0.308383,-0.055453,1.332295,-16.203278,-8.920227,33.909973,,,,,,
1478385117.91,-2.941135,0.248878,2.843934,0.251204,0.669304,-1.469549,-0.192983,-0.246317,0.949782,0.065953,0.332880,1.166124,-14.926819,-8.620300,33.846802,,,,,,
1478385117.93,-2.937017,0.273972,2.873044,-1.712909,0.452518,-1.763105,-0.195574,-0.270557,0.942629,0.145434,0.140919,0.534574,-15.530090,-9.445602,33.543274,,,,,,
1478385117.95,-2.935898,0.335632,2.899937,-3.282362,0.475829,-1.912145,-0.192851,-0.329366,0.924298,0.115107,0.301030,0.387912,-15.530090,-9.445602,33.543274,,,,,,
1478385117.97,-2.934865,0.420887,2.920427,-4.369375,0.385863,-1.689915,-0.187345,-0.408570,0.893293,0.001432,0.591248,0.013140,-16.436371,-11.096359,32.789124,,,,,,
1478385117.99,-2.930907,0.522791,2.930283,-5.153232,0.468645,-1.394029,-0.181196,-0.499300,0.847271,0.075728,0.678392,-0.328579,-16.372635,-13.872162,31.973145,,,,,,
1478385118.01,-2.921705,0.634528,2.934600,-5.621346,0.607702,-1.398735,-0.175663,-0.592797,0.785961,0.061543,0.944589,-0.451686,-15.936752,-17.548798,30.338501,,,,,,
1478385118.03,-2.914741,0.758077,2.937248,-6.179821,0.304271,-1.523410,-0.163321,-0.687526,0.707555,-0.092783,1.164058,-0.279790,-15.362228,-24.753418,25.715881,,,,,,
1478385118.05,-2.912155,0.887204,2.938684,-6.245527,0.238872,-1.439299,-0.143641,-0.775309,0.615031,-0.080877,1.765436,-0.170696,-15.362228,-24.753418,25.715881,,,,,,
1478385118.07,-2.891143,1.010148,2.927907,-5.984627,0.813063,-0.977844,-0.131785,-0.846910,0.515146,-0.022710,2.165148,-0.134699,-15.374283,-28.431412,22.726746,,,,,,
1478385118.09,-2.854853,1.124706,2.892021,-5.642390,-0.382067,-0.546756,-0.122023,-0.902141,0.413826,-0.021578,1.854549,-0.188179,-14.106781,-31.435440,18.698486,,,,,,
1478385118.11,-2.817246,1.234028,2.818556,-5.661704,-2.126559,-0.164820,-0.105307,-0.943828,0.313209,-0.033715,1.475566,0.136834,-13.657806,-33.164932,14.208191,,,,,,
1478385118.13,-2.716760,1.335990,2.657177,-5.462020,-2.931772,0.524582,-0.095893,-0.972559,0.211974,0.011710,1.415858,0.587678,-12.606979,-35.196594,7.549744,,,,,,
1478385118.15,-2.433618,1.413385,2.319523,-4.425787,-1.802743,0.650222,-0.101942,-0.987636,0.119089,-0.027025,1.762249,1.446325,-12.606979,-35.196594,7.549744,,,,,,
1478385118.17,-2.177473,1.449390,2.062411,-1.383670,1.307444,-0.602011,-0.099497,-0.992639,0.069049,-0.265189,1.751184,1.811887,-12.827820,-35.349823,4.322998,,,,,,
