timestamp(unix),attitude_roll(radians),attitude_pitch(radians),attitude_yaw(radians),rotation_rate_x(radians/s),rotation_rate_y(radians/s),rotation_rate_z(radians/s),gravity_x(G),gravity_y(G),gravity_z(G),user_acc_x(G),user_acc_y(G),user_acc_z(G),magnetic_field_x(microteslas),magnetic_field_y(microteslas),magnetic_field_z(microteslas),latitude(degree),longitude(degree),altitude(meter),speed(m/s),course(degree),timestamp(unix)
1478385036.98,-2.893906,1.392218,-0.502648,-0.048487,-0.178051,-0.113243,-0.043548,-0.984097,0.172209,0.028793,0.010434,-0.030959,-13.321457,-36.599472,29.671753,,,,,,
1478385037.00,-2.892155,1.392523,-0.507898,-0.028123,-0.115672,0.099580,-0.043776,-0.984151,0.171843,-0.061693,0.034353,0.004534,-12.721603,-36.749832,29.303223,,,,,,
,,,,,,,,,,,,,,,,37.354389,-122.033303,39.600464,0.000000,324.843750,1478385036.98
,,,,,,,,,,,,,,,,37.354389,-122.033303,39.600464,0.000000,324.843750,1478385036.00
1478385037.02,-2.887304,1.392616,-0.513098,-0.002024,0.020305,0.040168,-0.044586,-0.984168,0.171539,-0.017914,-0.007379,-0.010330,-13.621689,-36.599319,29.818787,,,,,,
1478385037.04,-2.881274,1.392682,-0.518288,-0.019114,0.036299,0.044456,-0.045603,-0.984179,0.171205,-0.000906,-0.001187,-0.045289,-13.621689,-36.599319,29.818787,,,,,,
1478385037.06,-2.874567,1.393366,-0.525756,-0.057079,-0.075727,0.057971,-0.046572,-0.984300,0.170246,0.002749,0.014437,0.002606,-13.320908,-36.524628,29.521606,,,,,,
,,,,,,,,,,,,,,,,37.354389,-122.033303,39.567322,0.000000,321.679688,1478385037.00
1478385037.08,-2.869210,1.394695,-0.532752,-0.107198,-0.071940,0.033321,-0.047132,-0.984534,0.168734,0.020413,0.017951,0.060804,-13.095245,-36.449844,29.298584,,,,,,
1478385037.10,-2.863833,1.396938,-0.539907,-0.139168,-0.074347,0.020438,-0.047433,-0.984925,0.166354,-0.017814,0.001007,0.054548,-13.846802,-36.674469,29.666748,,,,,,
1478385037.12,-2.858202,1.400024,-0.546059,-0.173592,0.020282,0.002475,-0.047518,-0.985454,0.163165,-0.026685,0.010265,0.022458,-13.847260,-36.824631,29.517212,,,,,,
1478385037.14,-2.850336,1.403794,-0.552116,-0.202720,0.128919,-0.005824,-0.047733,-0.986087,0.159227,-0.029080,0.003070,0.012496,-13.847260,-36.824631,29.517212,,,,,,
1478385037.16,-2.841760,1.407573,-0.557774,-0.185761,0.151290,-0.014281,-0.047996,-0.986709,0.155250,0.021415,0.026961,-0.002098,-13.171036,-36.750229,28.923706,,,,,,
1478385037.18,-2.832989,1.411190,-0.564018,-0.191992,0.108760,0.000549,-0.048272,-0.987290,0.151422,0.029076,0.010758,-0.055947,-13.097275,-37.125519,28.625671,,,,,,
1478385037.20,-2.824737,1.414204,-0.570775,-0.143991,0.088652,-0.000491,-0.048592,-0.987764,0.148190,-0.006248,0.011995,-0.078122,-14.073486,-37.275146,28.991272,,,,,,
1478385037.22,-2.817328,1.416372,-0.575809,-0.108981,0.138000,0.010390,-0.049006,-0.988100,0.145795,-0.019567,0.009966,-0.096509,-13.848267,-37.350525,28.618835,,,,,,
1478385037.24,-2.809397,1.417808,-0.580957,-0.046124,0.138287,0.014774,-0.049698,-0.988320,0.144061,0.027085,0.022271,-0.073580,-13.848267,-37.350525,28.618835,,,,,,
1478385037.26,-2.802890,1.418078,-0.585000,-0.005499,0.102373,0.032909,-0.050546,-0.988361,0.143483,0.030359,0.016834,-0.079716,-13.247055,-37.200897,28.249390,,,,,,
1478385037.28,-2.799227,1.416991,-0.587376,0.070263,0.063173,0.032933,-0.051432,-0.988195,0.144309,0.000116,0.026647,-0.058524,-14.372803,-37.350830,28.313599,,,,,,
1478385037.30,-2.798262,1.414760,-0.587261,0.125749,0.037847,0.039370,-0.052313,-0.987851,0.146334,-0.008020,0.011304,-0.050936,-14.374054,-37.726120,28.014709,,,,,,
1478385037.32,-2.798822,1.411950,-0.586538,0.146157,-0.007810,0.052101,-0.053164,-0.987410,0.148977,0.025057,0.009322,-0.040441,-14.147827,-37.275604,28.540588,,,,,,
1478385037.34,-2.798660,1.408562,-0.587574,0.166631,-0.073743,0.064777,-0.054312,-0.986869,0.152118,0.039954,0.028571,-0.055103,-14.147827,-37.275604,28.540588,,,,,,
1478385037.36,-2.800369,1.404861,-0.587362,0.182552,-0.057727,0.060575,-0.055274,-0.986264,0.155652,-0.013039,0.005094,-0.017423,-13.547592,-37.200516,28.621399,,,,,,
1478385037.38,-2.800598,1.401483,-0.587044,0.102290,0.046335,0.042558,-0.056352,-0.985701,0.158803,-0.039335,0.013823,-0.002843,-14.297714,-37.050003,29.138367,,,,,,
1478385037.40,-2.797121,1.400168,-0.589727,0.054350,0.050513,0.049965,-0.057342,-0.985478,0.159826,0.004348,0.019582,0.147913,-13.696228,-36.825302,28.843811,,,,,,
1478385037.42,-2.795453,1.400094,-0.589611,-0.029033,0.097123,-0.041936,-0.057633,-0.985466,0.159799,0.006455,0.064552,0.076377,-14.070221,-36.600296,28.839355,,,,,,
1478385037.44,-2.800132,1.401523,-0.581432,-0.050961,0.254096,-0.115263,-0.056413,-0.985707,0.158740,-0.128249,0.011525,0.081784,-14.070221,-36.600296,28.839355,,,,,,
1478385037.46,-2.803031,1.403519,-0.571667,-0.077871,0.348121,-0.096888,-0.055299,-0.986042,0.157047,-0.105834,-0.024136,0.031781,-13.622025,-36.975220,28.919861,,,,,,
1478385037.48,-2.806847,1.405931,-0.561752,-0.086119,0.247370,-0.131369,-0.053918,-0.986440,0.155010,0.025125,-0.006647,-0.003796,-14.971222,-36.825317,28.831055,,,,,,
1478385037.50,-2.817861,1.407898,-0.547568,-0.055870,0.109618,-0.148790,-0.051590,-0.986761,0.153754,0.033432,0.006705,-0.053107,-14.521805,-37.050598,28.536194,,,,,,
1478385037.52,-2.831402,1.409537,-0.532101,-0.021719,0.094921,-0.139156,-0.049010,-0.987026,0.152899,-0.035493,0.013378,-0.061209,-14.295563,-36.825760,28.387756,,,,,,
1478385037.54,-2.846110,1.410087,-0.513817,0.042868,0.209155,-0.154755,-0.046598,-0.987114,0.153083,-0.041674,0.020836,-0.048103,-14.295563,-36.825760,28.387756,,,,,,
1478385037.56,-2.862984,1.409668,-0.492649,0.093061,0.170939,-0.153705,-0.044122,-0.987047,0.154245,0.015939,0.003481,-0.073557,-14.145569,-36.825760,28.389282,,,,,,
1478385037.58,-2.882499,1.407865,-0.470971,0.157396,0.047533,-0.142179,-0.041559,-0.986756,0.156797,0.034311,0.014176,-0.114713,-14.748703,-37.425461,28.685059,,,,,,
1478385037.60,-2.903540,1.404901,-0.449999,0.210989,-0.042692,-0.118829,-0.038941,-0.986271,0.160479,0.007889,0.007709,-0.094454,-13.771469,-36.900375,28.768250,,,,,,
1478385037.62,-2.923569,1.400597,-0.430291,0.267376,-0.016780,-0.111181,-0.036637,-0.985551,0.165369,0.011719,0.017686,-0.046656,-13.847595,-37.200516,28.618347,,,,,,
1478385037.64,-2.942523,1.395344,-0.411856,0.306972,-0.065541,-0.096288,-0.034519,-0.984648,0.171106,0.027546,0.010527,-0.055734,-13.847595,-37.200516,28.618347,,,,,,
1478385037.66,-2.961284,1.389232,-0.394581,0.340101,-0.094127,-0.087762,-0.032382,-0.983562,0.177641,0.023730,-0.002445,-0.042799,-14.448929,-37.274857,29.287537,,,,,,
1478385037.68,-2.977457,1.382830,-0.380418,0.345557,-0.124824,-0.068605,-0.030533,-0.982386,0.184350,0.008072,0.003001,-0.024361,-14.371552,-36.825089,29.061951,,,,,,
1478385037.70,-2.993034,1.376372,-0.366882,0.341221,-0.106826,-0.079247,-0.028596,-0.981159,0.191073,0.003465,0.003635,0.004071,-13.395233,-36.299393,29.745178,,,,,,
1478385037.72,-3.006569,1.370188,-0.354923,0.310278,-0.087631,-0.070701,-0.026824,-0.979946,0.197452,0.005538,0.000057,-0.000949,-13.470337,-36.299316,29.819397,,,,,,
1478385037.74,-3.018759,1.364242,-0.343965,0.308051,-0.058852,-0.072762,-0.025129,-0.978743,0.203543,0.006665,0.012877,-0.000220,-13.470337,-36.299316,29.819397,,,,,,
1478385037.76,-3.030434,1.358091,-0.333557,0.316688,-0.095128,-0.074984,-0.023418,-0.977463,0.209802,0.015041,0.008927,-0.028924,-13.995667,-36.223877,30.263977,,,,,,
1478385037.78,-3.042859,1.351832,-0.323289,0.329556,-0.121771,-0.076103,-0.021412,-0.976123,0.216161,-0.003918,-0.004499,-0.031240,-12.943314,-35.698868,30.272888,,,,,,
1478385037.80,-3.054865,1.345008,-0.312633,0.362303,-0.046124,-0.096138,-0.019392,-0.974618,0.223033,-0.034289,0.012551,-0.056880,-13.169113,-35.698349,30.795593,,,,,,
1478385037.82,-3.066322,1.337493,-0.300588,0.402485,0.039232,-0.109723,-0.017386,-0.972908,0.230538,-0.032663,-0.026711,-0.075097,-13.544098,-35.472672,31.466248,,,,,,
1478385037.84,-3.077020,1.329167,-0.288593,0.437611,0.046808,-0.111778,-0.015440,-0.970949,0.238786,0.002684,-0.025190,-0.096009,-13.544098,-35.472672,31.466248,,,,,,
1478385037.86,-3.087948,1.327672,-0.276937,0.493132,0.002249,-0.107521,-0.012908,-0.970591,0.240389,0.007689,-0.021459,-0.093386,-13.391846,-34.947601,31.541138,,,,,,
1478385037.88,-3.098466,1.317287,-0.266915,0.547703,-0.063492,-0.089444,-0.010813,-0.968038,0.250569,0.006846,0.000021,-0.091084,-12.717529,-35.022369,31.773132,,,,,,
1478385037.90,-3.108565,1.312691,-0.258096,0.592506,-0.084550,-0.079799,-0.008429,-0.966875,0.255110,0.002234,-0.069944,-0.095182,-13.016510,-34.646927,32.219055,,,,,,
1478385037.92,-3.117222,1.301732,-0.252577,0.536570,-0.228377,-0.042898,-0.006478,-0.964020,0.265750,-0.001045,-0.140655,-0.022815,-12.939926,-33.970947,33.192749,,,,,,
1478385037.94,-3.124466,1.291764,-0.250678,0.473909,-0.288879,-0.003668,-0.004717,-0.961322,0.275385,0.037767,-0.026577,0.001821,-12.939926,-33.970947,33.192749,,,,,,
1478385037.96,-3.130307,1.281826,-0.250889,0.510083,-0.266103,0.015689,-0.003216,-0.958538,0.284947,-0.032398,-0.021961,-0.032200,-12.112244,-33.370941,33.199219,,,,,,
1478385037.98,-3.132194,1.270984,-0.251590,0.583949,-0.041535,0.032462,-0.002776,-0.955392,0.295328,-0.055437,-0.144233,-0.161036,-12.112915,-33.295273,33.873962,,,,,,
1478385038.00,-3.123910,1.258267,-0.257987,0.744426,0.130123,0.148603,-0.005437,-0.951559,0.307419,0.001134,-0.093867,-0.367203,-12.112457,-33.069901,34.248291,,,,,,
1478385038.02,-3.112107,1.239580,-0.264250,0.992649,0.427029,0.092157,-0.009587,-0.945648,0.325052,-0.110637,-0.060731,-0.470865,-12.936188,-32.544159,34.988525,,,,,,
1478385038.04,-3.091352,1.219440,-0.272694,0.962995,0.787649,0.274729,-0.017284,-0.938907,0.343738,-0.162937,-0.233686,-0.258502,-12.936188,-32.544159,34.988525,,,,,,
1478385038.06,-3.053822,1.203755,-0.294084,0.547610,0.861085,0.477209,-0.031456,-0.933393,0.357474,0.001259,-0.181658,-0.009024,-12.930099,-31.043701,35.434082,,,,,,
1478385038.08,-3.020567,1.200746,-0.313798,-0.165927,0.707751,0.281093,-0.043664,-0.932309,0.359017,0.123360,-0.027087,0.175621,-14.052383,-30.293259,35.870544,,,,,,
,,,,,,,,,,,,,,,,37.354396,-122.033312,39.950317,0.160000,345.234375,1478385038.00
1478385038.10,-2.998766,1.212684,-0.323034,-0.862921,0.647909,-0.044017,-0.049892,-0.936560,0.346938,0.170604,0.173285,0.198885,-14.651703,-30.218506,35.639343,,,,,,
1478385038.12,-2.987781,1.237070,-0.320657,-1.403724,0.736519,-0.318230,-0.050185,-0.944828,0.323699,0.183684,0.133030,0.129838,-15.479843,-30.968658,35.483398,,,,,,
1478385038.14,-2.980598,1.270235,-0.305218,-1.665445,1.492173,-0.581575,-0.047458,-0.955171,0.292228,-0.127148,0.138337,0.187798,-15.479843,-30.968658,35.483398,,,,,,
1478385038.16,-2.965951,1.304661,-0.273189,-1.593232,2.765986,-0.808725,-0.045957,-0.964794,0.258959,-0.317339,0.136029,0.146040,-15.859818,-32.921204,32.935425,,,,,,
1478385038.18,-2.948976,1.337969,-0.219820,-1.434915,3.784416,-1.002237,-0.044168,-0.973018,0.226463,-0.337347,-0.085042,-0.053123,-17.287399,-34.123093,31.049744,,,,,,
1478385038.20,-2.927230,1.370554,-0.153250,-1.501624,4.626748,-1.038499,-0.042312,-0.980018,0.194354,-0.253342,-0.242134,-0.127307,-18.790421,-35.475128,29.013733,,,,,,
1478385038.22,-2.898160,1.407881,-0.084573,-1.804775,4.823224,-1.022460,-0.039095,-0.986759,0.157414,0.087511,-0.108014,-0.136021,-20.139191,-36.152985,26.152283,,,,,,
1478385038.24,-2.871397,1.450451,-0.027650,-2.003794,3.530015,-0.860758,-0.032045,-0.992767,0.115700,0.550829,0.000961,-0.234352,-20.139191,-36.152985,26.152283,,,,,,
1478385038.26,-2.873956,1.494300,0.014095,-2.034982,0.733565,-0.725336,-0.020210,-0.997076,0.073701,0.998100,0.039480,-0.614076,-21.940979,-38.634232,19.916687,,,,,,
1478385038.28,-2.845441,1.528998,-0.042527,-1.525207,-2.432913,-0.112407,-0.012195,-0.999127,0.039967,0.743869,0.451718,-0.173787,-22.091797,-39.686844,17.293396,,,,,,
1478385038.30,-2.719438,1.538202,-0.234826,0.504787,-3.719406,0.361966,-0.013352,-0.999469,0.029728,-0.011550,0.943744,0.709607,-22.020187,-40.286392,17.745911,,,,,,
1478385038.32,-2.782545,1.497367,-0.228105,2.390797,-1.948906,0.948133,-0.025779,-0.997305,0.068685,-0.885369,1.013403,1.546916,-20.447205,-40.435486,18.662048,,,,,,
1478385038.34,-2.701818,1.466451,-0.291090,0.878619,2.031128,0.682935,-0.044343,-0.994561,0.094245,-1.286422,-0.955909,0.280434,-20.447205,-40.435486,18.662048,,,,,,
1478385038.36,-2.585110,1.445251,-0.376945,0.543868,0.673401,1.113466,-0.066139,-0.992130,0.106323,0.092735,-0.331952,-0.034957,-20.746292,-39.382935,21.205933,,,,,,
1478385038.38,-2.519406,1.429993,-0.455834,0.240061,-1.177566,0.533034,-0.081791,-0.990104,0.114040,0.657093,0.144233,0.218235,-23.816742,-38.257599,21.546875,,,,,,
1478385038.40,-2.532411,1.423601,-0.465982,0.259235,-0.689822,0.176488,-0.083921,-0.989186,0.120282,-0.200808,0.143285,0.545810,-23.064163,-37.582291,21.852356,,,,,,
1478385038.42,-2.517297,1.416808,-0.478668,0.154727,0.425242,0.382374,-0.089655,-0.988167,0.124449,-0.424948,-0.396782,0.058321,-22.914825,-37.506607,22.528564,,,,,,
1478385038.44,-2.474575,1.411020,-0.515283,0.049966,0.185209,0.331315,-0.098425,-0.987263,0.124998,0.051596,-0.181240,-0.104734,-22.914825,-37.506607,22.528564,,,,,,
1478385038.46,-2.460431,1.407441,-0.533358,0.042120,-0.405237,0.216425,-0.102407,-0.986687,0.126337,0.074178,0.045922,-0.119333,-23.215408,-37.731918,22.226257,,,,,,
1478385038.48,-2.450471,1.403862,-0.553385,0.045520,-0.468185,0.216257,-0.105911,-0.986099,0.128031,-0.094605,0.155426,0.020650,-24.489456,-37.356400,22.737427,,,,,,
1478385038.50,-2.453396,1.399918,-0.555634,0.193301,-0.099665,0.111754,-0.108005,-0.985436,0.131344,-0.191525,0.189049,0.025471,-24.038696,-37.281708,22.441650,,,,,,
1478385038.52,-2.456613,1.395055,-0.550123,0.216983,0.165394,0.139235,-0.110612,-0.984597,0.135400,-0.104857,-0.190741,-0.100183,-23.588135,-37.131622,22.520691,,,,,,
1478385038.54,-2.448168,1.389420,-0.559226,0.139638,-0.210594,0.311151,-0.115297,-0.983596,0.138726,0.190874,-0.237320,-0.117166,-23.588135,-37.131622,22.520691,,,,,,
1478385038.56,-2.444562,1.383047,-0.573337,0.183483,-0.625349,0.237434,-0.119818,-0.982427,0.143113,0.201941,0.143987,-0.052491,-24.188461,-37.056168,22.964478,,,,,,
1478385038.58,-2.457757,1.377619,-0.569632,0.253744,-0.331807,0.133658,-0.121286,-0.981399,0.148813,-0.093207,-0.043854,0.023047,-25.013672,-36.905594,23.555786,,,,,,
1478385038.60,-2.461168,1.371523,-0.568148,0.237802,0.022303,0.213668,-0.124539,-0.980211,0.153873,-0.140002,-0.089034,0.019177,-24.037674,-36.530136,24.014465,,,,,,
1478385038.62,-2.451273,1.366505,-0.577304,0.060088,-0.021771,0.242085,-0.129186,-0.979205,0.156424,-0.002924,-0.085019,0.063928,-24.112656,-36.454910,24.238525,,,,,,
1478385038.64,-2.438736,1.363527,-0.593918,-0.046870,-0.256873,0.157915,-0.133022,-0.978597,0.157016,-0.002766,0.164021,0.171856,-24.112656,-36.454910,24.238525,,,,,,
1478385038.66,-2.432443,1.364529,-0.603293,-0.150255,0.014062,0.002491,-0.133369,-0.978802,0.155432,-0.188042,0.056164,0.309656,-24.485733,-35.929611,24.533203,,,,,,
1478385038.68,-2.415060,1.368274,-0.615809,-0.245304,0.396312,-0.038292,-0.133614,-0.979562,0.150349,-0.096595,0.110590,0.342052,-25.087646,-36.304459,24.678284,,,,,,
1478385038.70,-2.391278,1.373513,-0.631353,-0.316687,0.378446,-0.082270,-0.133651,-0.980603,0.143374,0.089675,0.136303,0.183805,-24.711304,-36.230133,24.006775,,,,,,
1478385038.72,-2.369793,1.379900,-0.648832,-0.375456,0.094085,-0.106660,-0.132329,-0.981835,0.135977,0.100514,-0.029289,0.011468,-25.235962,-36.380814,23.327026,,,,,,
1478385038.74,-2.345040,1.387339,-0.675506,-0.470499,-0.137202,-0.054040,-0.130428,-0.983219,0.127550,0.061702,-0.101040,0.008650,-25.235962,-36.380814,23.327026,,,,,,
1478385038.76,-2.315150,1.393890,-0.709376,-0.444706,-0.206457,-0.053118,-0.129441,-0.984393,0.119229,0.103120,0.117541,-0.032986,-25.764679,-37.205826,23.324219,,,,,,
1478385038.78,-2.292348,1.400520,-0.735967,-0.353582,-0.077553,-0.099615,-0.127223,-0.985538,0.111933,-0.017262,0.160327,0.038183,-24.713242,-37.056335,22.809204,,,,,,
1478385038.80,-2.271837,1.406691,-0.755145,-0.312884,0.161064,-0.146967,-0.124842,-0.986565,0.105376,-0.131078,0.101921,-0.055601,-24.863449,-37.206635,22.508179,,,,,,
1478385038.82,-2.250580,1.412882,-0.771662,-0.290948,0.292341,-0.151910,-0.122302,-0.987557,0.098857,-0.206541,0.014855,-0.147822,-24.567398,-38.181931,22.214050,,,,,,
1478385038.84,-2.227746,1.418144,-0.788342,-0.238723,0.306985,-0.103700,-0.120410,-0.988371,0.092864,-0.048520,-0.063600,-0.173644,-24.567398,-38.181931,22.214050,,,,,,
1478385038.86,-2.210669,1.421396,-0.801599,-0.132624,0.134026,-0.054843,-0.119400,-0.988860,0.088875,0.147247,-0.041535,-0.168465,-25.392746,-38.332169,21.981323,,,,,,
1478385038.88,-2.204542,1.422782,-0.806516,-0.039550,0.028057,-0.021852,-0.118838,-0.989066,0.087330,0.143450,-0.084665,-0.136555,-25.168762,-38.707611,21.534729,,,,,,
1478385038.90,-2.207609,1.422875,-0.802715,0.047605,0.082655,-0.034371,-0.118495,-0.989079,0.087639,0.009578,-0.032725,-0.052849,-25.094437,-38.932831,21.311096,,,,,,
1478385038.92,-2.216771,1.422680,-0.787576,0.119905,0.436783,-0.069597,-0.117841,-0.989051,0.088837,-0.080340,0.033805,-0.047684,-26.072327,-39.457458,21.677856,,,,,,
1478385038.94,-2.229271,1.421797,-0.763030,0.202362,0.632379,-0.068916,-0.117412,-0.988920,0.090837,-0.030995,0.032057,-0.073931,-26.072327,-39.457458,21.677856,,,,,,
1478385038.96,-2.245322,1.419585,-0.735736,0.240230,0.460398,-0.013781,-0.117647,-0.988589,0.094076,0.084093,-0.018201,-0.090643,-25.397476,-39.607834,21.310059,,,,,,
1478385038.98,-2.259713,1.415618,-0.716273,0.236267,0.096852,0.104876,-0.119308,-0.987984,0.098252,0.113174,-0.061073,-0.103348,-25.622223,-39.607986,21.157837,,,,,,
1478385039.00,-2.268038,1.410179,-0.708870,0.196602,-0.108080,0.202538,-0.122603,-0.987129,0.102690,0.070571,-0.056817,-0.058623,-25.922806,-39.758057,21.080261,,,,,,
1478385039.02,-2.270021,1.404550,-0.708836,0.200692,-0.048126,0.217668,-0.126650,-0.986213,0.106508,0.071612,0.075797,0.194853,-26.225952,-40.282547,21.603882,,,,,,
1478385039.04,-2.279337,1.400242,-0.697916,0.228517,0.143745,0.013107,-0.128877,-0.985491,0.110447,0.066163,0.385531,0.223828,-26.225952,-40.282547,21.603882,,,,,,
1478385039.06,-2.304401,1.397380,-0.663332,0.358709,0.663312,-0.126269,-0.128163,-0.985001,0.115530,-0.169536,0.315903,0.176737,-26.304657,-41.182755,21.380737,,,,,,
1478385039.08,-2.324517,1.393831,-0.625235,0.341004,0.898822,-0.058341,-0.128361,-0.984383,0.120476,-0.178768,-0.065010,-0.114632,-26.454208,-41.258286,20.854492,,,,,,
,,,,,,,,,,,,,,,,37.354396,-122.033312,39.811584,0.000000,345.234375,1478385039.00
1478385039.10,-2.328484,1.390161,-0.608912,0.173624,0.363467,0.110842,-0.130506,-0.983730,0.123467,-0.018160,-0.212529,-0.090889,-26.754318,-41.483887,20.252136,,,,,,
1478385039.12,-2.332291,1.386037,-0.606790,0.140725,-0.355444,0.058592,-0.132970,-0.982981,0.126760,0.040731,0.190851,-0.049764,-27.506561,-42.084198,19.946411,,,,,,
1478385039.14,-2.357533,1.386865,-0.589157,0.064181,-0.208637,-0.223201,-0.129154,-0.983132,0.129500,-0.297101,0.287606,0.504152,-27.506561,-42.084198,19.946411,,,,,,
1478385039.16,-2.376406,1.390246,-0.561483,0.048090,0.754581,-0.339174,-0.124384,-0.983745,0.129516,-0.312979,0.316234,0.550751,-27.433258,-42.835312,18.824402,,,,,,
1478385039.18,-2.382286,1.396599,-0.530744,-0.109759,1.420793,-0.440185,-0.119315,-0.984866,0.125710,-0.014169,0.022525,0.179344,-27.063568,-44.261063,18.082397,,,,,,
1478385039.20,-2.369052,1.405928,-0.516543,-0.353783,1.149680,-0.369771,-0.114551,-0.986440,0.117535,0.024905,-0.499278,-0.244030,-28.117386,-45.462112,17.025452,,,,,,
1478385039.22,-2.341321,1.414332,-0.534814,-0.389228,0.061286,-0.086489,-0.111813,-0.987784,0.108535,0.405957,-0.165414,-0.360672,-28.127533,-48.389130,15.009155,,,,,,
1478385039.24,-2.330542,1.418728,-0.554637,-0.181583,-0.555453,-0.057909,-0.109827,-0.988460,0.104332,0.214548,0.049266,-0.236733,-28.127533,-48.389130,15.009155,,,,,,
1478385039.26,-2.334099,1.419984,-0.557305,0.003547,-0.138101,-0.016907,-0.108558,-0.988649,0.103864,-0.144249,-0.201124,-0.220029,-27.325195,-54.166367,12.784424,,,,,,
1478385039.28,-2.346014,1.420825,-0.546344,-0.038028,-0.221697,-0.212730,-0.106719,-0.988775,0.104568,-0.319230,0.147940,-0.328735,-40.942490,-76.204285,24.864441,,,,,,
1478385039.30,-2.352953,1.417982,-0.552008,0.305820,0.786544,0.379342,-0.107984,-0.988347,0.107287,0.613966,-0.853221,0.998258,-62.608963,-36.214981,39.152771,,,,,,
1478385039.32,-2.350615,1.416827,-0.547009,0.004359,-0.106179,-0.114044,-0.109046,-0.988170,0.107836,-0.176186,0.150981,0.018598,-65.367233,-32.690552,38.589600,,,,,,
1478385039.34,-2.365205,1.420422,-0.525192,0.002263,0.766289,-0.327469,-0.104972,-0.988715,0.106881,-0.112145,0.023734,0.325126,-65.367233,-32.690552,38.589600,,,,,,
1478385039.36,-2.373618,1.426633,-0.500711,-0.158211,0.651592,-0.320585,-0.099801,-0.989626,0.103340,-0.082145,-0.171781,0.038719,-68.466522,-37.488770,40.373047,,,,,,
1478385039.38,-2.383052,1.436238,-0.481071,-0.301622,0.439659,-0.508391,-0.092279,-0.990961,0.097374,-0.128134,-0.064597,0.112114,-68.103134,-40.038681,40.459351,,,,,,
1478385039.40,-2.394854,1.449052,-0.458003,-0.418579,0.683200,-0.541046,-0.082491,-0.992598,0.089129,-0.163115,0.038634,0.206053,-66.535370,-42.441055,38.082275,,,,,,
1478385039.42,-2.370843,1.460747,-0.463854,-0.452016,0.962230,-0.219810,-0.076514,-0.993951,0.078789,0.341589,0.244134,0.174782,-62.734436,-49.120056,34.090210,,,,,,
1478385039.44,-2.326638,1.469458,-0.499397,-0.433071,0.049946,-0.218012,-0.073617,-0.994870,0.069389,0.456384,0.174618,-0.077232,-62.734436,-49.120056,34.090210,,,,,,
1478385039.46,-2.284451,1.476238,-0.547330,-0.372983,-0.315565,-0.015913,-0.071377,-0.995533,0.061805,0.002804,0.047107,-0.078544,-57.900406,-59.398575,30.569458,,,,,,
1478385039.48,-2.244747,1.480485,-0.591944,-0.246743,-0.178069,-0.068736,-0.070470,-0.995925,0.056284,-0.204936,0.141982,-0.176783,-50.915039,-57.299179,29.958008,,,,,,
1478385039.50,-2.215554,1.483674,-0.622166,-0.185459,0.013032,0.008822,-0.069544,-0.996207,0.052295,-0.100744,0.016700,-0.253741,-45.844498,-47.023712,30.427856,,,,,,
1478385039.52,-2.192739,1.484677,-0.645680,-0.057351,-0.076242,-0.000816,-0.069907,-0.996294,0.050112,-0.013284,-0.029799,-0.168124,-42.225983,-43.199600,29.552551,,,,,,
1478385039.54,-2.200343,1.484491,-0.640079,0.046105,-0.113166,0.002468,-0.069673,-0.996278,0.050751,0.076143,-0.020079,-0.057496,-42.225983,-43.199600,29.552551,,,,,,
1478385039.56,-2.210822,1.483139,-0.631243,0.076967,-0.077170,0.058178,-0.070218,-0.996161,0.052283,0.064130,-0.163401,-0.083777,-40.193802,-40.947617,31.516174,,,,,,
1478385039.58,-2.216311,1.481605,-0.630118,0.011695,-0.313176,0.063826,-0.071151,-0.996025,0.053587,0.081161,-0.151817,-0.032332,-40.442459,-46.348053,31.079834,,,,,,
1478385039.60,-2.204448,1.482312,-0.650407,-0.113639,-0.460701,-0.008382,-0.071214,-0.996088,0.052323,-0.037490,0.097208,0.144928,-38.655212,-49.724686,29.457825,,,,,,
1478385039.62,-2.194946,1.483784,-0.666367,-0.099476,-0.238925,-0.028047,-0.070518,-0.996217,0.050786,-0.110726,0.077409,0.206843,-37.604126,-49.875870,28.268860,,,,,,
1478385039.64,-2.179551,1.486082,-0.687535,-0.133245,-0.339414,-0.032656,-0.069413,-0.996414,0.048386,-0.042952,0.140945,0.238296,-37.604126,-49.875870,28.268860,,,,,,
1478385039.66,-2.185739,1.487407,-0.686396,0.017288,-0.139984,-0.089541,-0.068034,-0.996525,0.048053,0.011500,0.143528,0.002332,-35.950775,-50.028549,25.585815,,,,,,
1478385039.68,-2.200541,1.490302,-0.677403,-0.083974,-0.480494,-0.155827,-0.064984,-0.996762,0.047355,0.021252,-0.319080,-0.402519,-33.687988,-47.930786,23.352173,,,,,,
1478385039.70,-2.215409,1.492721,-0.674914,-0.023834,-0.584778,-0.060920,-0.062345,-0.996954,0.046867,-0.073809,-0.058817,-0.189491,-28.121078,-45.309189,19.949951,,,,,,
1478385039.72,-2.246831,1.492185,-0.649236,0.170731,-0.133574,-0.047587,-0.061259,-0.996912,0.049137,-0.075292,0.121347,-0.084736,-26.538559,-43.809708,19.436218,,,,,,
1478385039.74,-2.306488,1.490405,-0.591605,0.253873,-0.165698,-0.082789,-0.059535,-0.996770,0.053892,0.007091,-0.013819,-0.124113,-26.538559,-43.809708,19.436218,,,,,,
1478385039.76,-2.374748,1.487344,-0.527694,0.315886,-0.232619,-0.076455,-0.057838,-0.996520,0.060025,0.019157,0.024672,-0.099423,-25.932037,-42.309555,19.587830,,,,,,
1478385039.78,-2.443135,1.483659,-0.463593,0.319029,-0.213321,-0.069986,-0.055961,-0.996206,0.066648,0.010994,0.030584,-0.033216,-25.325851,-40.959625,19.514832,,,,,,
1478385039.80,-2.505140,1.478910,-0.403768,0.374940,-0.047794,-0.076912,-0.054535,-0.995781,0.073792,-0.038665,0.052346,0.041794,-24.197830,-40.284622,19.524109,,,,,,
1478385039.82,-2.567423,1.473537,-0.341090,0.391816,-0.001997,-0.089578,-0.052742,-0.995274,0.081534,0.007255,-0.023983,-0.029365,-23.744904,-39.534317,19.826355,,,,,,
1478385039.84,-2.620744,1.467618,-0.289908,0.386102,-0.189286,-0.044161,-0.051252,-0.994682,0.089338,0.051756,0.028282,-0.011610,-23.744904,-39.534317,19.826355,,,,,,
1478385039.86,-2.662312,1.461856,-0.253297,0.306607,-0.300247,-0.017894,-0.050138,-0.994072,0.096475,0.065641,-0.026772,0.040030,-24.193558,-39.234314,19.820984,,,,,,
1478385039.88,-2.685841,1.456478,-0.237387,0.273053,-0.428577,0.058621,-0.050206,-0.993473,0.102427,0.064122,-0.033291,0.088583,-23.593903,-39.234085,20.052002,,,,,,
1478385039.90,-2.716065,1.452338,-0.216542,0.217642,-0.484755,-0.070909,-0.048785,-0.992992,0.107642,0.005130,0.015957,0.061196,-23.742203,-38.859085,20.049377,,,,,,
1478385039.92,-2.749342,1.449586,-0.191816,0.169405,-0.395373,-0.077157,-0.046222,-0.992663,0.111731,-0.140943,-0.039670,0.025964,-22.695007,-39.158112,21.035767,,,,,,
1478385039.94,-2.780645,1.446734,-0.165660,0.199534,-0.180208,-0.119250,-0.043702,-0.992314,0.115771,-0.098953,0.019124,0.043607,-22.695007,-39.158112,21.035767,,,,,,
1478385039.96,-2.814269,1.444071,-0.134463,0.201427,-0.131226,-0.136212,-0.040634,-0.991981,0.119676,-0.045562,0.044548,0.021300,-23.444443,-39.008041,21.102844,,,,,,
1478385039.98,-2.847453,1.441190,-0.104487,0.188898,-0.217916,-0.153567,-0.037470,-0.991613,0.123693,0.025110,0.037511,0.023463,-22.544571,-39.007950,21.186829,,,,,,
1478385040.00,-2.885932,1.439167,-0.070835,0.126131,-0.264562,-0.197610,-0.033191,-0.991349,0.126984,-0.035885,0.040956,0.061371,-22.619568,-38.932724,21.410828,,,,,,
1478385040.02,-2.923996,1.438428,-0.036842,0.060844,-0.179665,-0.216721,-0.028493,-0.991252,0.128870,-0.067104,0.018932,0.146154,-22.395706,-39.082428,21.713501,,,,,,
1478385040.04,-2.964413,1.439439,0.001364,-0.036463,-0.098665,-0.283978,-0.023086,-0.991385,0.128929,-0.080750,0.035224,0.161614,-22.395706,-39.082428,21.713501,,,,,,
1478385040.06,-3.012297,1.442677,0.048677,-0.164672,-0.014579,-0.351281,-0.016474,-0.991804,0.126703,-0.110571,-0.032931,0.172171,-21.720490,-39.007355,21.795044,,,,,,
1478385040.08,-3.070175,1.449308,0.108134,-0.349440,0.095870,-0.427156,-0.008648,-0.992629,0.120881,-0.102573,-0.030076,0.178069,-21.346863,-39.382568,21.574951,,,,,,
,,,,,,,,,,,,,,,,37.354396,-122.033312,39.745239,0.000000,345.234375,1478385040.00
1478385040.10,-3.138451,1.458352,0.181926,-0.494098,0.344745,-0.451297,-0.000352,-0.993685,0.112207,-0.080046,-0.009855,0.206564,-21.046524,-39.307571,21.577698,,,,,,
1478385040.12,3.076769,1.468462,0.257328,-0.540622,0.284945,-0.351111,0.006617,-0.994768,0.101941,0.066548,-0.005994,0.182193,-21.348328,-39.832947,21.201294,,,,,,
1478385040.14,2.990126,1.479908,0.344620,-0.644639,-0.167012,-0.366424,0.013695,-0.995873,0.089724,0.168892,0.063042,0.039564,-21.348328,-39.832947,21.201294,,,,,,
1478385040.16,2.873439,1.491366,0.455038,-0.666296,-0.370496,-0.331764,0.021023,-0.996847,0.076511,0.016590,-0.014353,0.036556,-20.373459,-40.284210,19.937317,,,,,,
1478385040.18,2.728984,1.500742,0.593849,-0.576204,-0.230375,-0.332290,0.028069,-0.997547,0.064122,-0.115029,-0.039822,0.021434,-19.774582,-40.734787,19.344666,,,,,,
1478385040.20,2.566830,1.506190,0.755475,-0.453625,0.063229,-0.357980,0.035098,-0.997914,0.054188,-0.117907,0.019627,-0.036625,-19.551392,-41.184937,19.198242,,,,,,
1478385040.22,2.420549,1.507446,0.905855,-0.264620,0.262682,-0.335734,0.041794,-0.997994,0.047552,-0.098465,0.013466,-0.060018,-19.928864,-41.785095,19.046326,,,,,,
1478385040.24,2.349837,1.504797,0.982551,0.070045,0.271886,-0.205847,0.046931,-0.997823,0.046338,-0.035548,-0.005855,-0.080670,-19.928864,-41.785095,19.046326,,,,,,
1478385040.26,2.422985,1.498129,0.913068,0.632231,0.146755,0.041592,0.047798,-0.997361,0.054650,-0.033439,0.084519,0.009070,-19.479324,-42.010468,18.676453,,,,,,
1478385040.28,2.587426,1.485689,0.750369,0.983139,0.081486,0.185192,0.044732,-0.996381,0.072283,-0.050851,0.110730,0.131819,-19.252411,-41.560394,18.752319,,,,,,
1478385040.30,2.747018,1.467662,0.588765,1.218487,-0.163714,0.309932,0.039576,-0.994686,0.095041,0.010107,0.081616,0.134391,-19.702744,-41.334503,19.647217,,,,,,
1478385040.32,2.877459,1.446189,0.448856,1.286189,-0.603480,0.457351,0.032448,-0.992247,0.119975,0.084557,0.084303,0.025594,-19.550262,-40.508667,20.471252,,,,,,
1478385040.34,2.970218,1.424667,0.341056,1.179035,-0.719715,0.497445,0.024832,-0.989342,0.143477,0.066263,0.072991,0.012971,-19.550262,-40.508667,20.471252,,,,,,
1478385040.36,3.039226,1.403174,0.258488,1.098464,-0.533829,0.450805,0.017049,-0.985984,0.165965,-0.091756,0.091606,0.052296,-19.249023,-39.832474,21.672302,,,,,,
1478385040.38,3.084851,1.385030,0.204636,0.836580,-0.289056,0.387986,0.010475,-0.982795,0.184402,-0.040306,0.067085,0.017929,-19.470627,-38.405457,23.690735,,,,,,
1478385040.40,3.115863,1.373593,0.168177,0.421842,-0.233196,0.280576,0.005041,-0.980618,0.195863,0.047312,0.056760,-0.053346,-20.370148,-37.954407,24.730408,,,,,,
1478385040.42,3.134802,1.370615,0.142357,0.011025,-0.370774,0.236746,0.001350,-0.980031,0.198842,0.109886,-0.028713,-0.145650,-19.768356,-37.504257,24.885071,,,,,,
1478385040.44,-3.135528,1.373272,0.120687,-0.194457,-0.424282,0.198847,-0.001190,-0.980555,0.196239,0.108749,-0.084478,-0.173000,-19.768356,-37.504257,24.885071,,,,,,
1478385040.46,-3.124453,1.379129,0.100896,-0.361738,-0.421899,0.182536,-0.003265,-0.981688,0.190468,0.086501,-0.084398,-0.255272,-19.769836,-37.728958,25.185730,,,,,,
1478385040.48,-3.119382,1.386578,0.088550,-0.341046,-0.292058,0.057924,-0.004068,-0.983080,0.183133,0.116480,-0.047194,-0.203259,-19.918686,-37.504028,25.108582,,,,,,
1478385040.50,-3.119889,1.390341,0.083460,-0.101378,-0.286916,0.056218,-0.003895,-0.983762,0.179435,0.125111,-0.046847,-0.208641,-19.395386,-37.879028,25.114929,,,,,,
1478385040.52,-3.115734,1.391489,0.074266,-0.082515,-0.177665,0.084330,-0.004611,-0.983967,0.178288,0.052997,0.011037,-0.070470,-19.694595,-37.729111,25.036499,,,,,,
1478385040.54,-3.107342,1.393284,0.064374,-0.072285,-0.039774,0.100754,-0.006047,-0.984286,0.176478,-0.048473,-0.053418,-0.036173,-19.694595,-37.729111,25.036499,,,,,,
1478385040.56,-3.094226,1.395038,0.047891,-0.114161,-0.242074,0.151409,-0.008279,-0.984594,0.174658,-0.069174,-0.034159,-0.039771,-19.620270,-37.879105,25.037720,,,,,,
1478385040.58,-3.081147,1.396807,0.027806,-0.087052,-0.376100,0.178866,-0.010458,-0.984902,0.172796,0.094793,-0.071220,-0.043127,-19.468933,-37.579102,25.038330,,,,,,
1478385040.60,-3.070479,1.397950,0.005732,-0.055120,-0.679694,0.213344,-0.012220,-0.985099,0.171552,0.072065,-0.118935,-0.103940,-19.694366,-37.729263,24.886475,,,,,,
1478385040.62,-3.056074,1.398323,-0.022508,-0.023383,-0.601418,0.234983,-0.014659,-0.985163,0.170993,0.006144,-0.028417,-0.009158,-19.469498,-37.729172,24.963745,,,,,,
1478385040.64,-3.038442,1.397804,-0.049986,0.009077,-0.424061,0.243007,-0.017724,-0.985074,0.171216,-0.040916,0.072126,0.043231,-19.469498,-37.729172,24.963745,,,,,,
1478385040.66,-3.020759,1.397572,-0.076136,-0.026239,-0.390454,0.208848,-0.020776,-0.985034,0.171103,-0.056174,0.066226,0.066446,-19.244492,-37.503494,25.640259,,,,,,
1478385040.68,-3.007399,1.398502,-0.097406,-0.098843,-0.365779,0.153232,-0.022938,-0.985194,0.169902,-0.082592,0.044215,0.075749,-19.995163,-37.653503,25.633240,,,,,,
1478385040.70,-2.995176,1.400493,-0.115253,-0.134552,-0.203937,0.134383,-0.024726,-0.985533,0.167668,-0.058205,0.052153,0.101314,-19.167816,-37.128494,25.639893,,,,,,
1478385040.72,-2.981081,1.403437,-0.133736,-0.185637,-0.223452,0.124625,-0.026623,-0.986028,0.164438,-0.022815,0.009893,0.012427,-19.019043,-37.428574,25.567261,,,,,,
1478385040.74,-2.968308,1.406826,-0.149673,-0.169078,-0.090419,0.089762,-0.028145,-0.986587,0.160792,-0.049553,0.010589,0.043386,-19.019043,-37.428574,25.567261,,,,,,
1478385040.76,-2.955716,1.409450,-0.162989,-0.133096,-0.021009,0.082537,-0.029689,-0.987012,0.157880,-0.024190,0.058484,0.020495,-19.094833,-37.503281,25.866760,,,,,,
1478385040.78,-2.944831,1.411295,-0.176160,-0.117706,-0.167137,0.083230,-0.031050,-0.987307,0.155762,0.026289,0.060335,-0.031921,-19.620499,-37.728500,25.637207,,,,,,
1478385040.80,-2.936156,1.413077,-0.189938,-0.096081,-0.259744,0.095834,-0.032041,-0.987588,0.153764,-0.028476,0.015145,-0.032182,-19.470505,-37.728500,25.638672,,,,,,
1478385040.82,-2.926546,1.415448,-0.203341,-0.129467,-0.164235,0.061849,-0.033017,-0.987958,0.151161,-0.045871,0.017773,-0.059394,-19.094727,-37.653809,25.342285,,,,,,
1478385040.84,-2.920938,1.416004,-0.210996,-0.019132,-0.034966,0.039960,-0.033744,-0.988043,0.150437,-0.052865,0.077887,0.003387,-19.094727,-37.653809,25.342285,,,,,,
1478385040.86,-2.916125,1.415310,-0.216455,0.041676,-0.051556,0.061388,-0.034621,-0.987936,0.150941,-0.007737,0.047018,0.025938,-19.921173,-37.878510,25.634644,,,,,,
1478385040.88,-2.913922,1.415785,-0.222543,-0.041753,-0.291292,0.028531,-0.034847,-0.988010,0.150407,0.013760,-0.056683,-0.044465,-18.868362,-37.353806,25.343628,,,,,,
1478385040.90,-2.919250,1.416307,-0.221776,-0.015741,-0.135206,-0.044716,-0.033932,-0.988090,0.150088,-0.016819,-0.015969,0.031705,-18.719162,-37.428497,25.645325,,,,,,
1478385040.92,-2.922714,1.416382,-0.218124,0.014583,0.066182,0.010381,-0.033396,-0.988102,0.150132,-0.083792,-0.035565,-0.019837,-18.944824,-37.503281,25.868225,,,,,,
1478385040.94,-2.871778,1.425300,-0.266689,0.071053,0.056908,0.020089,-0.038646,-0.989434,0.139738,0.036189,-0.075752,-0.085951,-18.944824,-37.503281,25.868225,,,,,,
1478385040.96,-2.874328,1.423583,-0.265683,0.077960,-0.107546,0.007896,-0.038738,-0.989184,0.141474,0.029689,-0.004759,-0.068003,-19.544815,-37.503281,25.862244,,,,,,
1478385040.98,-2.861696,1.421457,-0.279105,0.052057,-0.008076,0.027365,-0.041103,-0.988870,0.142995,-0.090260,-0.015327,0.058207,-18.569153,-37.353271,25.871521,,,,,,
1478385041.00,-2.862121,1.421750,-0.280131,-0.057373,-0.115635,-0.009448,-0.040962,-0.988913,0.142734,-0.075310,-0.028589,0.136685,-18.642929,-37.128418,25.720154,,,,,,
1478385041.02,-2.863166,1.424955,-0.282204,-0.212829,-0.152858,-0.039736,-0.039942,-0.989384,0.139728,0.045862,0.021214,0.155240,-18.792816,-37.053268,25.868408,,,,,,
1478385041.04,-2.857086,1.431644,-0.288175,-0.410930,0.152400,-0.061678,-0.038932,-0.990334,0.133128,-0.005288,0.059487,0.167043,-18.792816,-37.053268,25.868408,,,,,,
1478385041.06,-2.846238,1.440602,-0.292319,-0.383145,0.428255,-0.114292,-0.037790,-0.991537,0.124205,-0.081442,0.007299,0.103868,-19.020187,-37.728729,25.418213,,,,,,
1478385041.08,-2.833163,1.447973,-0.293133,-0.341373,0.695415,-0.095321,-0.037191,-0.992467,0.116733,-0.027705,0.040318,-0.032093,-19.020187,-37.803955,25.193481,,,,,,
,,,,,,,,,,,,,,,,37.354396,-122.033312,39.682495,0.000000,345.234375,1478385041.00
1478385041.10,-2.814860,1.453472,-0.298135,-0.205655,0.595350,-0.028050,-0.037569,-0.993125,0.110863,0.046557,0.005561,-0.146981,-18.795166,-38.029617,24.521362,,,,,,
1478385041.12,-2.799918,1.455326,-0.305019,-0.045850,0.287092,0.022664,-0.038604,-0.993341,0.108554,0.119766,0.033258,-0.188357,-19.621628,-38.479996,24.139465,,,,,,
1478385041.14,-2.792075,1.454491,-0.308668,0.086456,0.227981,0.035553,-0.039738,-0.993244,0.109027,0.092931,0.064991,-0.067981,-19.621628,-38.479996,24.139465,,,,,,
1478385041.16,-2.789343,1.450627,-0.303352,0.249612,0.508287,0.045155,-0.041360,-0.992788,0.112519,-0.053611,0.109594,0.059630,-19.695831,-38.405304,23.838501,,,,,,
1478385041.18,-2.785871,1.444549,-0.295254,0.313399,0.557857,0.065703,-0.043851,-0.992041,0.118030,-0.063037,0.021506,-0.034274,-19.694138,-38.030304,23.837402,,,,,,
1478385041.20,-2.784566,1.438140,-0.289398,0.319820,0.232710,0.090462,-0.046226,-0.991214,0.123927,0.032921,-0.000897,-0.123393,-20.368027,-37.880615,23.530212,,,,,,
1478385041.22,-2.781762,1.431139,-0.289206,0.340433,0.139428,0.136183,-0.049016,-0.990264,0.130289,0.041921,0.048064,-0.046976,-20.893127,-37.730087,24.049500,,,,,,
1478385041.24,-2.777285,1.422944,-0.289913,0.406252,0.218873,0.155748,-0.052488,-0.989090,0.137646,0.034071,0.003296,-0.000531,-20.893127,-37.730087,24.049500,,,,,,
1478385041.26,-2.773250,1.413613,-0.289896,0.451177,0.175621,0.183486,-0.056364,-0.987672,0.146037,0.038038,-0.038680,-0.112178,-20.366898,-37.505234,23.904114,,,,,,
1478385041.28,-2.767679,1.402225,-0.293714,0.544354,0.056253,0.255972,-0.061281,-0.985825,0.156182,0.070193,0.004655,-0.167275,-20.889862,-36.829575,24.571838,,,,,,
1478385041.30,-2.764305,1.389029,-0.298116,0.622721,-0.109429,0.297321,-0.066595,-0.983526,0.168054,0.060049,0.047521,-0.197595,-21.490738,-36.828979,25.165833,,,,,,
1478385041.32,-2.760559,1.376288,-0.304528,0.532086,-0.099519,0.261933,-0.071879,-0.981143,0.179422,0.015070,0.019900,-0.047571,-21.790070,-36.603760,25.387146,,,,,,
1478385041.34,-2.762048,1.364397,-0.302699,0.603664,0.123789,0.173993,-0.075929,-0.978775,0.190353,-0.057921,0.090302,0.127686,-21.790070,-36.603760,25.387146,,,,,,
1478385041.36,-2.765748,1.350951,-0.290281,0.701044,0.610982,0.103918,-0.080048,-0.975931,0.202856,-0.155457,0.140070,0.074671,-21.112701,-35.928299,25.841858,,,,,,
1478385041.38,-2.757489,1.339079,-0.284044,0.513361,0.715995,0.198970,-0.086056,-0.973273,0.212916,-0.142246,-0.026116,0.046865,-21.708633,-34.877853,26.282776,,,,,,
1478385041.40,-2.742686,1.328930,-0.284633,0.455821,0.713466,0.183905,-0.093030,-0.970893,0.220710,-0.051669,0.060645,0.124383,-23.208282,-34.727646,26.492371,,,,,,
1478385041.42,-2.732740,1.318380,-0.278741,0.559652,0.858233,0.121447,-0.099288,-0.968312,0.229160,-0.003236,0.101384,0.207119,-23.057373,-34.577805,26.343384,,,,,,
1478385041.44,-2.724248,1.308036,-0.270302,0.445088,0.707311,0.118696,-0.105284,-0.965677,0.237452,0.088301,-0.090048,0.041036,-23.057373,-34.577805,26.343384,,,,,,
1478385041.46,-2.714410,1.300193,-0.271830,0.321903,0.305699,0.214603,-0.110750,-0.963610,0.243291,0.098848,-0.084959,0.028850,-23.506241,-34.277664,26.488037,,,,,,
1478385041.48,-2.703583,1.292898,-0.276548,0.297181,0.362964,0.192281,-0.116356,-0.961634,0.248438,0.057350,0.011271,0.141531,-24.104889,-34.052887,26.256287,,,,,,
1478385041.50,-2.688593,1.286538,-0.284437,0.215325,0.358535,0.293626,-0.122741,-0.959870,0.252159,0.064574,0.010300,0.109352,-25.152740,-33.452530,26.619019,,,,,,
1478385041.52,-2.666729,1.279410,-0.298440,0.265142,0.459634,0.344207,-0.131349,-0.957847,0.255494,0.157228,0.047797,0.091689,-24.701492,-33.227661,26.472900,,,,,,
1478385041.54,-2.646039,1.270868,-0.311832,0.312699,0.274794,0.399339,-0.140493,-0.955358,0.259910,0.143331,0.054341,-0.044227,-24.701492,-33.227661,26.472900,,,,,,
1478385041.56,-2.634456,1.261315,-0.324943,0.312101,-0.208904,0.374502,-0.147920,-0.952492,0.266231,0.057130,0.016350,-0.206432,-25.299805,-32.927902,26.240967,,,,,,
1478385041.58,-2.631982,1.251817,-0.334187,0.380721,-0.338672,0.388154,-0.152984,-0.949556,0.273750,-0.022232,0.013719,-0.103462,-25.673096,-32.552902,26.236145,,,,,,
1478385041.60,-2.625806,1.239531,-0.348122,0.457678,-0.352742,0.526076,-0.160415,-0.945631,0.282928,-0.031449,-0.065324,-0.169769,-26.047180,-32.102158,26.981079,,,,,,
1478385041.62,-2.624687,1.224787,-0.356991,0.603608,-0.371991,0.477130,-0.167603,-0.940734,0.294838,-0.037795,-0.079728,-0.105690,-26.344269,-31.276642,27.500610,,,,,,
1478385041.64,-2.627832,1.209873,-0.361907,0.647369,-0.418225,0.434342,-0.173552,-0.935571,0.307549,-0.091325,0.003290,-0.137734,-26.344269,-31.276642,27.500610,,,,,,
1478385041.66,-2.633661,1.192893,-0.364488,0.774042,-0.376892,0.460318,-0.179458,-0.929440,0.322391,-0.028901,-0.047214,-0.205295,-26.493683,-30.976120,28.023193,,,,,,
1478385041.68,-2.639403,1.173107,-0.364476,0.921834,-0.272378,0.498257,-0.186420,-0.921958,0.339471,0.089481,-0.024438,-0.119500,-26.943115,-30.525146,28.992371,,,,,,
1478385041.70,-2.647110,1.150880,-0.363640,1.013906,-0.403023,0.520495,-0.193477,-0.913123,0.358850,0.022304,0.054877,-0.121286,-26.636581,-28.724106,30.040039,,,,,,
1478385041.72,-2.658464,1.126799,-0.361350,1.150518,-0.477082,0.531213,-0.199549,-0.903042,0.380388,0.003489,0.037182,-0.105044,-26.559113,-27.973511,30.638550,,,,,,
1478385041.74,-2.673158,1.100519,-0.355536,1.250546,-0.485225,0.443754,-0.204585,-0.891443,0.404320,-0.000890,-0.031012,-0.093880,-26.559113,-27.973511,30.638550,,,,,,
1478385041.76,-2.691509,1.073858,-0.347141,1.304168,-0.598205,0.438195,-0.207400,-0.879046,0.429259,-0.018476,-0.087583,-0.090437,-26.479919,-26.772675,31.460754,,,,,,
1478385041.78,-2.708002,1.044992,-0.344825,1.343371,-0.769689,0.631175,-0.210868,-0.864921,0.455463,-0.009850,-0.100717,-0.141285,-26.927567,-25.796326,32.803345,,,,,,
1478385041.80,-2.720696,1.015392,-0.345194,1.343740,-0.566145,0.608231,-0.215438,-0.849688,0.481267,0.002883,-0.039686,-0.113774,-26.322266,-24.370590,33.555115,,,,,,
1478385041.82,-2.730880,0.985684,-0.345620,1.363961,-0.548701,0.632888,-0.220510,-0.833650,0.506363,0.016073,-0.026137,-0.108337,-25.866180,-22.418777,35.353882,,,,,,
1478385041.84,-2.739697,0.955586,-0.348836,1.326785,-0.555633,0.689430,-0.225752,-0.816652,0.531145,0.043730,-0.049788,-0.009935,-25.866180,-22.418777,35.353882,,,,,,
1478385041.86,-2.746967,0.925392,-0.352899,1.358783,-0.560669,0.704430,-0.231262,-0.798857,0.555289,0.063873,-0.100069,0.051874,-26.236206,-20.917587,36.545654,,,,,,
1478385041.88,-2.756166,0.896285,-0.358180,1.255890,-0.702071,0.691041,-0.234789,-0.781012,0.578700,0.049868,-0.139520,0.028844,-26.380920,-19.567078,37.065125,,,,,,
1478385041.90,-2.766073,0.866473,-0.361180,1.403262,-0.524277,0.610586,-0.237481,-0.762050,0.602397,0.077233,-0.301335,0.040227,-25.250397,-18.141464,37.672180,,,,,,
1478385041.92,-2.774868,0.835213,-0.361817,1.506417,-0.480406,0.588450,-0.240601,-0.741440,0.626401,0.108811,-0.459091,-0.194974,-25.315384,-15.440048,39.088379,,,,,,
1478385041.94,-2.785772,0.799044,-0.361372,1.855087,-0.544354,0.664738,-0.242943,-0.716690,0.653708,0.195641,-0.583969,-0.502203,-25.315384,-15.440048,39.088379,,,,,,
1478385041.96,-2.797189,0.751480,-0.361281,2.448022,-0.626722,0.909144,-0.246703,-0.682721,0.687771,0.401809,-0.783084,-1.054776,-25.385986,-14.164154,39.983826,,,,,,
1478385041.98,-2.812248,0.689633,-0.364894,3.191346,-1.012314,1.352782,-0.249514,-0.636254,0.730016,0.639788,-0.947517,-1.475027,-24.550842,-11.763702,40.434998,,,,,,
1478385042.00,-2.830101,0.606779,-0.375492,4.205153,-1.321429,1.868674,-0.251769,-0.570224,0.781957,0.797133,-0.823804,-1.587301,-24.390030,-8.987579,41.553284,,,,,,
1478385042.02,-2.855055,0.503675,-0.383431,5.081582,-1.600928,1.780751,-0.247534,-0.482648,0.840106,0.626166,-1.088962,-1.317721,-23.473602,-5.086838,42.300781,,,,,,
1478385042.04,-2.885217,0.401046,-0.389150,4.498789,-1.405449,1.443722,-0.233456,-0.390381,0.890562,0.196758,-2.101654,-0.711806,-23.473602,-5.086838,42.300781,,,,,,
1478385042.06,-2.904517,0.317799,-0.389362,3.961441,-0.894959,0.842670,-0.223101,-0.312477,0.923355,-0.201033,-2.189202,0.011948,-21.030945,4.814423,43.570496,,,,,,
1478385042.08,-2.918060,0.242802,-0.384877,3.387811,-0.562711,0.517785,-0.215173,-0.240424,0.946518,0.003229,-1.494852,0.244262,-19.587067,8.863983,43.122742,,,,,,
,,,,,,,,,,,,,,,,37.354396,-122.033312,39.642456,0.000000,345.234375,1478385042.00
1478385042.10,-2.930100,0.190474,-0.374926,1.984934,-0.278940,-0.211470,-0.206123,-0.189324,0.960036,0.171044,-1.534171,0.544725,-18.671539,12.088303,42.447266,,,,,,
1478385042.12,-2.937668,0.187402,-0.359896,-0.817259,-0.447102,-0.907008,-0.198969,-0.186307,0.962134,0.153238,-1.996677,0.318994,-18.132370,15.012634,41.768860,,,,,,
1478385042.14,-2.962132,0.241642,-0.356679,-3.641175,-1.554868,-0.392510,-0.173313,-0.239297,0.955353,-0.057049,-1.611945,0.605804,-18.132370,15.012634,41.768860,,,,,,
1478385042.16,-2.989703,0.342085,-0.371742,-5.909597,-1.568494,-0.021477,-0.142540,-0.335452,0.931211,-0.096779,-0.622571,0.862170,-17.470871,12.388779,42.908356,,,,,,
1478385042.18,-3.010942,0.481916,-0.390290,-7.591817,-1.305479,-0.257665,-0.115442,-0.463478,0.878556,-0.060767,-0.002037,0.981398,-15.843765,7.890533,44.663147,,,,,,
1478385042.19,-3.019782,0.643882,-0.406741,-8.501810,-0.590073,-0.293606,-0.097180,-0.600304,0.793846,0.110699,0.407983,0.992867,-14.299957,1.366760,45.898132,,,,,,
1478385042.21,-3.002547,0.825832,-0.432850,-9.393254,0.393013,-0.170653,-0.093962,-0.735112,0.671403,0.158766,0.820531,1.024306,-14.335083,-6.282776,46.370728,,,,,,
1478385042.23,-2.948294,1.007397,-0.472732,-8.805175,1.545080,-0.477371,-0.102592,-0.845444,0.524117,0.052925,1.502793,1.169456,-14.335083,-6.282776,46.370728,,,,,,
1478385042.25,-2.897348,1.164000,-0.490085,-7.024826,1.813191,-1.813338,-0.095682,-0.918393,0.383926,-0.396338,2.180448,1.044862,-14.220581,-14.834763,44.372528,,,,,,
1478385042.27,-2.879695,1.283252,-0.476020,-5.007731,1.223608,-1.327456,-0.073427,-0.958943,0.273928,-0.436384,1.743596,1.042570,-15.170959,-28.492157,36.979004,,,,,,
1478385042.29,-2.826946,1.358772,-0.531245,-3.054083,-0.771609,-0.039960,-0.065127,-0.977607,0.200108,-0.293928,1.688468,1.130840,-15.408798,-32.545746,33.388733,,,,,,
1478385042.31,-2.778594,1.388603,-0.595455,-0.755226,-0.354247,0.145751,-0.064336,-0.983449,0.169381,-0.068858,1.950368,1.652259,-15.265472,-34.722839,31.296753,,,,,,
1478385042.33,-2.713210,1.389907,-0.653320,-0.246229,0.614375,0.674965,-0.074733,-0.983684,0.163648,0.070521,1.960338,1.476565,-15.265472,-34.722839,31.296753,,,,,,
1478385042.35,-2.631822,1.391426,-0.732649,-0.209583,0.004581,0.356030,-0.087060,-0.983956,0.155727,-0.033377,2.343957,1.637242,-14.442841,-35.473511,30.632263,,,,,,
1478385042.37,-2.794683,1.285830,-0.507464,9.875255,6.403601,-0.057560,-0.095581,-0.959671,0.264378,-0.575089,2.293121,4.562603,-15.718384,-35.623596,30.544922,,,,,,
1478385042.39,-2.781623,1.157787,-0.436815,4.200248,0.896504,1.286067,-0.141380,-0.915917,0.375643,-1.180046,-5.127174,-3.395693,-19.147598,-29.769897,34.243042,,,,,,
1478385042.41,-2.837527,1.081213,-0.432937,2.494515,-3.129701,1.638493,-0.140796,-0.882529,0.448686,0.103672,-0.865335,-0.251253,-20.936066,-26.693359,35.790955,,,,,,
1478385042.43,-2.776727,1.046185,-0.554184,0.311294,-1.157535,4.116722,-0.178725,-0.865518,0.467905,0.060195,0.865198,1.197180,-20.936066,-26.693359,35.790955,,,,,,
1478385042.45,-2.744711,0.991919,-0.626818,2.365646,-1.525931,1.581780,-0.211472,-0.837078,0.504560,-0.091659,1.609142,1.596072,-18.450943,-23.615860,38.281555,,,,,,
1478385042.47,-2.781827,0.932844,-0.594157,3.340961,-0.034270,-0.430669,-0.209667,-0.803317,0.557424,0.193844,-0.204236,1.717890,-18.970200,-21.964752,39.396393,,,,,,
1478385042.49,-2.816376,0.885118,-0.531487,2.415694,1.103478,-1.195208,-0.202316,-0.773989,0.600007,-0.116654,-0.991742,1.464293,-19.175262,-16.712296,41.853607,,,,,,
1478385042.51,-2.832965,0.877253,-0.499650,0.262028,-0.962164,-0.500547,-0.194178,-0.768986,0.609062,-1.097570,-3.383847,-0.471778,-19.170639,-15.737427,41.700714,,,,,,
1478385042.53,-2.838735,0.866203,-0.501303,0.517877,0.810477,0.594565,-0.193183,-0.761875,0.618245,0.457633,-1.809658,-0.222218,-19.170639,-15.737427,41.700714,,,,,,
1478385042.55,-2.800270,0.849993,-0.514334,0.661331,1.164227,0.416293,-0.220921,-0.751276,0.621916,1.143208,-1.547034,-1.219221,-19.397202,-15.886841,42.298920,,,,,,
1478385042.57,-2.829647,0.828367,-0.497942,1.779081,-2.100599,-0.067260,-0.207496,-0.736828,0.643451,0.645759,-1.326984,-2.916492,-19.694839,-15.437073,42.069580,,,,,,
1478385042.59,-2.882221,0.766915,-0.487734,3.819638,-1.913171,0.692180,-0.184675,-0.693917,0.695970,0.227064,-0.679191,-2.755052,-20.365295,-13.935593,43.558380,,,,,,
1478385042.61,-2.889849,0.674142,-0.478038,4.887171,1.047939,0.796204,-0.194602,-0.624227,0.756618,0.065192,-0.232523,-2.275203,-18.549454,-10.034439,44.689850,,,,,,
1478385042.63,-2.857905,0.571256,-0.469911,5.131819,2.055866,1.303698,-0.235456,-0.540689,0.807599,0.344206,-0.927741,-2.125867,-18.549454,-10.034439,44.689850,,,,,,
1478385042.65,-2.822095,0.454928,-0.475319,5.457525,1.286539,2.277617,-0.282145,-0.439397,0.852833,0.756235,-1.381953,-1.182301,-19.351120,-4.859467,44.666321,,,,,,
1478385042.67,-2.819949,0.353364,-0.489090,3.867458,-1.239507,2.042465,-0.296594,-0.346056,0.890099,1.427591,-1.586836,-1.868600,-21.774521,6.088959,43.109192,,,,,,
1478385042.69,-2.873797,0.293999,-0.504038,1.962514,-3.836326,1.252060,-0.253253,-0.289782,0.922979,1.266467,-1.489668,-1.071874,-19.506882,9.988907,43.045227,,,,,,
1478385042.71,-2.976156,0.274101,-0.508275,0.269244,-5.657893,-0.184377,-0.158535,-0.270681,0.949525,-0.120655,-1.819620,0.140364,-14.999283,12.014923,44.059174,,,,,,
1478385042.73,-3.058949,0.292931,-0.490021,-1.593389,-2.384354,-1.238488,-0.079033,-0.288760,0.954134,-0.883980,-1.940503,1.121168,-14.999283,12.014923,44.059174,,,,,,
1478385042.75,-3.074175,0.356306,-0.467725,-3.932166,0.364683,-1.298031,-0.063136,-0.348814,0.935063,-0.908239,-1.089525,1.308147,-10.954422,11.266083,45.226868,,,,,,
1478385042.77,-3.075346,0.458528,-0.445232,-5.702926,0.093820,-1.355278,-0.059360,-0.442629,0.894738,-0.823803,-0.630598,1.143272,-10.214890,9.242004,46.140381,,,,,,
1478385042.79,-3.083831,0.597705,-0.435091,-7.623546,-0.203577,-0.550641,-0.047721,-0.562747,0.825251,-0.442925,-0.254545,0.978842,-10.112839,-1.031845,47.297211,,,,,,
1478385042.81,-3.080968,0.771164,-0.441386,-9.227094,0.070281,-0.172319,-0.043447,-0.696971,0.715782,-0.258387,0.252345,1.001976,-9.770630,-8.532501,46.648102,,,,,,
1478385042.83,-3.052477,0.973973,-0.458476,-10.713199,1.361459,-0.246143,-0.050019,-0.827125,0.559787,-0.164001,0.625282,1.678387,-9.770630,-8.532501,46.648102,,,,,,
1478385042.85,-2.980704,1.184397,-0.491069,-10.043764,2.317733,-0.710316,-0.060370,-0.926272,0.371989,-0.202111,1.454485,1.990377,-10.407791,-17.609940,44.193970,,,,,,
1478385042.87,-2.876558,1.361684,-0.573097,-8.251876,0.374030,-0.597156,-0.054377,-0.978216,0.200343,-0.157629,2.498724,1.528096,-12.242142,-26.764511,39.628082,,,,,,
1478385042.89,-2.462015,1.496222,-1.003061,-6.709318,-0.808592,-0.297499,-0.046824,-0.997221,0.057953,0.072764,1.986143,1.547577,-12.112686,-33.370636,33.499207,,,,,,
1478385042.91,-0.586867,1.512661,-2.879302,-4.190562,0.682975,-1.014473,-0.032175,-0.998311,-0.048381,-0.004431,0.946095,2.301387,-11.005783,-40.805878,23.257629,,,,,,
1478385042.93,-0.045802,1.475277,2.886827,-1.369740,1.517605,-1.345959,-0.004367,-0.995441,-0.095275,-0.322476,1.030323,1.523223,-11.005783,-40.805878,23.257629,,,,,,
1478385042.95,0.208879,1.475437,2.666712,0.810237,2.013494,-0.713639,0.019744,-0.995457,-0.093145,-0.659072,1.142689,1.542974,-11.385056,-42.457977,21.158752,,,,,,
1478385042.97,0.470609,1.526964,2.446930,5.113859,2.060537,0.718184,0.019868,-0.999040,-0.039054,-1.150209,1.499894,1.949684,-10.560867,-42.758347,20.792908,,,,,,
1478385042.99,-2.846175,1.443856,-0.432011,7.429557,5.245394,3.876427,-0.036858,-0.991954,0.121115,-0.908485,-0.956349,1.301461,-10.710175,-42.006546,22.589111,,,,,,
1478385043.01,-2.783416,1.314346,-0.509400,5.683644,-3.493093,1.390911,-0.088921,-0.967296,0.237551,0.187004,-2.383579,0.842435,-16.982895,-33.072937,31.199646,,,,,,
1478385043.03,-2.946242,1.240178,-0.490149,1.784048,-8.230612,2.018559,-0.063014,-0.945842,0.318453,0.939570,-0.354497,0.903440,-16.982895,-33.072937,31.199646,,,,,,
1478385043.05,-2.780214,1.174583,-0.705871,3.162112,0.225512,4.386200,-0.136450,-0.922529,0.361001,1.173727,1.372541,2.352592,-13.604309,-30.743332,35.801392,,,,,,
1478385043.07,-2.769456,1.105726,-0.701192,2.985208,0.698323,-0.905771,-0.163072,-0.893790,0.417788,0.085726,1.420707,1.237455,-14.044952,-28.041473,37.663940,,,,,,
,,,,,,,,,,,,,,,,37.354396,-122.033312,40.200317,0.000000,2.109375,1478385043.00
1478385043.09,-2.893594,1.066846,-0.533833,3.870703,1.505721,-3.892524,-0.118532,-0.875682,0.468114,-0.604872,-0.994252,2.151179,-15.608200,-25.115524,38.614502,,,,,,
1478385043.11,-2.973614,1.035967,-0.439156,0.351646,-1.689121,0.155776,-0.085216,-0.860356,0.502520,-2.918462,-5.378429,-2.043169,-14.778824,-23.689163,39.968506,,,,,,
1478385043.13,-2.932397,1.005812,-0.496064,1.202392,1.163230,1.762393,-0.111189,-0.844597,0.523730,0.429548,-1.442466,-0.191546,-14.778824,-23.689163,39.968506,,,,,,
1478385043.15,-2.896574,0.981023,-0.498755,0.921223,1.149152,-0.308737,-0.134913,-0.831067,0.539561,1.310191,-2.147769,-2.043422,-14.771606,-21.662903,41.237518,,,,,,
1478385043.17,-2.936475,0.952140,-0.502358,1.969836,-4.195229,1.122893,-0.118124,-0.814658,0.567784,1.313681,-1.204827,-3.710469,-16.418884,-20.987701,41.444031,,,,,,
1478385043.19,-3.021871,0.886968,-0.520687,3.670263,-4.470288,0.703067,-0.075455,-0.775160,0.627243,0.227570,0.736204,-2.476486,-15.291748,-20.011185,42.952362,,,,,,
1478385043.21,-3.071651,0.805138,-0.516722,4.269170,-1.162669,0.214255,-0.048431,-0.720926,0.691318,-0.465333,0.424402,-1.946170,-11.080551,-16.859207,44.934967,,,,,,
1478385043.23,-3.061470,0.708432,-0.522600,5.300944,0.898028,0.794393,-0.060779,-0.650644,0.756947,-0.314862,-0.579749,-1.727650,-11.080551,-16.859207,44.934967,,,,,,
1478385043.25,-3.030774,0.588364,-0.535813,5.905163,1.302957,1.093579,-0.091996,-0.555001,0.826747,-0.004531,-0.642753,-1.674342,-9.993042,-7.706741,47.393402,,,,,,
1478385043.27,-2.994780,0.492737,-0.540306,4.097574,1.755612,0.781837,-0.128884,-0.473039,0.871564,0.661843,-1.303695,-1.623074,-10.566452,-1.781693,47.444916,,,,,,
1478385043.29,-2.983362,0.412044,-0.559903,3.763891,-1.221676,1.951537,-0.144383,-0.400483,0.904857,0.784871,-1.167174,-1.447582,-11.895950,2.492447,46.593781,,,,,,
1478385043.31,-3.042436,0.346979,-0.592834,2.454420,-4.872708,1.696683,-0.093094,-0.340059,0.935785,0.295151,-1.153487,-1.078424,-11.802704,6.467209,46.357819,,,,,,
1478385043.33,3.131691,0.320305,-0.604697,0.768614,-5.200753,-0.045475,0.009398,-0.314856,0.949093,-0.823668,-1.937066,1.355701,-11.802704,6.467209,46.357819,,,,,,
1478385043.35,3.080674,0.318777,-0.588221,-0.768300,-0.836830,-1.039393,0.057814,-0.313405,0.947858,-1.142897,-1.589915,1.078784,-7.064255,9.542480,46.620941,,,,,,
1478385043.37,3.080192,0.370313,-0.557785,-3.647489,1.208615,-1.407380,0.057202,-0.361907,0.930457,-1.038403,-0.631898,1.350548,-0.686996,10.067535,46.683136,,,,,,
1478385043.39,3.103201,0.467593,-0.525576,-5.692595,2.020874,-0.932188,0.034262,-0.450739,0.891998,-0.833120,-0.206534,1.308548,-2.427383,6.993591,47.725006,,,,,,
1478385043.41,-3.138954,0.601942,-0.515490,-7.241581,2.470885,-0.028691,-0.002175,-0.566244,0.824235,-0.463813,0.405233,1.120406,-4.253708,1.294037,48.173828,,,,,,
1478385043.43,-3.078084,0.755379,-0.524045,-7.908727,2.927222,0.057946,-0.046204,-0.685565,0.726544,-0.171554,0.888598,1.051990,-4.253708,1.294037,48.173828,,,,,,
1478385043.45,-3.003031,0.924755,-0.546290,-8.968822,2.831122,-0.241184,-0.083152,-0.798473,0.596260,0.044974,1.234432,0.993492,-6.007172,-5.306793,47.351105,,,,,,
1478385043.47,-2.912773,1.113889,-0.597846,-9.717307,1.916818,-0.525996,-0.100071,-0.897421,0.429676,0.157536,1.422247,1.163159,-11.244049,-20.686676,42.469879,,,,,,
1478385043.49,-2.787047,1.298713,-0.699783,-9.054241,1.451201,-1.208845,-0.093297,-0.963213,0.252025,0.179265,1.612001,1.515843,-13.070984,-28.341690,37.449585,,,,,,
1478385043.51,-2.513665,1.456123,-0.945384,-7.275039,1.778638,-1.777524,-0.067219,-0.993432,0.092596,0.279408,1.213632,1.583109,-13.165833,-34.647369,31.767517,,,,,,
1478385043.53,-0.716053,1.523557,-2.689854,-5.758077,3.386368,-1.837772,-0.030997,-0.998884,-0.035624,0.091559,0.981322,1.439158,-13.165833,-34.647369,31.767517,,,,,,
1478385043.55,0.016776,1.450238,2.939926,-2.916637,4.381501,-0.889880,0.002017,-0.992742,-0.120250,-0.101779,0.754445,1.317332,-12.577347,-39.153214,25.936890,,,,,,
1478385043.57,0.102904,1.440599,2.920515,0.718389,2.211789,0.272918,0.013337,-0.991536,-0.129143,-0.177048,0.828237,0.506142,-12.806442,-41.933823,20.317932,,,,,,
1478385043.59,-0.025461,1.475445,3.056846,2.265627,-0.430265,1.226717,-0.002424,-0.995458,-0.095176,-0.224749,0.932729,0.497382,-14.905869,-42.761688,17.449463,,,,,,
1478385043.61,-0.899513,1.524441,-2.356720,5.785703,0.100191,1.922364,-0.036284,-0.998926,-0.028822,-0.547090,1.231409,1.705351,-15.277939,-41.409607,19.541626,,,,,,
1478385043.63,-2.665320,1.382553,-0.550333,10.423969,2.677611,2.558277,-0.085795,-0.982334,0.166308,-0.732091,-0.218731,2.636625,-15.277939,-41.409607,19.541626,,,,,,
1478385043.65,-2.769546,1.219861,-0.429409,6.568293,-2.072391,1.236096,-0.124970,-0.939052,0.320257,-0.197677,-1.915639,0.934260,-17.445862,-37.953934,25.209656,,,,,,
1478385043.67,-2.826593,1.137117,-0.448532,1.578142,-2.356014,2.454251,-0.130188,-0.907426,0.399536,0.028779,0.361253,1.682647,-20.050293,-31.573502,30.639465,,,,,,
1478385043.69,-2.755097,1.105950,-0.524874,2.661323,-0.984607,1.060275,-0.168979,-0.893890,0.415218,-0.696790,2.104706,1.179860,-19.961746,-26.768112,36.025879,,,,,,
1478385043.71,-2.829290,1.019502,-0.453639,5.101925,0.580435,-0.448333,-0.160935,-0.851847,0.498454,-0.449325,0.082514,2.465947,-18.973709,-23.166016,38.125000,,,,,,
1478385043.73,-2.840592,0.937566,-0.401028,3.641017,2.273832,0.087995,-0.175440,-0.806120,0.565147,-0.357214,-1.325120,1.733544,-18.973709,-23.166016,38.125000,,,,,,
1478385043.75,-2.821411,0.907616,-0.388865,1.317592,0.239774,-0.092590,-0.193762,-0.788038,0.584339,-0.739298,-4.540148,0.181164,-19.859940,-19.564392,39.755310,,,,,,
1478385043.77,-2.811374,0.886481,-0.383570,1.126105,1.110916,0.534500,-0.204972,-0.774852,0.597989,0.942292,-2.110448,-0.018994,-22.180069,-18.514481,39.653931,,,,,,
1478385043.79,-2.780262,0.862878,-0.387036,0.897637,0.813490,0.273658,-0.229877,-0.759717,0.608265,1.477131,-2.351550,-2.341038,-23.076447,-17.538971,40.167084,,,,,,
1478385043.81,-2.828375,0.820273,-0.392393,2.734374,-4.280543,1.424215,-0.210145,-0.731332,0.648839,1.114900,-0.984366,-3.677083,-23.520920,-16.188614,40.533600,,,,,,
1478385043.83,-2.900521,0.736920,-0.394545,4.739781,-2.860093,0.631363,-0.176799,-0.672010,0.719127,-0.050450,0.827894,-2.604229,-23.520920,-16.188614,40.533600,,,,,,
1478385043.85,-2.945003,0.625585,-0.371541,6.005385,-0.362139,0.403247,-0.158335,-0.585572,0.795007,-0.523336,-0.890838,-1.774301,-20.959442,-12.735886,43.248840,,,,,,
1478385043.87,-2.921663,0.496044,-0.361526,6.579316,2.090801,1.266799,-0.191867,-0.475950,0.858288,-0.141812,-1.244219,-1.184277,-19.515640,-8.009247,44.899078,,,,,,
1478385043.89,-2.866536,0.375676,-0.357247,5.378051,3.273590,1.231636,-0.252659,-0.366902,0.895291,0.735509,-1.502086,-1.314114,-19.334915,-1.259491,44.655670,,,,,,
1478385043.91,-2.808674,0.275454,-0.363307,4.323506,1.731595,2.182867,-0.314483,-0.271984,0.909464,1.334472,-1.699742,-1.514689,-23.629684,9.686539,40.679871,,,,,,
1478385043.93,-2.848713,0.189499,-0.395727,3.059866,-4.659631,3.085135,-0.283543,-0.188367,0.940277,1.573353,-1.485598,-1.877838,-23.629684,9.686539,40.679871,,,,,,
1478385043.95,-2.966816,0.140597,-0.426207,1.247170,-6.715783,1.076239,-0.172172,-0.140134,0.975048,0.589149,-1.584704,0.081821,-21.060486,13.961548,40.692749,,,,,,
1478385043.97,-3.090359,0.134646,-0.411435,-0.099240,-4.727365,-1.593826,-0.050748,-0.134239,0.989649,-0.652576,-2.202751,2.117346,-16.474945,16.662643,41.780487,,,,,,
