timestamp(unix),attitude_roll(radians),attitude_pitch(radians),attitude_yaw(radians),rotation_rate_x(radians/s),rotation_rate_y(radians/s),rotation_rate_z(radians/s),gravity_x(G),gravity_y(G),gravity_z(G),user_acc_x(G),user_acc_y(G),user_acc_z(G),magnetic_field_x(microteslas),magnetic_field_y(microteslas),magnetic_field_z(microteslas),latitude(degree),longitude(degree),altitude(meter),speed(m/s),course(degree),timestamp(unix)
1478385508.31,-0.870590,1.456599,-2.206999,-0.001819,0.121337,0.169108,-0.087138,-0.993487,-0.073426,-0.019765,0.017733,0.007310,-7.811218,-46.277008,27.130920,,,,,,
,,,,,,,,,,,,,,,,37.354371,-122.033716,39.508911,0.000000,73.476562,1478385597.92
1478385508.33,-0.872043,1.455502,-2.204136,-0.034475,-0.020363,0.108822,-0.088079,-0.993361,-0.074001,0.065695,-0.005693,-0.005452,-8.034851,-46.052231,26.903015,,,,,,
,,,,,,,,,,,,,,,,37.354371,-122.033716,39.508911,0.000000,73.476562,1478385597.00
1478385508.35,-0.877973,1.453648,-2.201974,-0.040226,-0.228092,0.052727,-0.089934,-0.993146,-0.074653,0.083540,0.000531,-0.016228,-7.959854,-46.052231,26.903809,,,,,,
1478385508.37,-0.891546,1.452533,-2.191073,-0.005672,-0.054326,0.027628,-0.091799,-0.993015,-0.074121,-0.038831,0.046497,0.025766,-7.810104,-46.127304,26.830505,,,,,,
1478385508.39,-0.892369,1.452175,-2.188289,0.003208,0.152452,0.004707,-0.092138,-0.992973,-0.074269,-0.025981,0.008125,0.030919,-7.810104,-46.127304,26.830505,,,,,,
1478385508.41,-0.881141,1.453843,-2.196870,0.021462,0.097841,-0.016787,-0.090020,-0.993169,-0.074244,0.062188,0.024175,-0.002797,-8.185654,-46.202164,26.976990,,,,,,
1478385508.43,-0.884529,1.453765,-2.193658,0.010358,-0.065888,0.037233,-0.090331,-0.993160,-0.073988,0.019912,-0.000264,-0.041368,-8.711639,-46.351944,27.197144,,,,,,
1478385508.45,-0.892306,1.452881,-2.187650,0.020040,-0.085885,0.057495,-0.091587,-0.993056,-0.073834,-0.001965,0.008834,-0.012103,-8.259171,-45.827011,27.125122,,,,,,
,,,,,,,,,,,,,,,,37.354371,-122.033716,39.507690,0.000000,73.476562,1478385598.00
1478385508.47,-0.903686,1.452268,-2.177282,0.030586,-0.038820,0.064081,-0.092900,-0.992984,-0.073164,0.002781,0.016910,0.002714,-8.484604,-45.977158,26.973328,,,,,,
1478385508.49,-0.913310,1.452160,-2.167710,0.044344,0.001023,0.089853,-0.093684,-0.992971,-0.072332,0.029109,0.012350,0.001440,-8.484604,-45.977158,26.973328,,,,,,
1478385508.51,-0.932995,1.450652,-2.148273,0.053107,-0.041905,0.155992,-0.096293,-0.992791,-0.071366,0.009302,0.005807,-0.007583,-8.260971,-46.277161,26.976440,,,,,,
1478385508.53,-0.964840,1.448061,-2.117772,0.093868,-0.094240,0.228573,-0.100630,-0.992478,-0.069728,-0.003985,-0.002365,-0.007802,-9.085281,-46.051941,27.192505,,,,,,
1478385508.55,-1.003912,1.445205,-2.080642,0.124939,-0.135397,0.257361,-0.105668,-0.992124,-0.067266,0.025406,0.002851,-0.014613,-8.708939,-45.827164,26.970642,,,,,,
1478385508.57,-1.047225,1.442021,-2.040344,0.152864,-0.182726,0.306425,-0.111217,-0.991720,-0.064207,0.022426,0.018926,-0.008120,-8.784164,-45.827026,27.119812,,,,,,
1478385508.59,-1.092995,1.439119,-1.997762,0.193381,-0.189941,0.315018,-0.116593,-0.991343,-0.060374,0.040147,0.000910,-0.003591,-8.784164,-45.827026,27.119812,,,,,,
1478385508.61,-1.146909,1.435825,-1.946207,0.264452,-0.071663,0.367816,-0.122653,-0.990905,-0.055346,0.029803,-0.055314,0.051333,-9.610489,-45.976578,27.562073,,,,,,
1478385508.63,-1.210032,1.431470,-1.878460,0.399314,0.403772,0.372596,-0.129936,-0.990310,-0.049022,-0.050453,-0.122605,0.098811,-9.310730,-46.051651,27.490234,,,,,,
1478385508.65,-1.283501,1.426966,-1.788680,0.607588,0.927267,0.448119,-0.137460,-0.989674,-0.040615,0.003213,0.075673,-0.004383,-10.287292,-46.276291,27.856201,,,,,,
1478385508.67,-1.372641,1.420529,-1.679687,0.743213,0.869153,0.543285,-0.146773,-0.988731,-0.029471,0.047484,-0.066079,-0.028284,-12.463486,-46.049805,29.333679,,,,,,
1478385508.69,-1.474433,1.410059,-1.562585,0.866803,0.622103,0.726589,-0.159303,-0.987110,-0.015399,-0.011442,-0.028180,0.010317,-12.463486,-46.049805,29.333679,,,,,,
1478385508.71,-1.576457,1.394794,-1.445668,0.985911,0.735890,0.835020,-0.175092,-0.984552,0.000991,-0.096408,-0.022681,0.123643,-14.038681,-45.899231,29.917542,,,,,,
1478385508.73,-1.676419,1.375780,-1.327361,1.280889,0.810648,0.926554,-0.192702,-0.981045,0.020430,-0.141084,0.065227,0.260698,-14.334854,-44.923859,30.286682,,,,,,
1478385508.75,-1.790606,1.351967,-1.192035,1.708167,1.113325,0.939883,-0.211864,-0.976152,0.047335,-0.172688,0.237810,0.665785,-15.458130,-44.247971,31.173401,,,,,,
1478385508.77,-1.894367,1.323499,-1.057384,1.935318,1.371511,0.953809,-0.232082,-0.969577,0.077830,-0.168019,0.210849,0.354817,-16.580872,-43.497223,31.909912,,,,,,
1478385508.79,-1.977208,1.294235,-0.948618,1.751202,0.913248,0.793034,-0.250808,-0.962000,0.107941,0.063263,0.250895,0.131592,-16.580872,-43.497223,31.909912,,,,,,
1478385508.81,-2.037566,1.270257,-0.872262,1.317298,0.562685,0.525277,-0.264367,-0.955177,0.133217,0.114938,0.286400,-0.066017,-19.271912,-40.719864,34.274658,,,,,,
1478385508.83,-2.067961,1.256014,-0.825870,0.721578,0.786520,0.154114,-0.272128,-0.950864,0.147664,0.101305,0.226468,-0.228856,-20.017960,-39.594116,35.013855,,,,,,
1478385508.85,-2.064504,1.255156,-0.811295,-0.084466,0.858889,-0.146247,-0.273355,-0.950598,0.147109,0.201928,-0.019800,-0.610533,-20.541367,-39.068619,35.532104,,,,,,
1478385508.87,-2.046437,1.254441,-0.832138,-0.287260,-1.016669,0.487157,-0.276572,-0.950376,0.142457,0.317160,-0.856128,-0.978608,-22.193604,-39.368027,36.116394,,,,,,
1478385508.89,-2.066081,1.243998,-0.866944,-0.222113,-3.272120,0.679792,-0.282438,-0.947075,0.152572,0.485715,-0.369179,-0.253860,-22.193604,-39.368027,36.116394,,,,,,
1478385508.91,-2.105187,1.237319,-0.887190,-0.069748,-2.448359,0.360728,-0.281694,-0.944910,0.166715,0.084489,0.309397,0.196749,-20.693390,-39.292938,36.206177,,,,,,
1478385508.93,-2.119162,1.232210,-0.901816,-0.081656,-0.765969,0.327941,-0.283453,-0.943225,0.173150,-0.368174,-0.061932,0.305793,-18.968857,-39.142166,36.972961,,,,,,
1478385508.95,-2.112125,1.228195,-0.912440,-0.023619,0.015301,0.232965,-0.287907,-0.941884,0.173101,-0.234905,0.127568,0.194255,-18.519073,-39.066788,37.352234,,,,,,
1478385508.97,-2.113516,1.224310,-0.918288,0.029695,-0.665553,0.213021,-0.290798,-0.940572,0.175389,0.122814,0.142537,-0.125707,-19.345657,-39.291428,37.719666,,,,,,
1478385508.99,-2.131051,1.219699,-0.924755,0.033265,-1.397656,0.295419,-0.291349,-0.938996,0.182764,0.066693,-0.005767,-0.277872,-19.345657,-39.291428,37.719666,,,,,,
1478385509.01,-2.152365,1.213046,-0.930896,0.144613,-1.217345,0.347393,-0.292601,-0.936687,0.192359,-0.050523,0.020122,-0.121131,-18.820221,-39.216492,37.649658,,,,,,
1478385509.03,-2.170267,1.204616,-0.928079,0.347773,-0.482825,0.313441,-0.295619,-0.933702,0.202015,0.061656,0.064058,-0.001926,-17.619446,-38.840881,38.260559,,,,,,
1478385509.05,-2.181289,1.195086,-0.921462,0.361803,-0.204082,0.328121,-0.300653,-0.930247,0.210352,0.082559,-0.157323,0.009542,-18.144196,-38.540131,39.004364,,,,,,
1478385509.07,-2.190826,1.185152,-0.917377,0.338777,-0.301617,0.388713,-0.306139,-0.926556,0.218569,-0.000654,-0.023639,0.114545,-18.369644,-38.615067,39.077332,,,,,,
1478385509.09,-2.195159,1.174903,-0.916088,0.296473,-0.058224,0.409609,-0.312877,-0.922653,0.225433,-0.019169,-0.018738,0.121826,-18.369644,-38.615067,39.077332,,,,,,
1478385509.11,-2.192545,1.165568,-0.920027,0.153866,-0.095968,0.421010,-0.320453,-0.919012,0.229621,-0.004666,-0.090631,0.119759,-17.918976,-38.389832,39.306213,,,,,,
1478385509.13,-2.187278,1.158768,-0.928753,0.003590,-0.110258,0.343782,-0.326750,-0.916310,0.231539,-0.068682,0.004064,0.139921,-18.368179,-38.014236,39.900574,,,,,,
1478385509.15,-2.175667,1.154622,-0.939530,-0.091390,0.234220,0.267638,-0.332538,-0.914642,0.229887,-0.149838,-0.035462,0.140153,-19.342377,-37.713882,40.264954,,,,,,
1478385509.17,-2.155973,1.152262,-0.950822,-0.138508,0.607844,0.204479,-0.338799,-0.913686,0.224485,-0.076408,-0.031139,0.091143,-19.042831,-37.939255,39.893616,,,,,,
1478385509.19,-2.129712,1.150917,-0.960892,-0.134499,0.989269,0.153182,-0.345618,-0.913138,0.216164,-0.014474,-0.070947,0.048424,-19.042831,-37.939255,39.893616,,,,,,
1478385509.21,-2.097093,1.147316,-0.970639,-0.041532,1.322808,0.352988,-0.355325,-0.911664,0.206427,0.161828,0.021238,-0.063788,-19.493393,-38.164551,39.589783,,,,,,
1478385509.23,-2.057277,1.138349,-0.981804,0.041324,1.517217,0.611157,-0.370472,-0.907943,0.195934,0.139576,-0.164979,-0.081783,-20.693039,-38.089569,39.577545,,,,,,
1478385509.25,-2.016483,1.121701,-0.996030,0.128136,1.260486,1.066865,-0.391741,-0.900840,0.187153,0.393816,-0.148552,-0.119480,-23.617432,-38.240417,38.723816,,,,,,
1478385509.27,-1.975188,1.095061,-1.014342,0.216148,1.298938,1.577830,-0.421051,-0.888956,0.180201,0.434952,-0.231466,-0.018351,-25.867401,-38.240433,38.701294,,,,,,
1478385509.29,-1.930949,1.055739,-1.035352,0.274047,1.212134,2.331998,-0.460982,-0.870265,0.173595,0.571425,-0.312673,0.014515,-25.867401,-38.240433,38.701294,,,,,,
1478385509.31,-1.884734,0.998490,-1.064785,0.257435,1.123324,3.120221,-0.515103,-0.840654,0.167241,0.257305,-0.646711,-0.322911,-28.414902,-37.790771,38.374512,,,,,,
1478385509.33,-1.846762,0.932636,-1.085409,0.440929,0.970457,3.665015,-0.573178,-0.803193,0.162319,0.807263,-1.056182,-0.083233,-31.184555,-36.741180,37.968628,,,,,,
1478385509.35,-1.811898,0.846258,-1.104568,0.568593,0.879338,4.750504,-0.643619,-0.748806,0.158256,0.994708,-1.575032,-0.167412,-35.966125,-32.841751,37.384094,,,,,,
1478385509.37,-1.793505,0.736973,-1.119574,0.813365,0.155893,5.838729,-0.722218,-0.672050,0.163557,1.562000,-1.853677,-0.225645,-38.275208,-29.467239,36.900879,,,,,,
1478385509.39,-1.785037,0.607446,-1.135706,0.773205,-0.481797,6.780322,-0.802336,-0.570772,0.174573,1.703520,-2.476316,-0.138897,-38.275208,-29.467239,36.900879,,,,,,
1478385509.41,-1.832461,0.457885,-1.156959,0.809287,-4.805448,7.951235,-0.866457,-0.442052,0.232041,1.458025,-2.180721,-0.109696,-38.477585,-24.517487,36.658997,,,,,,
1478385509.43,-1.952406,0.303316,-1.194042,0.816010,-7.092402,7.490876,-0.885701,-0.298686,0.355415,0.666402,-2.411747,0.612694,-38.974518,-18.142044,37.084900,,,,,,
1478385509.45,-2.067149,0.181548,-1.228981,1.176068,-5.399818,5.517440,-0.864874,-0.180552,0.468395,0.472342,-2.104940,0.543461,-30.830688,-5.984818,44.329865,,,,,,
,,,,,,,,,,,,,,,,37.354371,-122.033716,39.509338,0.000000,73.476562,1478385599.00
1478385509.47,-2.140003,0.096546,-1.256256,0.815454,-2.855547,3.601720,-0.838406,-0.096396,0.536454,0.840527,-1.334619,0.575378,-26.544250,-2.682526,46.612823,,,,,,
1478385509.49,-2.172278,0.056425,-1.277106,-0.167062,-1.130213,1.483939,-0.823186,-0.056395,0.564964,0.457830,-1.072618,0.175713,-26.544250,-2.682526,46.612823,,,,,,
1478385509.51,-2.177114,0.061439,-1.296317,-1.390495,0.129281,-0.339590,-0.820202,-0.061401,0.568770,0.384945,-0.578919,-0.018538,-24.139572,-1.256378,47.757599,,,,,,
1478385509.53,-2.169617,0.111166,-1.313992,-2.562588,0.277557,-2.298571,-0.820902,-0.110937,0.560190,0.620936,-0.055475,-0.272653,-24.514999,-1.256088,48.053864,,,,,,
1478385509.55,-2.170465,0.204179,-1.328440,-3.570693,-0.457198,-4.085543,-0.808375,-0.202763,0.552646,0.836985,0.306263,-0.326526,-24.149246,-3.431458,47.689056,,,,,,
1478385509.57,-2.187126,0.330374,-1.337317,-4.137846,-1.267710,-5.384755,-0.771877,-0.324397,0.546784,0.857067,0.298213,-0.362183,-23.512985,-12.131714,47.421478,,,,,,
1478385509.59,-2.221695,0.476878,-1.336631,-4.382280,-1.858510,-6.258638,-0.706783,-0.459008,0.538303,0.683895,0.283196,-0.211459,-23.512985,-12.131714,47.421478,,,,,,
1478385509.61,-2.262677,0.638224,-1.314869,-4.176577,-1.046843,-7.248611,-0.618468,-0.595770,0.512402,0.267180,0.618872,0.080097,-21.590271,-18.131531,47.608734,,,,,,
1478385509.63,-2.305638,0.800423,-1.262402,-3.615102,-0.139047,-7.360528,-0.516687,-0.717651,0.466917,-0.085943,0.937469,0.224901,-17.040787,-24.132523,46.622192,,,,,,
1478385509.65,-2.366024,0.945831,-1.189721,-3.153088,-0.313261,-6.546065,-0.409620,-0.810983,0.417753,-0.496096,0.764810,0.540789,-13.685318,-28.933899,45.245178,,,,,,
1478385509.67,-2.466114,1.068357,-1.080507,-2.342788,-0.342946,-6.157969,-0.301108,-0.876411,0.375817,-1.303933,1.207450,1.000023,-7.186020,-35.687042,42.105438,,,,,,
1478385509.69,-2.614848,1.164998,-0.909541,-1.514143,0.699683,-5.429268,-0.198450,-0.918788,0.341243,-2.319967,1.477122,1.576879,-7.186020,-35.687042,42.105438,,,,,,
1478385509.71,-2.763044,1.211658,-0.737450,-0.159772,0.207671,-2.734773,-0.129893,-0.936200,0.326584,-2.833684,0.859174,1.463089,-4.643265,-37.562836,41.311493,,,,,,
1478385509.73,-2.816321,1.202655,-0.672510,1.322447,0.611470,-0.216018,-0.115006,-0.932998,0.341011,-3.074096,1.284972,1.636985,-2.166962,-37.563705,40.436249,,,,,,
1478385509.75,-2.784970,1.164129,-0.670014,1.993483,2.262877,1.141247,-0.138091,-0.918444,0.370663,-2.686112,1.526095,0.829791,-1.866745,-37.262955,41.188354,,,,,,
1478385509.77,-2.723202,1.112392,-0.704837,2.586300,-0.183903,1.856732,-0.179791,-0.896760,0.404348,-1.322239,2.310410,-0.396367,-3.513992,-36.286850,42.293945,,,,,,
1478385509.79,-2.671587,1.023024,-0.758269,3.166437,1.939502,3.984401,-0.235860,-0.853687,0.464315,0.262730,-3.051205,2.958643,-3.513992,-36.286850,42.293945,,,,,,
1478385509.81,-2.638451,0.954065,-0.811719,2.235728,-0.601436,2.298369,-0.278880,-0.815773,0.506696,-1.727499,0.108559,-0.281125,-6.349747,-31.858063,46.077332,,,,,,
1478385509.83,-2.600468,0.881418,-0.855113,2.612794,0.742658,3.034592,-0.327633,-0.771642,0.545184,-0.621830,2.652974,0.381986,-9.274582,-31.406815,47.321716,,,,,,
1478385509.85,-2.554451,0.820970,-0.868662,1.914048,1.705223,1.649212,-0.377546,-0.731807,0.567377,-0.391024,-1.706013,0.636327,-10.989304,-28.780792,48.346680,,,,,,
1478385509.87,-2.511576,0.778550,-0.893529,0.924517,1.497342,1.974924,-0.419441,-0.702248,0.575254,-0.429192,0.055626,0.717547,-13.606018,-26.604782,49.363983,,,,,,
1478385509.89,-2.462238,0.753976,-0.919266,0.049041,1.432167,1.259516,-0.458007,-0.684543,0.567125,-0.556305,-0.802442,0.777586,-13.606018,-26.604782,49.363983,,,,,,
1478385509.91,-2.417047,0.743772,-0.958197,-0.791725,0.642217,1.497344,-0.487764,-0.677069,0.551057,-0.680342,-1.970545,0.352828,-15.994186,-24.205490,48.657898,,,,,,
1478385509.93,-2.375585,0.738357,-0.998701,-0.774003,0.898904,1.094217,-0.512721,-0.673073,0.533000,-0.175359,-2.111747,-0.113353,-16.441360,-23.756012,48.127106,,,,,,
1478385509.95,-2.331850,0.740387,-1.028156,-0.919169,1.365104,0.504409,-0.534543,-0.674574,0.509131,0.479642,-2.968249,-0.567175,-16.213211,-23.381989,47.153229,,,,,,
1478385509.97,-2.285092,0.743951,-1.049979,-0.554901,1.635621,0.346592,-0.555936,-0.677200,0.482011,2.131193,-2.522339,-1.112886,-17.486847,-23.307678,46.465302,,,,,,
1478385509.99,-2.264597,0.734998,-1.072254,-0.253810,-1.310718,1.497181,-0.570336,-0.670585,0.474375,2.740151,-0.757607,-1.127115,-17.486847,-23.307678,46.465302,,,,,,
1478385510.01,-2.300633,0.681043,-1.129068,0.812603,-4.059378,4.751232,-0.579023,-0.629604,0.518008,2.332319,-0.605733,-0.587618,-17.408569,-23.008942,45.190186,,,,,,
1478385510.03,-2.325943,0.566122,-1.188460,2.641185,-2.303895,6.062716,-0.614568,-0.536363,0.578465,1.141637,-0.772597,-0.680760,-15.451508,-21.057816,46.328918,,,,,,
1478385510.05,-2.313338,0.441459,-1.226801,3.275564,1.165393,5.429105,-0.666119,-0.427259,0.611338,0.292325,-1.732622,-0.705149,-15.437531,-17.456314,47.818237,,,,,,
1478385510.07,-2.236928,0.320285,-1.243952,3.263785,4.588836,5.000449,-0.746236,-0.314837,0.586524,0.595143,-2.219693,-0.632407,-17.143051,-13.106277,47.863129,,,,,,
1478385510.09,-2.134189,0.206680,-1.251810,2.756340,4.923537,4.770776,-0.827455,-0.205211,0.522691,1.421831,-2.111866,-0.738970,-17.143051,-13.106277,47.863129,,,,,,
1478385510.11,-2.063546,0.105358,-1.254749,2.230157,2.357352,4.238206,-0.876150,-0.105164,0.470427,1.558431,-1.656479,-0.764586,-21.093430,-8.007385,46.758301,,,,,,
1478385510.13,-2.063697,0.024685,-1.260669,1.223247,-1.298666,3.293664,-0.880696,-0.024683,0.473039,1.164830,-1.747397,-0.243989,-27.500687,0.389313,43.444031,,,,,,
1478385510.15,-2.116481,-0.019506,-1.276895,-0.160235,-3.133844,1.693192,-0.854609,0.019504,0.518905,0.434138,-1.091709,0.502289,-27.190994,2.790054,44.189941,,,,,,
1478385510.17,-2.186417,-0.005907,-1.298725,-2.158687,-3.847145,-1.203398,-0.816401,0.005907,0.577456,0.336908,-0.281832,0.466429,-23.436325,4.140991,45.123413,,,,,,
1478385510.19,-2.268276,0.087862,-1.309719,-4.011259,-3.727604,-4.460706,-0.763507,-0.087749,0.639811,0.506320,0.245342,0.533590,-23.436325,4.140991,45.123413,,,,,,
1478385510.21,-2.304734,0.235330,-1.307619,-5.216957,-0.657897,-6.167041,-0.722077,-0.233164,0.651337,0.594452,0.404322,0.290054,-19.776337,1.518127,47.267914,,,,,,
1478385510.23,-2.286182,0.410042,-1.299989,-5.559959,2.199730,-7.048704,-0.692267,-0.398648,0.601537,0.010291,0.459485,0.131892,-16.951141,-3.580627,48.511475,,,,,,
1478385510.25,-2.223442,0.593701,-1.283876,-5.136702,3.986677,-7.933008,-0.658525,-0.559433,0.503368,0.205202,0.592209,0.040943,-17.310608,-17.382385,46.749237,,,,,,
1478385510.27,-2.172695,0.790198,-1.254664,-4.648751,2.804999,-9.010242,-0.580037,-0.710493,0.398444,0.575902,0.870267,-0.321585,-17.786728,-24.135223,43.914795,,,,,,
1478385510.29,-2.203050,0.989039,-1.204314,-4.245604,-1.201814,-8.853889,-0.443274,-0.835499,0.324731,0.920218,1.053257,-0.498147,-17.786728,-24.135223,43.914795,,,,,,
1478385510.31,-2.361326,1.166586,-1.108077,-3.958816,-4.750099,-7.885544,-0.276669,-0.919413,0.279523,-0.677051,0.010981,0.265658,-15.563354,-31.038177,40.957733,,,,,,
1478385510.33,-2.673194,1.318209,-0.885276,-4.042164,-4.895277,-6.971519,-0.112824,-0.968269,0.222992,-2.217499,-0.277458,1.730834,-8.906067,-35.690353,38.788239,,,,,,
1478385510.35,3.072119,1.417531,-0.421782,-3.404668,-3.067973,-4.190691,0.010598,-0.988278,0.152297,-3.459511,0.012722,2.677552,5.102478,-41.095596,33.544556,,,,,,
1478385510.37,2.800439,1.442238,-0.124522,-0.579471,3.082319,-0.831106,0.042894,-0.991748,0.120816,-4.265428,0.837192,3.586612,6.899750,-42.372604,31.541382,,,,,,
1478385510.39,2.908448,1.429922,-0.162189,1.270625,3.345008,0.927184,0.032440,-0.990094,0.136610,-2.819122,1.503155,1.820879,6.899750,-42.372604,31.541382,,,,,,
1478385510.41,-3.024856,1.341014,-0.520472,7.737717,-2.942881,4.847589,-0.026528,-0.973716,0.226216,-2.032844,0.844794,5.507396,5.925232,-42.072006,32.130676,,,,,,
1478385510.43,-2.642386,1.197201,-0.898292,5.759700,1.578086,5.523281,-0.174719,-0.931021,0.320426,-2.139047,-4.783777,-4.804266,4.279633,-40.344788,34.359009,,,,,,
1478385510.45,-2.559106,1.081862,-0.983722,3.424261,-2.454599,5.083961,-0.258375,-0.882834,0.392233,1.131818,3.396079,1.030573,0.153046,-39.290558,38.589661,,,,,,
,,,,,,,,,,,,,,,,37.354371,-122.033716,39.687561,0.000000,82.265625,1478385600.00
1478385510.47,-2.550536,0.985730,-1.014421,3.502006,1.481995,2.296727,-0.307738,-0.833675,0.458566,-1.465105,1.488735,1.210410,-6.658539,-34.485077,44.057129,,,,,,
1478385510.49,-2.489423,0.905597,-1.035523,2.457716,2.304460,3.134816,-0.374596,-0.786794,0.490544,-1.595497,-2.069804,0.709682,-6.658539,-34.485077,44.057129,,,,,,
1478385510.51,-2.434961,0.849317,-1.054940,1.525640,1.727523,1.939248,-0.428844,-0.750830,0.502343,0.049632,-0.129221,0.648094,-8.445770,-31.183685,45.454315,,,,,,
1478385510.53,-2.403676,0.808950,-1.072179,0.872115,0.705302,1.523957,-0.464370,-0.723563,0.510703,-0.641908,-1.799783,0.698022,-12.489044,-29.382751,46.383514,,,,,,
1478385510.55,-2.358150,0.784051,-1.090930,0.250527,2.141510,1.440284,-0.499693,-0.706153,0.501652,-1.055254,-2.700478,-0.061207,-13.157974,-28.032761,46.372772,,,,,,
1478385510.57,-2.292551,0.762690,-1.118737,-0.126118,2.241451,1.259340,-0.542703,-0.690869,0.477675,0.365976,-2.041172,-0.884505,-16.374939,-26.458405,45.735870,,,,,,
1478385510.59,-2.240711,0.759329,-1.137493,-0.609663,1.673200,0.114792,-0.568543,-0.688435,0.450351,1.387253,-1.154995,-0.937305,-16.374939,-26.458405,45.735870,,,,,,
1478385510.61,-2.213864,0.777618,-1.156008,-1.366147,0.148608,-0.427066,-0.570255,-0.701584,0.427304,2.014102,-1.007751,-0.667325,-18.846298,-25.859024,45.109344,,,,,,
1478385510.63,-2.228008,0.788809,-1.190065,-1.377759,-3.380145,1.196825,-0.557903,-0.709515,0.430504,1.406185,-1.336338,-0.409096,-17.267502,-25.485443,43.699005,,,,,,
1478385510.65,-2.258603,0.734809,-1.262302,0.753699,-4.160154,4.997697,-0.573267,-0.670445,0.471028,1.893015,-1.067332,0.144191,-15.694550,-26.161102,43.041779,,,,,,
1478385510.67,-2.310055,0.627873,-1.310312,2.810720,-3.428312,5.143251,-0.598031,-0.587425,0.545244,1.058038,0.235206,-0.325670,-14.118912,-25.785416,43.731415,,,,,,
1478385510.69,-2.305407,0.506054,-1.320598,4.378672,2.229158,4.537584,-0.649081,-0.484730,0.586286,0.382342,-1.076977,-0.464566,-14.118912,-25.785416,43.731415,,,,,,
1478385510.71,-2.213832,0.378263,-1.303697,4.666003,5.904794,4.491569,-0.743705,-0.369307,0.557239,0.906944,-2.452394,-0.640811,-14.692398,-18.807129,47.004730,,,,,,
1478385510.73,-2.107553,0.253426,-1.289831,3.520967,4.806793,5.031451,-0.831922,-0.250722,0.495019,1.646376,-2.640345,-0.748986,-19.391769,-13.257584,46.566071,,,,,,
1478385510.75,-2.043876,0.134228,-1.283424,3.113970,2.501737,4.970981,-0.882162,-0.133825,0.451531,1.660971,-1.637842,-0.989617,-25.063644,-7.559219,44.917267,,,,,,
1478385510.77,-2.021792,0.028763,-1.269710,2.657488,-0.061368,4.049635,-0.899641,-0.028759,0.435681,1.258376,-1.974980,-0.543042,-28.113724,-2.535767,43.371704,,,,,,
1478385510.79,-2.064925,-0.037106,-1.266801,0.992261,-2.905302,2.062334,-0.879776,0.037097,0.473938,0.889359,-1.776218,0.159210,-28.113724,-2.535767,43.371704,,,,,,
1478385510.81,-2.132029,-0.052632,-1.269780,-0.415375,-3.787625,-0.071908,-0.845428,0.052608,0.531493,0.786071,-0.670299,0.033311,-26.955185,5.039597,43.735565,,,,,,
1478385510.83,-2.220551,-0.004640,-1.280929,-2.618795,-4.534995,-2.630257,-0.796224,0.004640,0.604985,0.600758,-0.112779,0.426876,-23.356705,5.191055,45.196075,,,,,,
1478385510.85,-2.296275,0.107082,-1.285813,-4.401891,-3.062680,-4.954196,-0.743896,-0.106878,0.659693,0.210144,0.238607,0.411031,-19.846252,2.718353,47.488617,,,,,,
1478385510.87,-2.316286,0.260754,-1.280402,-5.209079,0.485814,-6.278162,-0.709918,-0.257809,0.655401,-0.051434,0.526012,0.421366,-17.622177,-2.454895,49.251373,,,,,,
1478385510.89,-2.270397,0.434553,-1.266624,-5.274868,3.488999,-7.388653,-0.693990,-0.421005,0.584066,0.173940,0.515503,0.208414,-17.622177,-2.454895,49.251373,,,,,,
1478385510.91,-2.202610,0.626370,-1.239440,-4.805236,4.187940,-8.785546,-0.653765,-0.586208,0.478488,0.519259,0.548274,-0.070133,-17.199799,-8.680176,48.974274,,,,,,
1478385510.93,-2.171033,0.829809,-1.191798,-4.142671,2.197498,-9.551655,-0.557025,-0.737803,0.381275,0.648898,0.688364,-0.517368,-18.529617,-22.485001,44.127380,,,,,,
1478385510.95,-2.240626,1.026833,-1.112771,-3.763379,-1.891824,-9.148765,-0.405707,-0.855664,0.321311,0.654196,0.242444,-0.524832,-16.606705,-29.312454,41.692108,,,,,,
1478385510.97,-2.466232,1.203250,-0.958437,-3.801204,-5.618536,-8.365244,-0.224643,-0.933212,0.280448,-0.563855,-0.556626,0.020608,-11.600266,-33.964035,40.106140,,,,,,
1478385510.99,-2.929446,1.349262,-0.611588,-4.716395,-6.608450,-7.068221,-0.046266,-0.975561,0.214801,-1.868361,-1.027261,1.631573,-11.600266,-33.964035,40.106140,,,,,,
1478385511.01,2.553056,1.421599,0.103874,-4.052259,-3.017955,-4.714139,0.082519,-0.988891,0.123636,-3.530975,-0.587312,2.877356,-2.238922,-37.716187,37.960999,,,,,,
1478385511.03,2.103413,1.409473,0.576331,-1.016263,2.559307,-1.955148,0.138375,-0.987016,0.081563,-3.478402,0.385392,3.171168,10.353180,-41.998764,30.374756,,,,,,
1478385511.05,2.182282,1.393476,0.534081,1.594002,0.990275,0.500311,0.144430,-0.984320,0.101264,-2.433461,1.397497,1.999627,10.803864,-41.773544,30.603638,,,,,,
1478385511.07,2.535758,1.380913,0.191952,3.034169,1.267242,2.420328,0.107480,-0.982026,0.155153,-3.382977,1.332673,1.358885,8.780365,-41.022293,31.856079,,,,,,
1478385511.09,3.069427,1.298661,-0.322092,7.767268,0.978028,6.028349,0.019380,-0.963199,0.268090,-0.830583,-2.071240,4.137428,8.780365,-41.022293,31.856079,,,,,,
1478385511.11,-2.800061,1.186109,-0.767692,4.300773,-3.845003,6.865926,-0.125689,-0.926916,0.353594,-3.121808,-1.530573,-4.160479,8.033752,-39.520050,34.094116,,,,,,
1478385511.13,-2.724339,1.071788,-0.915595,4.313998,-1.574437,3.629533,-0.193935,-0.878057,0.437498,0.277889,5.355383,2.366411,3.311249,-37.189697,39.439911,,,,,,
1478385511.15,-2.671870,0.974284,-0.937543,3.905000,2.999046,2.942655,-0.254275,-0.827300,0.500918,-2.185484,-0.045365,1.412473,-3.358353,-34.334747,44.389648,,,,,,
1478385511.17,-2.598271,0.895285,-0.982636,2.232958,1.241285,2.284241,-0.323267,-0.780387,0.535252,-0.522818,-1.556756,0.516887,-5.142899,-30.358124,46.009888,,,,,,
1478385511.19,-2.555075,0.847886,-0.998587,1.460448,1.748605,1.848377,-0.366155,-0.749883,0.551004,-0.178950,-0.156229,1.217902,-5.142899,-30.358124,46.009888,,,,,,
1478385511.21,-2.501358,0.815808,-1.013955,0.713238,2.381138,0.810310,-0.409375,-0.728280,0.549564,-0.641895,-2.416999,0.872249,-7.538467,-29.082260,46.882080,,,,,,
1478385511.23,-2.437371,0.798021,-1.033812,0.063736,2.588097,1.454008,-0.451995,-0.715976,0.532052,-0.768693,-2.602124,-0.428506,-9.555649,-27.282059,47.081512,,,,,,
1478385511.25,-2.364383,0.785457,-1.062196,-0.353960,2.595728,0.705407,-0.495860,-0.707148,0.504048,0.512065,-2.064504,-1.018147,-14.125305,-26.232483,46.657654,,,,,,
1478385511.27,-2.309685,0.795323,-1.071838,-0.738631,2.068665,-0.506133,-0.517492,-0.714089,0.471464,1.946051,-1.822043,-1.228101,-14.125305,-26.232483,46.657654,,,,,,
1478385511.29,-2.284346,0.814749,-1.087217,-1.006555,-0.505111,-0.058531,-0.518684,-0.727553,0.449035,2.546089,-1.220658,-0.945984,-15.997803,-26.008469,45.663269,,,,,,
1478385511.31,-2.299535,0.786743,-1.144394,0.220193,-3.541615,4.328603,-0.526802,-0.708057,0.470249,2.060005,-1.532833,0.197567,-15.919525,-25.709747,44.388184,,,,,,
1478385511.33,-2.325697,0.667934,-1.211589,3.028677,-3.367049,6.360766,-0.571821,-0.619366,0.537965,1.626585,-0.081074,-0.312517,-14.571243,-26.084732,44.402771,,,,,,
1478385511.35,-2.328845,0.524083,-1.245214,4.408842,0.546205,6.034173,-0.628714,-0.500419,0.595231,0.741537,-1.731850,-0.651627,-14.564499,-24.208618,45.522217,,,,,,
1478385511.37,-2.264966,0.373854,-1.257638,4.516798,4.021677,5.992637,-0.715496,-0.365206,0.595558,0.703610,-3.189421,-0.742653,-16.545959,-13.781342,47.796143,,,,,,
1478385511.39,-2.173757,0.229033,-1.265030,3.811748,4.281077,5.952593,-0.802151,-0.227036,0.552275,1.299924,-2.627609,-0.748686,-16.545959,-13.781342,47.796143,,,,,,
1478385511.41,-2.102824,0.096212,-1.268987,3.229055,3.068441,5.476001,-0.857795,-0.096063,0.504935,1.615104,-1.919562,-0.866370,-21.466385,-7.557388,46.753235,,,,,,
1478385511.43,-2.061295,-0.018055,-1.261072,3.031623,1.335146,4.351182,-0.881954,0.018054,0.470989,1.332455,-1.886691,-0.825237,-25.715210,-2.158646,45.494537,,,,,,
1478385511.45,-2.071591,-0.099372,-1.255843,1.378186,-1.620087,2.868959,-0.872874,0.099208,0.477754,1.233454,-1.931377,-0.194948,-26.964310,2.864151,43.291992,,,,,,
1478385511.47,-2.129845,-0.125814,-1.267783,-0.371973,-3.439596,0.462301,-0.841059,0.125482,0.526188,0.688563,-0.672510,0.312160,-24.166168,8.264923,44.053772,,,,,,
,,,,,,,,,,,,,,,,37.354382,-122.033672,38.826599,1.110000,84.726562,1478385601.00
1478385511.49,-2.224880,-0.078021,-1.278512,-2.924553,-5.319921,-2.942758,-0.791192,0.077942,0.606581,0.614419,0.286209,0.264039,-24.166168,8.264923,44.053772,,,,,,
1478385511.51,-2.330742,0.050470,-1.279757,-4.913873,-4.904063,-5.828746,-0.723951,-0.050449,0.688005,0.863324,0.497135,0.407271,-21.101227,6.842346,46.488678,,,,,,
1478385511.53,-2.397292,0.225730,-1.260854,-5.934279,-1.961412,-7.152613,-0.660271,-0.223818,0.716901,0.275216,0.654009,0.387622,-17.001160,2.044586,48.719086,,,,,,
1478385511.55,-2.392077,0.415260,-1.231879,-5.995879,2.339297,-7.646253,-0.623383,-0.403428,0.669805,-0.139084,0.647996,0.315317,-13.508057,-4.704391,49.749268,,,,,,
1478385511.57,-2.333289,0.615202,-1.182740,-5.394975,4.891282,-9.127568,-0.590538,-0.577124,0.564086,0.220344,0.805914,-0.122222,-12.715393,-12.130112,49.029449,,,,,,
1478385511.59,-2.295572,0.820927,-1.103588,-4.384486,3.797048,-9.658757,-0.510236,-0.731778,0.451841,0.549085,1.395337,-0.598356,-12.715393,-12.130112,49.029449,,,,,,
1478385511.61,-2.355874,1.012575,-0.992738,-3.839533,-0.069184,-9.123549,-0.374659,-0.848198,0.374419,0.720332,0.911873,-0.714034,-15.470444,-25.934814,44.318359,,,,,,
1478385511.63,-2.587926,1.182215,-0.782479,-3.609041,-3.375034,-8.923901,-0.199217,-0.925448,0.322273,-0.749377,-0.325117,-0.050712,-11.812744,-30.662476,41.669067,,,,,,
1478385511.65,-3.094490,1.312455,-0.355271,-4.423671,-5.961660,-7.952689,-0.012029,-0.966815,0.255194,-1.789958,-1.104215,0.983865,-5.001495,-34.414566,39.573425,,,,,,
1478385511.67,2.366778,1.361946,0.345013,-4.881532,-6.768993,-5.361577,0.145049,-0.978270,0.148152,-3.141188,-1.274812,2.333889,3.391846,-36.892548,36.589783,,,,,,
1478385511.69,1.961108,1.350483,0.719517,-1.634031,1.555747,-1.267681,0.202099,-0.975829,0.083147,-4.664090,0.167113,3.874067,3.391846,-36.892548,36.589783,,,,,,
1478385511.71,2.054817,1.345184,0.699547,1.187519,3.533959,0.601724,0.198006,-0.974657,0.104098,-3.169320,1.257601,2.182630,12.008881,-40.798981,30.162720,,,,,,
1478385511.73,2.388918,1.354411,0.403553,2.791432,1.600012,3.195461,0.146768,-0.976680,0.156702,-3.006051,1.481227,0.724020,10.434509,-40.272797,31.345398,,,,,,
1478385511.75,2.843654,1.309759,-0.068058,7.761858,-1.802823,3.533437,0.075760,-0.966123,0.246713,1.211593,0.183042,5.161948,7.657166,-39.895126,34.016479,,,,,,
1478385511.77,-2.987493,1.211897,-0.538143,2.942451,-8.733897,8.230549,-0.053913,-0.936284,0.347081,-7.022259,-3.593226,-7.426717,9.399750,-35.017197,36.944275,,,,,,
1478385511.79,-2.801284,1.095179,-0.807155,4.905832,2.736613,5.491894,-0.152833,-0.889010,0.431628,1.964906,7.429324,5.138608,9.399750,-35.017197,36.944275,,,,,,
1478385511.81,-2.706018,0.998962,-0.833320,3.635752,3.517339,2.107071,-0.228339,-0.840909,0.490645,-1.906305,-0.580782,0.832231,-3.212402,-35.535645,43.494720,,,,,,
1478385511.83,-2.638830,0.925936,-0.908880,1.698035,-0.517885,3.294574,-0.289633,-0.799184,0.526705,-0.720056,-1.855357,0.598173,-4.319916,-31.033798,45.345123,,,,,,
1478385511.85,-2.598622,0.884318,-0.931083,1.288598,2.002464,1.446014,-0.327482,-0.773483,0.542660,-0.859118,-0.723480,1.351215,-6.715057,-29.607773,46.366913,,,,,,
1478385511.87,-2.538453,0.855148,-0.954137,0.563308,2.080056,1.021871,-0.372164,-0.754668,0.540343,-0.353391,-2.879884,0.264833,-8.885971,-28.482117,47.016815,,,,,,
1478385511.89,-2.478805,0.837989,-0.974851,0.128319,2.343771,1.347708,-0.411622,-0.743300,0.527327,-0.242095,-2.350588,-0.687574,-8.885971,-28.482117,47.016815,,,,,,
1478385511.91,-2.416575,0.826332,-0.995524,-0.010873,2.392571,0.296273,-0.449335,-0.735451,0.507159,1.369837,-1.603401,-1.135104,-11.208801,-28.032227,46.917236,,,,,,
1478385511.93,-2.379963,0.828644,-0.995584,-0.203560,1.242570,0.027805,-0.466423,-0.737015,0.489140,1.716225,-1.009063,-0.900181,-14.577530,-26.832794,46.354980,,,,,,
1478385511.95,-2.371982,0.815206,-1.024636,0.000129,-1.998688,2.335583,-0.477161,-0.727867,0.492470,1.412967,-1.772240,-0.166100,-14.346466,-25.858902,45.229340,,,,,,
1478385511.96,-2.384010,0.730933,-1.098319,2.000487,-3.555389,5.833864,-0.511632,-0.667564,0.540917,1.565449,-0.947502,-0.167336,-14.119232,-25.108154,45.979370,,,,,,
1478385511.98,-2.403327,0.606475,-1.157715,3.532674,-1.710581,5.783909,-0.552984,-0.569975,0.607732,0.773153,-0.609819,-0.363240,-14.119232,-25.108154,45.979370,,,,,,
1478385512.00,-2.360565,0.471005,-1.178819,4.766931,3.622486,5.014368,-0.627352,-0.453782,0.632859,0.471499,-1.607543,-0.627793,-12.532959,-22.407547,46.587158,,,,,,
1478385512.02,-2.239190,0.328966,-1.171565,4.969337,7.339581,5.249314,-0.742734,-0.323065,0.586495,1.207715,-2.766443,-0.546807,-16.765335,-12.355820,48.314636,,,,,,
1478385512.04,-2.102695,0.183780,-1.164535,3.883072,6.018576,6.129512,-0.847332,-0.182747,0.498629,2.094220,-3.126671,-0.793033,-24.158493,-5.832504,46.646118,,,,,,
1478385512.06,-2.021363,0.043008,-1.163952,3.203227,3.109829,6.089344,-0.899368,-0.042994,0.435073,1.975189,-2.085866,-0.906539,-29.074860,0.463989,43.128082,,,,,,
1478385512.08,-1.977971,-0.082538,-1.150275,3.137266,1.559277,4.946026,-0.915117,0.082444,0.394668,1.683474,-1.808701,-0.734146,-29.074860,0.463989,43.128082,,,,,,
1478385512.10,-1.989052,-0.173799,-1.139162,1.597647,-2.047660,3.363913,-0.900032,0.172925,0.400048,1.460823,-2.330518,-0.207025,-30.169800,6.461929,41.074188,,,,,,
1478385512.12,-2.061210,-0.217343,-1.152260,-0.207581,-4.007345,1.566842,-0.861385,0.215636,0.459910,0.784404,-1.092772,0.231084,-30.294922,11.485413,39.557800,,,,,,
1478385512.14,-2.171001,-0.201281,-1.181300,-2.736226,-5.972514,-0.998628,-0.808560,0.199925,0.553409,0.570599,-0.146351,0.037839,-24.737320,14.188461,42.605316,,,,,,
1478385512.16,-2.299660,-0.100362,-1.209295,-4.951225,-5.800393,-4.297022,-0.742178,0.100194,0.662671,0.873068,0.285213,0.673160,-19.579620,11.341446,45.590424,,,,,,
1478385512.18,-2.376285,0.058682,-1.215202,-6.241482,-2.565629,-5.916508,-0.691567,-0.058649,0.719928,0.264397,0.470239,0.452848,-19.579620,11.341446,45.590424,,,,,,
1478385512.20,-2.377614,0.241568,-1.216141,-6.774488,1.504172,-6.565456,-0.671713,-0.239226,0.701123,0.001028,0.335982,0.404651,-16.312073,5.194641,48.791504,,,,,,
1478385512.22,-2.314069,0.443418,-1.200897,-6.330530,4.283995,-8.487676,-0.665055,-0.429030,0.611258,0.513367,0.298186,0.092691,-15.673782,-2.679489,49.646545,,,,,,
1478385512.24,-2.250113,0.662872,-1.156777,-5.393620,4.048185,-10.027360,-0.613243,-0.615383,0.495213,0.812096,0.593929,-0.325078,-18.066345,-18.958298,45.846436,,,,,,
1478385512.26,-2.256474,0.885569,-1.083387,-4.665106,0.985254,-10.372111,-0.489819,-0.774275,0.400718,0.757519,0.621611,-0.501747,-17.197815,-26.911194,42.954010,,,,,,
1478385512.28,-2.391079,1.091367,-0.953305,-4.191016,-2.636057,-9.679296,-0.314595,-0.887258,0.337347,0.038243,-0.309473,-0.169134,-17.197815,-26.911194,42.954010,,,,,,
1478385512.30,-2.748637,1.263495,-0.675668,-4.453527,-6.316950,-8.742187,-0.115829,-0.953153,0.279432,-1.987244,-0.934252,0.901399,-11.895981,-32.913742,40.400024,,,,,,
1478385512.32,2.804471,1.376157,-0.074390,-5.268405,-7.217722,-6.446838,0.063976,-0.981117,0.182526,-3.060954,-1.020882,2.659103,-4.036209,-36.815308,38.840332,,,,,,
1478385512.34,2.208013,1.389934,0.472795,-2.201529,0.483385,-1.976749,0.144578,-0.983689,0.107020,-5.144043,-0.015426,4.203877,4.730682,-39.743652,35.486755,,,,,,
1478385512.36,2.226484,1.382947,0.522095,0.856795,3.825499,0.187430,0.148020,-0.982408,0.113860,-3.620524,1.524049,2.635224,9.754425,-41.473022,31.117188,,,,,,
1478385512.38,2.549880,1.376759,0.242854,2.609215,1.344653,2.600426,0.107553,-0.981234,0.160040,-2.850580,1.754870,0.661722,9.754425,-41.473022,31.117188,,,,,,
1478385512.40,3.049258,1.277938,-0.279490,9.062482,1.032655,5.997693,0.026618,-0.957423,0.287460,1.284035,-3.673086,6.924683,7.127899,-41.095871,33.264771,,,,,,
1478385512.42,-2.842314,1.167913,-0.702645,4.336490,-4.834366,6.484037,-0.115595,-0.919934,0.374645,-4.896856,1.858579,-2.345577,8.571045,-35.917435,36.713684,,,,,,
1478385512.44,-2.729423,1.048463,-0.842326,4.612428,0.580434,3.389236,-0.199860,-0.866658,0.457122,0.290497,5.175023,1.513016,0.235260,-36.888153,40.983246,,,,,,
1478385512.46,-2.666155,0.954045,-0.855795,3.539776,2.301668,2.919862,-0.264744,-0.815762,0.514240,-2.348201,-1.530857,1.017223,-5.069580,-30.808365,45.786957,,,,,,
1478385512.48,-2.597702,0.876781,-0.909632,2.252664,1.539843,2.525553,-0.330989,-0.768684,0.547332,-0.500478,-0.881081,0.909135,-5.069580,-30.808365,45.786957,,,,,,
,,,,,,,,,,,,,,,,37.354387,-122.033636,38.330566,1.970000,84.726562,1478385602.00
1478385512.50,-2.540533,0.824465,-0.915783,1.942782,2.999313,1.523643,-0.383957,-0.734185,0.559955,-0.291778,-1.632011,0.832791,-7.987991,-28.781662,47.476685,,,,,,
1478385512.52,-2.478882,0.784791,-0.926271,1.061909,2.914709,1.416104,-0.435316,-0.706677,0.557770,-1.026965,-3.118335,-0.199646,-10.829956,-26.755951,48.192200,,,,,,
1478385512.54,-2.392910,0.753387,-0.950016,0.387095,3.555447,1.755383,-0.496468,-0.684113,0.534330,0.325340,-2.161224,-1.013502,-12.923050,-25.331268,47.867004,,,,,,
1478385512.56,-2.315825,0.741038,-0.970729,-0.400800,2.750996,0.317976,-0.542310,-0.675054,0.500201,1.685056,-1.116480,-1.097125,-16.367493,-24.206619,47.529175,,,,,,
1478385512.58,-2.268149,0.760143,-0.987303,-1.523867,1.469463,-0.486683,-0.555543,-0.689025,0.465420,1.840974,-0.796418,-0.894604,-16.367493,-24.206619,47.529175,,,,,,
1478385512.60,-2.248417,0.777283,-1.033842,-1.948576,-2.225692,1.628574,-0.555336,-0.701345,0.446897,1.416603,-2.247813,-0.301496,-19.734909,-23.233749,45.392578,,,,,,
1478385512.62,-2.285520,0.716527,-1.130011,0.082632,-7.067542,5.781362,-0.569546,-0.656770,0.494238,2.174221,-0.862136,0.103678,-18.236969,-23.909409,44.734589,,,,,,
1478385512.64,-2.380266,0.607674,-1.208800,2.398170,-5.839085,6.059080,-0.566378,-0.570960,0.594324,1.293872,-0.137643,-0.029748,-15.910080,-23.233627,45.505829,,,,,,
1478385512.66,-2.392146,0.478695,-1.243464,4.544925,1.119857,4.971867,-0.604661,-0.460621,0.649780,-0.311523,-1.272945,-0.650375,-11.851242,-20.606644,47.488556,,,,,,
1478385512.68,-2.290815,0.344378,-1.237240,4.911944,7.299927,4.538632,-0.707653,-0.337611,0.620682,0.822735,-2.855184,-0.461701,-11.851242,-20.606644,47.488556,,,,,,
1478385512.70,-2.128102,0.214534,-1.224917,3.831273,8.033370,5.082596,-0.829228,-0.212892,0.516777,1.750859,-3.134001,-0.759407,-18.477570,-9.580994,48.139221,,,,,,
1478385512.72,-2.007191,0.092161,-1.216170,3.196826,4.961451,5.125395,-0.902436,-0.092031,0.420881,2.024155,-1.874644,-0.956312,-25.273682,-4.259308,44.830261,,,,,,
1478385512.74,-1.953282,-0.014337,-1.200538,2.367531,1.059436,4.167665,-0.927645,0.014337,0.373189,1.432741,-2.323266,-0.538106,-30.345917,0.912689,41.839050,,,,,,
1478385512.76,-1.973086,-0.085412,-1.190128,1.511554,-1.844733,2.512816,-0.916812,0.085308,0.390099,0.939609,-1.805508,0.282676,-31.598267,5.411102,40.237976,,,,,,
1478385512.78,-2.040956,-0.112214,-1.198247,-0.741576,-4.427991,0.466446,-0.885889,0.111979,0.450179,0.611994,-0.489359,0.394303,-31.598267,5.411102,40.237976,,,,,,
1478385512.80,-2.155678,-0.061650,-1.215445,-2.891025,-6.181349,-3.065773,-0.832194,0.061610,0.551052,0.699106,0.129445,0.316243,-30.911575,8.261856,40.986359,,,,,,
1478385512.82,-2.287959,0.065747,-1.227919,-5.303761,-6.675320,-5.428269,-0.752046,-0.065699,0.655829,0.684373,0.189067,0.486383,-22.303772,6.016602,45.729156,,,,,,
1478385512.84,-2.381875,0.243273,-1.233645,-6.795814,-3.036623,-6.491415,-0.668437,-0.240880,0.703682,0.124095,0.389440,0.527794,-16.710602,-0.055405,48.728302,,,,,,
1478385512.86,-2.375991,0.439705,-1.228296,-7.005322,2.390184,-7.270688,-0.627053,-0.425673,0.652386,-0.329948,0.554655,0.601109,-14.198364,-8.004089,50.052246,,,,,,
1478385512.88,-2.289893,0.653154,-1.203483,-6.297471,6.226995,-9.229074,-0.597535,-0.607694,0.523125,0.038926,0.735654,0.412132,-14.198364,-8.004089,50.052246,,,,,,
1478385512.90,-2.199918,0.882274,-1.141447,-4.764339,6.404891,-10.803976,-0.513747,-0.772186,0.373890,0.565215,1.236083,-0.204929,-14.607498,-16.180862,48.272705,,,,,,
1478385512.92,-2.213544,1.100648,-1.030834,-3.553975,1.989136,-10.294765,-0.362619,-0.891501,0.271538,0.985590,0.867926,-0.765144,-16.161346,-30.738632,40.500793,,,,,,
1478385512.94,-2.486742,1.283215,-0.780498,-2.858968,-4.280587,-9.390891,-0.172745,-0.958933,0.224961,-0.427643,-0.849722,-0.130235,-11.830887,-35.916138,38.009644,,,,,,
1478385512.96,2.994738,1.406544,-0.104582,-4.542350,-8.262216,-8.262629,0.023927,-0.986541,0.161755,-2.080659,-2.308198,1.486865,-3.665375,-38.542694,36.449219,,,,,,
1478385512.98,1.821194,1.395284,0.924111,-4.798048,-6.694569,-4.964815,0.169167,-0.984637,0.043267,-4.076303,-1.399564,2.963843,-3.665375,-38.542694,36.449219,,,,,,
1478385513.00,1.509597,1.354161,1.205108,-0.934740,1.293526,-0.837653,0.214543,-0.976626,-0.013146,-3.919087,1.158114,3.728005,6.981171,-40.721924,32.212219,,,,,,
1478385513.02,1.659062,1.359780,1.098366,1.946165,1.530866,0.621066,0.208638,-0.977819,0.018464,-2.526723,1.404668,2.234405,12.153564,-42.901749,27.395447,,,,,,
1478385513.04,1.992196,1.377038,0.784847,3.253419,1.739229,2.556690,0.175704,-0.981288,0.078760,-3.163954,0.900233,1.369910,10.428986,-42.074524,29.625732,,,,,,
1478385513.06,2.604126,1.395919,0.215156,3.208717,3.026035,4.612591,0.089075,-0.984748,0.149456,-2.023096,0.461219,0.435886,7.879333,-41.172073,32.072571,,,,,,
1478385513.08,-3.078257,1.286986,-0.336054,4.147295,6.537749,6.539566,-0.017723,-0.959996,0.279454,4.467400,-6.816692,-0.001835,7.879333,-41.172073,32.072571,,,,,,
1478385513.10,-2.781675,1.176160,-0.793076,4.661168,-5.104752,7.151623,-0.135410,-0.923137,0.359837,-1.721325,6.451274,1.716914,6.992340,-36.892899,36.250793,,,,,,
1478385513.12,-2.675306,1.048773,-0.874238,4.758093,2.300213,2.685856,-0.224173,-0.866812,0.445402,-1.917902,1.881506,1.934725,-1.872604,-38.989227,39.918427,,,,,,
1478385513.14,-2.602093,0.958163,-0.893423,2.969604,1.572021,3.297221,-0.295394,-0.818137,0.493351,-1.205934,-2.647333,0.455838,-7.098740,-31.858749,45.394806,,,,,,
1478385513.16,-2.546818,0.890970,-0.939901,1.755249,1.269189,1.999348,-0.352251,-0.777682,0.520702,-1.114714,-0.003003,1.064458,-8.738892,-29.458099,46.046234,,,,,,
1478385513.18,-2.487447,0.849816,-0.957125,1.082343,2.311539,1.655944,-0.401672,-0.751159,0.523851,-0.397797,-1.853074,0.772978,-8.738892,-29.458099,46.046234,,,,,,
1478385513.20,-2.439357,0.825615,-0.971951,0.443007,2.026350,0.940341,-0.438006,-0.734965,0.517666,-0.976316,-2.622335,-0.161510,-11.207321,-27.807526,46.616608,,,,,,
1478385513.22,-2.366465,0.806758,-0.992834,0.054795,3.271168,1.198443,-0.484157,-0.722048,0.494205,0.150355,-2.193464,-0.939212,-13.229935,-27.132095,47.044312,,,,,,
1478385513.24,-2.289446,0.804850,-1.007356,-0.539384,3.202353,-0.176771,-0.521783,-0.720727,0.456394,1.613534,-1.493614,-1.024067,-16.828186,-26.832367,46.782440,,,,,,
1478385513.26,-2.239681,0.828304,-1.022231,-1.384869,0.949458,-0.557319,-0.530430,-0.736786,0.419273,2.549992,-1.288833,-0.791038,-19.220291,-25.934937,44.205841,,,,,,
1478385513.28,-2.242789,0.823913,-1.071275,-0.807516,-3.525670,3.126002,-0.531652,-0.733810,0.422930,1.567128,-2.207017,0.575864,-19.220291,-25.934937,44.205841,,,,,,
1478385513.30,-2.285021,0.713606,-1.150347,2.265369,-5.562104,6.864156,-0.571240,-0.654564,0.495208,1.845699,-0.001472,0.258622,-18.171204,-26.385666,43.467682,,,,,,
1478385513.32,-2.334364,0.569008,-1.197839,4.194515,-2.168496,6.369346,-0.608554,-0.538797,0.582547,0.695239,-0.987677,-0.618130,-16.590805,-24.734299,44.828552,,,,,,
1478385513.34,-2.306198,0.411475,-1.207565,5.380534,3.086194,5.931785,-0.679665,-0.399961,0.614887,0.319176,-2.606829,-0.637852,-15.899811,-20.381912,47.222382,,,,,,
1478385513.36,-2.201174,0.253206,-1.205254,4.824471,6.124458,6.122944,-0.782047,-0.250509,0.570655,1.261585,-3.839960,-0.478278,-21.239502,-7.107300,46.829163,,,,,,
1478385513.38,-2.085568,0.106245,-1.204429,3.616276,5.223254,6.184606,-0.865497,-0.106045,0.489560,1.976810,-2.926548,-0.999707,-21.239502,-7.107300,46.829163,,,,,,
1478385513.40,-2.009596,-0.031828,-1.195523,3.551583,2.919259,5.659970,-0.904804,0.031823,0.424638,1.872379,-1.802849,-1.059740,-26.307007,-0.810089,44.059601,,,,,,
1478385513.42,-1.986899,-0.141514,-1.177690,2.469457,-0.276436,3.879989,-0.905528,0.141042,0.400159,1.598521,-2.555715,-0.387479,-30.329025,4.662689,41.827972,,,,,,
1478385513.44,-2.019070,-0.198779,-1.177578,0.671590,-2.264228,1.961055,-0.883450,0.197473,0.424876,1.005994,-1.410913,0.122487,-29.851562,10.135803,39.941284,,,,,,
1478385513.46,-2.098432,-0.208340,-1.186949,-1.030039,-4.897133,-0.393267,-0.845317,0.206836,0.492604,0.484294,-0.052112,0.247737,-27.591461,12.536270,40.406708,,,,,,
1478385513.48,-2.219742,-0.128075,-1.200898,-3.773935,-6.305424,-4.599746,-0.790196,0.127725,0.599397,0.548222,0.658652,0.364852,-27.591461,12.536270,40.406708,,,,,,
1478385513.50,-2.333336,0.038119,-1.192685,-5.755426,-4.947569,-7.331413,-0.722558,-0.038110,0.690259,0.537820,0.972497,0.634998,-21.085693,9.840988,45.129822,,,,,,
1478385513.52,-2.387669,0.233659,-1.177443,-6.785555,-0.966809,-7.239987,-0.665904,-0.231539,0.709198,0.302638,0.870714,0.241211,-17.294815,3.319199,48.337341,,,,,,
,,,,,,,,,,,,,,,,37.354396,-122.033590,38.183960,3.460000,81.914062,1478385603.00
1478385513.54,-2.357831,0.435215,-1.161949,-6.596302,3.067455,-7.962566,-0.640139,-0.421605,0.642238,0.321078,0.396963,-0.053325,-14.930893,-4.329712,49.433929,,,,,,
1478385513.56,-2.303617,0.651946,-1.120647,-6.004712,3.812824,-9.619814,-0.590845,-0.606735,0.531767,0.350122,0.802779,-0.252515,-15.340118,-12.355957,48.178925,,,,,,
1478385513.58,-2.290572,0.875382,-1.057063,-5.461858,2.183310,-9.881910,-0.481779,-0.767788,0.422362,0.411680,1.260235,-0.339263,-15.340118,-12.355957,48.178925,,,,,,
1478385513.60,-2.364126,1.077863,-0.952628,-4.301382,-0.531922,-9.126644,-0.331947,-0.880949,0.337255,0.013420,0.845853,-0.514486,-15.404007,-28.261078,43.050964,,,,,,
1478385513.62,-2.637691,1.247248,-0.721494,-3.917466,-4.273219,-8.444999,-0.153513,-0.948113,0.278416,-1.343283,-0.148063,0.860806,-10.473251,-33.514023,40.116058,,,,,,
1478385513.64,3.005226,1.365663,-0.190306,-4.638331,-7.805978,-7.381139,0.027692,-0.979034,0.201806,-2.522382,-1.314499,1.432105,-3.061111,-37.116272,37.875977,,,,,,
1478385513.66,2.213058,1.391982,0.476172,-3.374238,-4.494952,-2.706168,0.142423,-0.984055,0.106541,-4.394086,-0.967666,3.400111,6.534119,-39.369843,34.303711,,,,,,
1478385513.68,2.078733,1.394007,0.628294,0.145313,3.147617,0.207856,0.153666,-0.984413,0.085539,-3.856639,1.197121,3.293505,6.534119,-39.369843,34.303711,,,,,,
1478385513.70,2.368952,1.394329,0.394625,2.273480,2.377411,1.884725,0.122541,-0.984470,0.125708,-2.433119,1.389301,1.287957,10.280853,-41.398773,30.372192,,,,,,
1478385513.72,2.819326,1.371305,-0.028656,3.645869,1.009730,3.359910,0.062764,-0.980168,0.187969,-1.907369,0.965840,1.509999,8.179474,-41.021698,32.450134,,,,,,
1478385513.74,-2.967124,1.237485,-0.466760,3.783499,7.410177,7.327713,-0.056792,-0.944964,0.322207,0.874541,-7.045393,-3.574221,8.042969,-37.269455,34.687500,,,,,,
1478385513.76,-2.787069,1.126684,-0.784009,4.168671,-2.350594,6.498080,-0.149152,-0.902992,0.402937,-0.243548,6.266518,4.705019,-1.568420,-37.713181,40.967682,,,,,,
1478385513.78,-2.670753,1.014123,-0.860647,4.163376,3.501782,2.246891,-0.239685,-0.849018,0.470872,-1.766785,0.998432,1.258391,-1.568420,-37.713181,40.967682,,,,,,
1478385513.80,-2.587518,0.931363,-0.893556,2.216230,0.682917,3.336224,-0.313979,-0.802434,0.507461,-1.067201,-3.049922,-0.052078,-4.867462,-36.735886,43.256775,,,,,,
1478385513.82,-2.544287,0.877077,-0.932757,1.482952,1.787423,1.962927,-0.359610,-0.768873,0.528692,-0.883936,-0.630846,1.378520,-8.438766,-29.458176,45.974213,,,,,,
1478385513.84,-2.482537,0.837763,-0.953468,0.922266,2.011523,1.513831,-0.409754,-0.743148,0.528992,-0.422003,-2.822190,0.043731,-10.534241,-28.257584,46.549683,,,,,,
1478385513.86,-2.425470,0.811818,-0.974832,0.368904,2.457936,1.448922,-0.451767,-0.725539,0.519134,-0.298905,-2.598588,-0.675155,-13.680923,-27.357086,47.040497,,,,,,
1478385513.88,-2.349094,0.793964,-0.996968,-0.015170,3.255097,0.679046,-0.499206,-0.713138,0.492167,1.416854,-1.680615,-1.008509,-13.680923,-27.357086,47.040497,,,,,,
1478385513.90,-2.293667,0.805646,-1.004023,-1.007004,1.715131,-0.539575,-0.519421,-0.721278,0.458213,2.381696,-1.418904,-0.980781,-16.152512,-26.757568,46.563995,,,,,,
1478385513.92,-2.284866,0.812405,-1.036612,-0.993928,-2.579138,1.667748,-0.519738,-0.725943,0.450420,1.458932,-1.768182,-0.440685,-17.948227,-26.158646,45.494232,,,,,,
1478385513.94,-2.311149,0.739092,-1.119808,1.368919,-4.779848,6.078389,-0.545612,-0.673617,0.498546,1.903766,-0.586439,0.171178,-16.142853,-25.409973,44.160034,,,,,,
1478385513.96,-2.357790,0.614045,-1.184330,3.068319,-3.540594,6.112534,-0.577012,-0.576179,0.578857,0.891618,-0.478723,-0.425109,-14.708618,-22.783249,45.891479,,,,,,
1478385513.98,-2.353616,0.479628,-1.215533,4.320920,1.406607,5.372947,-0.628937,-0.461449,0.625702,0.105851,-1.570655,-0.639572,-14.708618,-22.783249,45.891479,,,,,,
1478385514.00,-2.261800,0.339956,-1.215344,4.812204,6.141089,5.107967,-0.726504,-0.333446,0.600837,0.720035,-2.457616,-0.423194,-13.267075,-18.581665,47.468323,,,,,,
1478385514.02,-2.126549,0.202890,-1.206014,3.925662,6.726180,5.500145,-0.832079,-0.201500,0.516761,1.783922,-2.826072,-0.601570,-16.242950,-13.031113,48.021912,,,,,,
1478385514.04,-2.026867,0.070255,-1.206007,2.967321,3.831066,5.883694,-0.895575,-0.070197,0.439337,2.035254,-2.144143,-1.160300,-28.483765,-1.335480,43.664398,,,,,,
1478385514.06,-1.982651,-0.053055,-1.195303,3.042458,1.246286,4.947187,-0.915091,0.053030,0.399746,1.727545,-1.775686,-0.881329,-30.107193,3.837311,41.457642,,,,,,
1478385514.08,-1.998532,-0.144772,-1.182462,1.917283,-2.096740,3.263952,-0.900389,0.144266,0.410472,1.192152,-1.941141,-0.227199,-30.107193,3.837311,41.457642,,,,,,
1478385514.10,-2.063818,-0.186744,-1.183315,0.322200,-3.671861,1.078331,-0.865591,0.185661,0.465062,0.668020,-1.016456,0.188747,-29.933533,8.786407,40.544525,,,,,,
1478385514.12,-2.155397,-0.168961,-1.193352,-1.866163,-5.131238,-1.505456,-0.822057,0.168158,0.544008,0.589315,-0.362448,0.103468,-27.598434,11.262100,41.235474,,,,,,
1478385514.14,-2.275688,-0.077388,-1.207797,-4.171127,-6.161155,-4.190834,-0.759402,0.077311,0.646012,0.964084,-0.107722,0.636673,-23.699829,11.714386,43.523102,,,,,,
1478385514.16,-2.387282,0.076503,-1.213965,-6.317798,-4.927533,-5.837614,-0.682784,-0.076428,0.726612,0.463576,-0.012668,0.564358,-14.369766,3.544830,48.965881,,,,,,
1478385514.18,-2.445979,0.263206,-1.213305,-7.218208,-1.478373,-6.337193,-0.618786,-0.260177,0.741223,0.106854,0.117324,0.455142,-14.369766,3.544830,48.965881,,,,,,
1478385514.20,-2.434369,0.462539,-1.198083,-7.145082,2.029593,-7.487722,-0.581454,-0.446222,0.680292,0.136813,0.032541,0.323248,-11.407303,-4.403992,50.144348,,,,,,
1478385514.22,-2.391780,0.681283,-1.151382,-6.499852,4.163240,-9.431670,-0.529367,-0.629790,0.568450,-0.038352,0.663680,0.317140,-10.091232,-12.129547,49.580719,,,,,,
1478385514.24,-2.364967,0.898464,-1.057874,-5.082073,4.635833,-9.885188,-0.436515,-0.782371,0.444241,0.326194,1.342735,-0.005292,-11.323868,-20.006424,47.717041,,,,,,
1478385514.26,-2.423444,1.090448,-0.918652,-3.853855,1.452692,-9.015701,-0.304050,-0.886834,0.347964,-0.251141,0.619363,-0.108630,-9.347137,-32.837738,41.400299,,,,,,
1478385514.28,-2.716029,1.241782,-0.647865,-3.343729,-4.347193,-8.206996,-0.133391,-0.946361,0.294291,-1.777498,0.036098,0.825475,-9.347137,-32.837738,41.400299,,,,,,
1478385514.30,2.968300,1.335823,-0.161498,-3.747578,-7.106845,-6.484446,0.040144,-0.972521,0.229330,-2.992216,-0.023924,2.177546,-4.259369,-36.214706,39.436279,,,,,,
1478385514.32,2.497826,1.352062,0.237218,-1.509670,-1.245667,-1.864871,0.130243,-0.976173,0.173561,-5.451059,0.197715,3.835015,3.083099,-38.692108,37.042114,,,,,,
1478385514.34,2.576412,1.353220,0.220643,0.855510,4.848720,0.800353,0.115610,-0.976424,0.182295,-4.180688,1.439711,2.627275,8.481049,-40.044815,34.325195,,,,,,
1478385514.36,2.855401,1.334259,0.005854,2.677005,1.550672,2.762483,0.066154,-0.972155,0.224806,-1.757758,1.875445,1.433626,4.129883,-39.442230,36.904846,,,,,,
1478385514.38,-3.003549,1.215655,-0.421275,3.219156,4.960826,8.545493,-0.047848,-0.937598,0.344415,-2.992130,-6.982934,-4.153955,4.129883,-39.442230,36.904846,,,,,,
1478385514.40,-2.773210,1.091251,-0.725109,4.113096,-2.330463,6.413652,-0.166145,-0.887205,0.430422,0.383964,3.957563,3.377973,2.713379,-35.912308,41.830078,,,,,,
1478385514.42,-2.689987,0.974309,-0.807089,4.727764,1.513621,2.058654,-0.245149,-0.827314,0.505424,-1.642775,2.308256,0.419411,-2.985168,-34.784897,44.244751,,,,,,
1478385514.44,-2.615486,0.878050,-0.827284,3.519347,2.566724,4.030688,-0.320712,-0.769495,0.552287,-1.933636,-2.550833,0.584813,-6.427109,-32.232620,46.527649,,,,,,
1478385514.46,-2.541408,0.799730,-0.868409,2.330950,2.801018,2.041999,-0.393606,-0.717168,0.575104,0.253545,0.234242,1.441726,-8.358582,-27.656219,47.919617,,,,,,
1478385514.48,-2.484068,0.751742,-0.870019,1.474022,2.072195,1.596177,-0.446452,-0.682912,0.578197,-0.930700,-2.214686,0.319356,-8.358582,-27.656219,47.919617,,,,,,
1478385514.50,-2.430195,0.719250,-0.893393,0.347803,2.472520,1.603866,-0.491171,-0.658821,0.569830,-1.467859,-3.025093,0.309717,-14.866043,-23.304871,49.266479,,,,,,
1478385514.52,-2.342709,0.699527,-0.926202,-0.429081,3.514537,1.532728,-0.548287,-0.643856,0.533695,0.373696,-2.637440,-0.675617,-17.034241,-21.955353,48.790771,,,,,,
,,,,,,,,,,,,,,,,37.354406,-122.033543,37.783844,3.630000,80.507812,1478385604.00
1478385514.54,-2.254100,0.704206,-0.953440,-1.203207,3.520400,-0.323384,-0.591021,-0.647429,0.481175,1.811572,-1.720414,-1.013523,-19.279709,-21.281342,47.791290,,,,,,
1478385514.56,-2.191292,0.744877,-0.976427,-2.245765,1.339269,-1.244698,-0.598128,-0.677881,0.427457,2.288909,-1.126822,-1.113584,-21.601990,-21.207947,46.192841,,,,,,
1478385514.58,-2.201973,0.766672,-1.030101,-2.025396,-4.582997,2.092103,-0.581461,-0.693742,0.425000,1.986398,-2.701003,0.432162,-21.601990,-21.207947,46.192841,,,,,,
1478385514.60,-2.278640,0.680723,-1.127811,0.785291,-8.455977,6.710471,-0.590427,-0.629355,0.505280,2.126041,0.100287,0.354751,-20.334564,-23.610107,44.037720,,,,,,
1478385514.62,-2.379297,0.555618,-1.193376,3.322541,-4.802773,5.961012,-0.586703,-0.527468,0.614457,0.573748,-0.221464,-0.278168,-15.453323,-21.507950,46.180237,,,,,,
1478385514.64,-2.370425,0.415942,-1.205995,5.396502,3.211369,4.793238,-0.637546,-0.404052,0.655955,-0.291760,-1.775147,-0.304590,-12.441986,-18.356064,48.075897,,,,,,
1478385514.66,-2.230486,0.272180,-1.182143,5.644145,9.192061,4.590025,-0.761094,-0.268832,0.590310,1.248932,-3.371076,-0.218026,-14.215714,-12.205124,49.014679,,,,,,
1478385514.68,-2.060425,0.133721,-1.157267,3.992416,7.541777,5.595477,-0.874629,-0.133323,0.466100,2.444835,-3.294427,-0.771458,-14.215714,-12.205124,49.014679,,,,,,
1478385514.70,-1.966000,-0.003204,-1.147302,3.291197,3.251722,6.057903,-0.922914,0.003204,0.384994,1.985627,-1.740341,-1.061080,-21.306259,-5.156937,47.197662,,,,,,
1478385514.72,-1.943675,-0.127732,-1.130652,2.756599,-0.279751,4.940373,-0.923696,0.127385,0.361330,1.364339,-2.365178,-0.484438,-31.818192,6.536087,40.232422,,,,,,
1478385514.74,-1.977109,-0.208545,-1.120701,1.537026,-2.324566,2.802193,-0.898681,0.207037,0.386662,0.999222,-1.745901,0.170666,-30.444244,11.635422,39.555847,,,,,,
1478385514.76,-2.049200,-0.244743,-1.125727,-0.295438,-4.447082,0.960822,-0.861276,0.242307,0.446644,0.435205,-0.393811,0.485637,-27.430878,14.710739,39.876740,,,,,,
1478385514.78,-2.159810,-0.206654,-1.144498,-2.692173,-5.487130,-2.543155,-0.813797,0.205186,0.543721,0.400101,0.224486,0.424083,-27.430878,14.710739,39.876740,,,,,,
1478385514.80,-2.266861,-0.084625,-1.155370,-4.922802,-4.967162,-5.571377,-0.764626,0.084524,0.638908,0.575874,0.425486,0.457222,-24.731918,15.313232,42.376984,,,,,,
1478385514.82,-2.328700,0.090860,-1.154641,-6.248200,-1.597769,-6.897805,-0.723283,-0.090735,0.684565,0.483781,0.670080,0.426885,-16.978638,6.768738,47.880157,,,,,,
1478385514.84,-2.310833,0.282698,-1.150643,-6.452114,2.261134,-7.349103,-0.709132,-0.278948,0.647549,-0.104100,0.610704,0.287769,-16.792130,-1.329895,49.256317,,,,,,
1478385514.86,-2.242968,0.488046,-1.134209,-5.806225,4.339834,-8.980153,-0.691118,-0.468901,0.549989,0.236895,0.499022,0.048140,-18.850769,-8.980408,48.733673,,,,,,
1478385514.88,-2.190484,0.710943,-1.092366,-5.074104,2.914531,-10.428375,-0.616851,-0.652549,0.440085,0.694869,0.500586,-0.376242,-18.850769,-8.980408,48.733673,,,,,,
1478385514.90,-2.229653,0.937178,-1.019035,-4.442463,-0.379226,-10.502579,-0.468141,-0.805891,0.362470,0.717180,0.732359,-0.537946,-20.157532,-17.008316,45.819672,,,,,,
1478385514.92,-2.395621,1.140546,-0.878728,-4.128210,-3.519555,-9.515969,-0.283079,-0.908861,0.306329,-0.088808,0.113894,-0.419641,-18.766693,-25.410751,43.383789,,,,,,
1478385514.94,-2.788763,1.313428,-0.580847,-5.094746,-6.448448,-8.295954,-0.087956,-0.967063,0.238857,-1.468349,-0.222268,0.423237,-5.307785,-35.914871,39.274872,,,,,,
1478385514.96,2.567781,1.417585,0.233889,-5.678312,-5.846894,-6.889271,0.082844,-0.988286,0.128170,-2.507771,-1.105616,1.834339,2.931488,-39.443298,35.842834,,,,,,
1478385514.98,1.787252,1.386512,0.967877,-2.926025,-0.657400,-3.094403,0.178967,-0.983068,0.039355,-4.283612,-1.122539,3.284696,2.931488,-39.443298,35.842834,,,,,,
1478385515.00,1.733468,1.367596,1.052720,0.553364,1.735116,0.019861,0.199140,-0.979426,0.032683,-3.565183,1.012858,3.272721,9.903076,-41.923477,30.669983,,,,,,
1478385515.02,1.990967,1.387128,0.809189,2.684291,0.794546,2.440958,0.166752,-0.983180,0.074501,-2.966724,1.394466,1.977944,11.403046,-42.450027,29.111694,,,,,,
1478385515.04,2.532250,1.401794,0.287228,3.201754,1.867611,3.848717,0.096265,-0.985753,0.137927,-3.148481,1.086339,1.055188,6.749420,-41.845810,33.338257,,,,,,
1478385515.06,-3.136258,1.284868,-0.263688,5.659479,6.670619,6.469950,-0.001505,-0.959400,0.282044,4.518717,-2.584362,6.844283,7.669800,-36.142288,36.855347,,,,,,
1478385515.08,-2.803346,1.171964,-0.746906,5.358665,-5.802523,7.567642,-0.128865,-0.921515,0.366338,-7.977534,0.936270,-5.799184,7.669800,-36.142288,36.855347,,,,,,
1478385515.10,-2.668538,1.038931,-0.835067,4.968735,3.330557,2.579050,-0.231058,-0.861863,0.451448,2.003854,6.410416,4.060088,-1.494781,-38.088394,40.744537,,,,,,
1478385515.12,-2.603594,0.947286,-0.858840,2.835572,-0.099360,4.027506,-0.299196,-0.811834,0.501406,-1.727172,-1.144480,0.547163,-5.688049,-35.384781,44.369507,,,,,,
1478385515.14,-2.548924,0.877805,-0.912620,1.836500,1.357203,1.658945,-0.356842,-0.769338,0.529889,-0.868729,-1.648478,1.523181,-6.718201,-30.282700,46.443909,,,,,,
1478385515.16,-2.486599,0.836256,-0.929127,1.113042,2.860782,1.975939,-0.408283,-0.742139,0.531540,-0.402004,-1.144534,1.622086,-11.204285,-26.831635,47.513702,,,,,,
1478385515.18,-2.430689,0.810716,-0.946851,0.366577,2.004969,1.049170,-0.449572,-0.724781,0.522090,-0.529173,-3.201351,-0.410564,-11.204285,-26.831635,47.513702,,,,,,
1478385515.20,-2.359139,0.789953,-0.977793,-0.168679,2.696660,1.501015,-0.496250,-0.710320,0.499181,-0.258419,-2.550407,-0.915669,-14.350281,-26.006805,47.329773,,,,,,
1478385515.22,-2.294712,0.791764,-0.993283,-0.667983,2.379117,-0.357645,-0.526394,-0.711594,0.465342,1.702541,-1.497329,-1.391001,-16.597778,-25.557129,47.005920,,,,,,
1478385515.24,-2.265437,0.815753,-1.011045,-1.416810,-0.560650,-0.293313,-0.526520,-0.728242,0.438680,2.339066,-0.823699,-1.238500,-19.145279,-25.257904,46.229553,,,,,,
1478385515.26,-2.286503,0.792646,-1.075259,-0.148440,-4.788517,4.398321,-0.529722,-0.712213,0.460593,1.651228,-2.188681,-0.226325,-16.065384,-24.734604,44.533783,,,,,,
1478385515.28,-2.344852,0.685698,-1.157633,2.192501,-5.458336,6.104684,-0.553457,-0.633213,0.541042,1.763250,-0.345272,0.202214,-16.065384,-24.734604,44.533783,,,,,,
1478385515.30,-2.366430,0.557808,-1.197656,4.065683,-0.010981,5.412442,-0.593750,-0.529327,0.606031,0.784378,-0.299408,-0.536802,-13.734436,-22.857925,46.201477,,,,,,
1478385515.32,-2.285692,0.416867,-1.205310,4.809714,6.039244,5.336358,-0.690491,-0.404897,0.599400,0.057175,-1.916834,-0.602330,-13.644440,-19.106674,47.466125,,,,,,
