timestamp(unix),attitude_roll(radians),attitude_pitch(radians),attitude_yaw(radians),rotation_rate_x(radians/s),rotation_rate_y(radians/s),rotation_rate_z(radians/s),gravity_x(G),gravity_y(G),gravity_z(G),user_acc_x(G),user_acc_y(G),user_acc_z(G),magnetic_field_x(microteslas),magnetic_field_y(microteslas),magnetic_field_z(microteslas),latitude(degree),longitude(degree),altitude(meter),speed(m/s),course(degree),timestamp(unix)
1478385954.90,2.814775,1.398462,-2.490608,0.000189,0.030133,-0.020011,0.055051,-0.985187,0.162405,0.009219,0.004490,0.007623,3.447266,-1.774261,-16.801575,,,,,,
,,,,,,,,,,,,,,,,37.354341,-122.033455,37.936279,0.000000,170.156250,1478386172.67
,,,,,,,,,,,,,,,,37.354341,-122.033455,37.936279,0.000000,170.156250,1478386172.00
1478385954.92,2.812515,1.398413,-2.487911,-0.005049,0.006884,-0.020089,0.055434,-0.985179,0.162327,0.013002,0.008311,-0.009907,3.073303,-1.474030,-16.581238,,,,,,
1478385954.94,2.809080,1.398502,-2.484759,-0.002807,-0.023966,-0.012691,0.055962,-0.985194,0.162053,0.009605,0.008479,-0.011097,3.598740,-1.474335,-16.875977,,,,,,
1478385954.96,2.807194,1.398489,-2.483351,-0.003868,-0.025024,-0.011628,0.056272,-0.985192,0.161959,-0.003492,0.009362,-0.008013,3.822159,-1.698944,-16.498047,,,,,,
1478385954.98,2.805383,1.398435,-2.481831,-0.001796,-0.007968,-0.013714,0.056583,-0.985183,0.161906,-0.002689,0.016692,-0.004344,3.822159,-1.698944,-16.498047,,,,,,
1478385955.00,2.804591,1.398419,-2.480826,-0.004004,0.015489,-0.014721,0.056716,-0.985180,0.161877,-0.008041,0.011120,0.001072,3.447388,-1.774338,-16.876587,,,,,,
1478385955.02,2.803014,1.398378,-2.478733,-0.002988,0.027142,-0.022166,0.056985,-0.985173,0.161825,0.002265,0.011265,-0.003500,3.146942,-1.774033,-16.579590,,,,,,
1478385955.04,2.800495,1.398236,-2.475764,-0.000812,0.015475,-0.016853,0.057439,-0.985148,0.161813,0.006236,0.016063,-0.009042,3.522827,-1.699402,-16.951050,,,,,,
1478385955.06,2.795296,1.398218,-2.470458,0.005618,0.005053,-0.012584,0.058286,-0.985145,0.161528,0.014774,0.012291,-0.007384,3.972046,-1.774109,-16.646301,,,,,,
1478385955.08,2.791396,1.397976,-2.466392,0.008785,0.015787,-0.008278,0.058997,-0.985104,0.161525,0.009027,0.014538,-0.005137,3.972046,-1.774109,-16.646301,,,,,,
1478385955.10,2.789848,1.397844,-2.464333,0.005544,0.029648,-0.008246,0.059292,-0.985081,0.161555,0.001881,0.013249,-0.006144,3.296051,-1.923874,-16.427673,,,,,,
1478385955.12,2.790417,1.397596,-2.464159,0.001238,0.044597,-0.006075,0.059284,-0.985038,0.161818,0.000317,0.008415,0.002641,2.698410,-1.549332,-16.884705,,,,,,
1478385955.14,2.791995,1.397364,-2.464571,0.000108,0.064869,-0.006021,0.059107,-0.984998,0.162126,-0.007013,0.006620,0.005675,3.448273,-1.624481,-17.026978,,,,,,
1478385955.16,2.793908,1.397417,-2.465095,0.001179,0.063832,-0.003884,0.058779,-0.985007,0.162190,-0.002764,0.003410,-0.003330,3.598389,-1.549332,-16.875732,,,,,,
1478385955.18,2.791334,1.397691,-2.461805,0.006641,0.017875,-0.011481,0.059103,-0.985055,0.161784,0.007562,0.009057,-0.017390,3.598389,-1.549332,-16.875732,,,,,,
1478385955.20,2.787891,1.397814,-2.458274,0.016255,0.005003,-0.020048,0.059618,-0.985076,0.161467,-0.001543,0.014769,-0.017408,3.071503,-1.848953,-16.505066,,,,,,
1478385955.22,2.788503,1.397613,-2.458303,0.022493,0.043383,-0.032714,0.059587,-0.985041,0.161688,-0.014482,0.019587,-0.006994,3.822723,-1.699326,-16.873047,,,,,,
1478385955.24,2.787438,1.397134,-2.455956,0.023459,0.071069,-0.037977,0.059923,-0.984959,0.162067,-0.002825,0.010136,-0.004826,3.523621,-1.474258,-16.801697,,,,,,
1478385955.26,2.784382,1.396402,-2.451015,0.019084,0.104082,-0.042169,0.060671,-0.984832,0.162559,0.006666,0.007750,-0.002342,2.920471,-2.073959,-16.505920,,,,,,
1478385955.28,2.783038,1.395644,-2.447096,0.015812,0.131918,-0.033551,0.061151,-0.984700,0.163176,0.002082,0.010793,0.001939,2.920471,-2.073959,-16.505920,,,,,,
,,,,,,,,,,,,,,,,37.354341,-122.033455,37.942596,0.000000,170.156250,1478386173.00
1478385955.30,2.782136,1.394995,-2.443464,0.010525,0.128927,-0.014339,0.061523,-0.984587,0.163719,0.012497,0.008589,0.004127,3.373962,-1.399261,-16.803406,,,,,,
1478385955.32,2.778445,1.393872,-2.437696,0.046852,0.098166,-0.010092,0.062519,-0.984390,0.164525,0.035930,0.003234,0.016567,3.597824,-1.624176,-16.725464,,,,,,
1478385955.34,2.784642,1.394049,-2.441246,0.007108,0.182993,-0.043045,0.061438,-0.984421,0.164746,-0.038733,0.005127,-0.030209,3.822723,-1.774551,-17.097778,,,,,,
1478385955.36,2.780367,1.392406,-2.431313,0.078958,0.324170,-0.128005,0.062713,-0.984131,0.165994,-0.078231,0.097427,-0.070169,3.221390,-1.848877,-16.428650,,,,,,
1478385955.38,2.775819,1.388737,-2.419274,0.165119,0.323646,-0.202592,0.064758,-0.983473,0.169078,0.039657,0.043577,-0.058330,3.221390,-1.848877,-16.428650,,,,,,
1478385955.40,2.754588,1.383258,-2.395106,0.265006,0.025137,-0.299401,0.070366,-0.982466,0.172652,0.041069,0.034850,-0.065230,3.971924,-1.774033,-16.571350,,,,,,
1478385955.42,2.729078,1.374110,-2.371119,0.368584,-0.127963,-0.463110,0.078347,-0.980720,0.179028,-0.156686,0.017508,-0.103802,4.197266,-1.774246,-16.794067,,,,,,
1478385955.44,2.690824,1.361548,-2.332786,0.431578,0.043355,-0.701856,0.090497,-0.978187,0.186976,-0.260938,-0.000191,-0.074778,4.272385,-1.623871,-16.418823,,,,,,
1478385955.46,2.645944,1.345642,-2.282572,0.475168,0.285032,-0.940442,0.106182,-0.974760,0.196390,-0.290248,0.014097,-0.017451,3.595245,-1.998581,-16.124451,,,,,,
1478385955.48,2.590785,1.325713,-2.219933,0.524896,0.243096,-1.250313,0.126991,-0.970117,0.206752,-0.304527,-0.040885,0.039067,3.595245,-1.998581,-16.124451,,,,,,
1478385955.50,2.525467,1.300299,-2.153638,0.661649,-0.310710,-1.469557,0.154415,-0.963638,0.218077,-0.219723,-0.157044,-0.102492,4.644333,-2.223648,-16.188293,,,,,,
1478385955.52,2.459571,1.267772,-2.097819,0.916116,-0.722694,-1.734148,0.188106,-0.954438,0.231654,-0.183574,-0.128676,-0.286784,4.717972,-2.448410,-15.961853,,,,,,
1478385955.54,2.402771,1.227820,-2.052671,1.111770,-0.677442,-1.860756,0.226465,-0.941758,0.248608,-0.130823,-0.189346,-0.242199,3.962921,-3.347748,-15.291687,,,,,,
1478385955.56,2.361883,1.186592,-2.024545,1.172098,-0.805401,-1.693261,0.263527,-0.927097,0.266542,-0.046516,-0.511502,-0.111742,3.360229,-3.947754,-15.295959,,,,,,
1478385955.58,2.327422,1.149348,-2.016763,1.259440,-1.633560,-1.370587,0.297467,-0.912497,0.280824,-0.071561,-0.898004,-0.118180,3.360229,-3.947754,-15.295959,,,,,,
1478385955.60,2.294519,1.106443,-2.021089,1.682609,-1.820403,-1.600075,0.335591,-0.894111,0.296553,-0.117558,-0.610344,0.193376,4.108185,-4.322510,-15.062378,,,,,,
1478385955.62,2.264889,1.057376,-2.027804,1.666120,-1.811403,-1.913127,0.377522,-0.871070,0.314189,0.087718,-0.741952,0.228627,4.030487,-4.847290,-14.836487,,,,,,
1478385955.64,2.232287,1.004690,-2.023636,1.529268,-1.168377,-2.264176,0.423221,-0.843996,0.329477,0.058971,-0.940153,0.060340,3.200897,-5.596481,-14.017517,,,,,,
1478385955.66,2.212026,0.948107,-2.012471,1.404306,-0.190864,-2.489278,0.467371,-0.812313,0.348872,0.008184,-0.615620,0.016408,4.175446,-5.671387,-13.932617,,,,,,
1478385955.68,2.204241,0.893297,-1.998551,1.243026,0.293665,-2.433736,0.505235,-0.779142,0.371046,0.022582,-0.706728,-0.080076,4.175446,-5.671387,-13.932617,,,,,,
1478385955.70,2.198723,0.842205,-1.985701,1.108714,0.101714,-2.202650,0.538812,-0.746113,0.391148,0.147147,-0.518886,-0.172626,4.547287,-6.120636,-13.177551,,,,,,
1478385955.72,2.189476,0.798313,-1.973746,0.851846,-0.054969,-1.928944,0.568554,-0.716179,0.404764,0.080952,-0.390754,-0.239084,5.215866,-7.019043,-11.593201,,,,,,
1478385955.74,2.180372,0.762113,-1.960809,0.550479,0.053112,-1.631081,0.593092,-0.690451,0.414149,-0.050657,-0.196054,-0.249399,5.961105,-7.768143,-10.683411,,,,,,
1478385955.76,2.175909,0.734286,-1.946855,0.273912,0.404774,-1.317547,0.610504,-0.670057,0.422266,-0.216125,-0.041354,-0.256205,7.383286,-8.292831,-10.367615,,,,,,
1478385955.78,2.179588,0.715161,-1.932913,0.018708,0.772312,-0.932348,0.619346,-0.655739,0.431760,-0.287086,0.045250,-0.291654,7.383286,-8.292831,-10.367615,,,,,,
1478385955.80,2.188036,0.705536,-1.920588,-0.172482,0.809992,-0.488113,0.620795,-0.648442,0.440609,-0.304237,0.121876,-0.347043,7.755234,-8.817368,-9.912354,,,,,,
1478385955.82,2.196136,0.706520,-1.912452,-0.345456,0.543994,0.077118,0.616688,-0.649191,0.445249,-0.340199,0.240881,-0.406217,8.123154,-9.941010,-8.555359,,,,,,
1478385955.84,2.200478,0.719185,-1.909444,-0.541453,0.161873,0.665495,0.608055,-0.658772,0.443045,-0.371528,0.341191,-0.408011,8.870804,-10.390778,-8.321472,,,,,,
1478385955.86,2.199894,0.743427,-1.911377,-0.722488,-0.246085,1.230322,0.595223,-0.676815,0.433164,-0.407708,0.438152,-0.384061,8.868179,-10.915634,-8.169983,,,,,,
1478385955.88,2.195653,0.777451,-1.918063,-0.850856,-0.523941,1.682345,0.578037,-0.701465,0.416918,-0.402728,0.513141,-0.359393,8.868179,-10.915634,-8.169983,,,,,,
1478385955.90,2.191339,0.818747,-1.928703,-0.918121,-0.653753,2.002398,0.555775,-0.730291,0.397228,-0.343433,0.559957,-0.230510,8.790756,-11.515778,-8.318909,,,,,,
1478385955.92,2.190540,0.863034,-1.943616,-0.849194,-0.502740,2.116186,0.529228,-0.759819,0.377615,-0.305030,0.627693,-0.126761,7.662369,-12.341003,-8.552734,,,,,,
1478385955.94,2.200105,0.905012,-1.963050,-0.632193,-0.121001,2.024661,0.499351,-0.786433,0.363556,-0.178824,0.733363,-0.029770,7.133163,-13.391388,-8.929871,,,,,,
1478385955.96,2.221242,0.940150,-1.988938,-0.284911,0.087512,1.773691,0.469265,-0.807646,0.357068,0.007206,0.817580,0.102206,6.082413,-13.616547,-9.089722,,,,,,
1478385955.98,2.249039,0.964988,-2.021625,0.140949,0.000653,1.426955,0.443399,-0.822042,0.357273,0.227011,0.936758,0.253826,6.082413,-13.616547,-9.089722,,,,,,
1478385956.00,2.276465,0.975880,-2.057247,0.591051,-0.138552,0.800192,0.426594,-0.828195,0.363469,0.449184,1.016962,0.393474,6.004929,-14.141464,-9.013916,,,,,,
1478385956.02,2.298604,0.968972,-2.087844,1.051142,-0.145074,0.022094,0.422705,-0.824304,0.376621,0.486596,1.173364,0.421857,5.179611,-14.141251,-8.797180,,,,,,
1478385956.04,2.335583,0.935115,-2.123574,2.312584,0.574702,-1.128696,0.428391,-0.804667,0.411086,0.934051,1.799967,1.799073,5.553146,-14.290710,-8.268005,,,,,,
1478385956.06,2.324745,0.902748,-2.122069,0.843761,-1.274521,-0.753843,0.451578,-0.785032,0.424031,0.111990,-2.947359,-1.892278,5.777023,-14.440414,-7.965271,,,,,,
1478385956.08,2.330801,0.874197,-2.118672,0.753058,1.742550,-1.409191,0.465062,-0.767029,0.442023,0.208766,-0.251892,1.099847,5.777023,-14.440414,-7.965271,,,,,,
1478385956.10,2.330653,0.845734,-2.116464,0.900393,-0.408384,-0.890256,0.480764,-0.748458,0.456812,-0.163762,-0.006257,-0.180612,5.325577,-14.589890,-7.444336,,,,,,
1478385956.12,2.324118,0.819562,-2.115050,0.888682,-0.452161,-0.978008,0.497860,-0.730847,0.466903,0.367680,0.689633,-0.051147,6.374191,-14.814667,-7.208130,,,,,,
1478385956.14,2.321217,0.797613,-2.117219,0.771290,0.090062,-0.662604,0.510824,-0.715691,0.476283,0.031260,0.173439,0.160497,6.600204,-14.589661,-7.206543,,,,,,
1478385956.16,2.326987,0.778980,-2.121074,0.734265,0.082146,-0.509906,0.517679,-0.702554,0.488289,0.071035,-0.327018,0.177299,7.200638,-14.289047,-6.601501,,,,,,
1478385956.18,2.327125,0.761690,-2.127744,0.777563,-0.434668,-0.462105,0.526369,-0.690146,0.496623,0.267332,-0.211801,-0.034022,7.200638,-14.289047,-6.601501,,,,,,
1478385956.20,2.319696,0.744198,-2.134886,0.795291,-0.640432,-0.451956,0.538804,-0.677382,0.500842,0.062300,-0.043962,-0.021213,6.523544,-14.663757,-6.307129,,,,,,
1478385956.22,2.313375,0.727389,-2.141058,0.692246,-0.409478,-0.470732,0.550271,-0.664922,0.505055,-0.068963,0.014959,0.122508,7.349960,-14.363831,-6.374756,,,,,,
1478385956.24,2.307942,0.713039,-2.144185,0.490917,-0.390475,-0.425087,0.560014,-0.654136,0.508420,0.016234,0.045844,0.180286,7.574509,-14.363525,-6.072510,,,,,,
1478385956.26,2.299808,0.703235,-2.144311,0.227000,-0.417780,-0.305958,0.568887,-0.646689,0.508096,0.041983,0.087943,0.227744,7.048752,-14.363007,-5.552856,,,,,,
1478385956.28,2.291452,0.699716,-2.142126,-0.047894,-0.314811,-0.104106,0.574820,-0.644000,0.504823,0.127634,0.143436,0.235427,7.048752,-14.363007,-5.552856,,,,,,
,,,,,,,,,,,,,,,,37.354341,-122.033455,36.964020,0.000000,75.585938,1478386174.00
1478385956.30,2.283502,0.703874,-2.139522,-0.305132,-0.331036,0.225544,0.576783,-0.647176,0.498482,0.229186,0.033605,0.245811,7.350296,-14.138382,-5.925476,,,,,,
1478385956.32,2.275797,0.717071,-2.137175,-0.625523,-0.250285,0.563898,0.574052,-0.657180,0.488445,0.383498,-0.205583,0.234257,8.175797,-13.988220,-5.767639,,,,,,
1478385956.34,2.272498,0.740177,-2.133121,-1.011667,0.086805,0.942375,0.563910,-0.674419,0.476618,0.548288,-0.371434,0.341680,7.725754,-14.138672,-6.221680,,,,,,
1478385956.36,2.273160,0.774898,-2.127572,-1.448620,0.325566,1.323699,0.545385,-0.699643,0.461579,0.742411,-0.807040,0.416030,7.502548,-13.989426,-6.974365,,,,,,
1478385956.38,2.274064,0.817317,-2.116158,-1.759153,0.496339,1.334313,0.521847,-0.729313,0.442469,0.594013,-1.578808,0.268728,7.502548,-13.989426,-6.974365,,,,,,
1478385956.40,2.267903,0.857645,-2.102593,-1.531483,-0.120944,1.221895,0.501593,-0.756304,0.420011,-0.093161,-2.014936,-0.404401,7.804245,-13.689651,-7.197205,,,,,,
1478385956.42,2.251687,0.895518,-2.100665,-1.124944,-1.118718,1.627995,0.485722,-0.780533,0.393501,-0.770482,-1.837662,-0.492042,7.053482,-13.990036,-7.578857,,,,,,
1478385956.44,2.225437,0.933697,-2.110517,-0.885988,-1.940013,1.495803,0.471888,-0.803825,0.362199,-1.148691,-1.489266,-0.232896,6.903458,-14.290924,-8.479492,,,,,,
1478385956.46,2.179331,0.942666,-2.102817,-0.011069,-1.457675,-0.739692,0.482145,-0.809128,0.335930,-1.735242,-1.022949,-0.231315,6.076584,-14.816238,-8.786133,,,,,,
1478385956.48,2.154217,0.886907,-2.078982,1.574912,-0.224091,-3.821280,0.527300,-0.775121,0.348054,-1.694643,0.793355,-0.511247,6.076584,-14.816238,-8.786133,,,,,,
1478385956.50,2.176890,0.779397,-2.067206,3.188607,2.513425,-5.095186,0.584634,-0.702850,0.405222,-1.785150,-0.214249,0.390845,7.348160,-15.716675,-9.220764,,,,,,
1478385956.52,2.228505,0.656022,-2.062046,3.798664,2.676122,-4.976150,0.627121,-0.609969,0.484413,-0.857193,-2.012055,-0.481148,9.895462,-15.940521,-8.069580,,,,,,
1478385956.54,2.250526,0.535645,-2.066771,3.774183,-0.276765,-4.271678,0.668812,-0.510396,0.540543,0.399914,-2.086223,0.042358,12.518051,-15.863708,-6.243591,,,,,,
1478385956.56,2.205847,0.433063,-2.072408,3.092948,-3.482005,-3.762428,0.730724,-0.419653,0.538455,0.425740,-2.259699,-0.175265,13.943558,-15.262268,-4.806152,,,,,,
1478385956.58,2.121826,0.346357,-2.074828,2.132589,-4.431471,-3.352162,0.801391,-0.339474,0.492473,0.336457,-1.757328,-0.306102,13.943558,-15.262268,-4.806152,,,,,,
1478385956.60,2.044168,0.276143,-2.071098,1.234982,-3.095998,-3.028455,0.856316,-0.272647,0.438618,-0.000161,-1.603238,-0.047780,16.421829,-14.512161,-4.708618,,,,,,
1478385956.62,2.023745,0.223776,-2.060562,0.414804,0.554089,-2.188608,0.876741,-0.221913,0.426708,-0.564592,-1.033839,0.420125,18.984055,-12.113113,-5.665222,,,,,,
1478385956.64,2.075226,0.205719,-2.049110,-0.436438,3.778266,-0.279429,0.856991,-0.204271,0.473118,-0.714565,-0.322234,0.332119,18.838547,-10.837296,-4.845459,,,,,,
1478385956.66,2.164812,0.234458,-2.041872,-1.463165,4.692286,1.784423,0.806027,-0.232316,0.544380,-0.383892,0.166459,0.198539,20.339767,-10.161087,-3.632507,,,,,,
1478385956.68,2.237832,0.305397,-2.041744,-2.493916,2.706077,3.417194,0.749305,-0.300672,0.590033,0.184793,0.605588,-0.097372,20.339767,-10.161087,-3.632507,,,,,,
1478385956.70,2.254308,0.407222,-2.048459,-3.202056,-0.423959,4.601848,0.711954,-0.396060,0.579877,0.159918,0.822909,-0.429654,19.735855,-10.384140,-1.687866,,,,,,
1478385956.72,2.231113,0.532925,-2.062750,-3.488670,-1.863352,5.683975,0.680273,-0.508055,0.528308,-0.409551,0.794096,-0.305881,17.548965,-12.783401,-0.952515,,,,,,
1478385956.74,2.208244,0.672421,-2.084840,-3.474693,-1.584183,6.358942,0.628683,-0.622881,0.465592,-0.603949,1.159411,-0.057450,15.742996,-14.509628,-2.165466,,,,,,
1478385956.76,2.213834,0.818942,-2.116750,-3.314906,-0.177980,6.556472,0.546585,-0.730424,0.409543,-0.520569,1.692643,-0.340696,14.761154,-16.611343,-3.893921,,,,,,
1478385956.78,2.270139,0.951510,-2.155551,-3.041860,2.240908,5.647964,0.444202,-0.814293,0.373647,-0.478778,1.852669,-0.209829,14.761154,-16.611343,-3.893921,,,,,,
1478385956.80,2.389731,1.067844,-2.217935,-2.651791,3.615752,5.203687,0.329216,-0.876163,0.352072,0.248543,2.278629,0.539956,12.053055,-18.637054,-4.589905,,,,,,
1478385956.82,2.543059,1.164428,-2.321542,-2.131551,2.486113,4.452520,0.222711,-0.918562,0.326563,1.480566,3.090193,0.439780,10.246384,-20.362732,-5.277832,,,,,,
1478385956.84,2.681814,1.229523,-2.437921,-1.501866,1.033875,2.836304,0.148517,-0.942329,0.299930,2.136013,2.487267,0.798031,5.509903,-23.213669,-6.216614,,,,,,
1478385956.86,2.770800,1.261713,-2.515153,-0.661095,0.827336,1.186486,0.110223,-0.952613,0.283513,2.347007,2.304664,1.037364,4.908585,-23.588898,-6.446472,,,,,,
1478385956.88,2.810850,1.271237,-2.539135,-0.176516,0.756207,0.262948,0.095832,-0.955467,0.279105,2.024194,2.607673,0.562448,4.908585,-23.588898,-6.446472,,,,,,
1478385956.90,2.851462,1.216076,-2.583276,7.418943,-2.118386,-0.929447,0.099363,-0.937744,0.332812,-0.924329,-0.403367,2.401792,4.604294,-24.639206,-6.746399,,,,,,
1478385956.92,2.637542,1.135325,-2.405184,2.136836,0.879637,-5.306647,0.203738,-0.906671,0.369375,2.822812,-5.165717,-0.261313,6.560593,-23.138885,-6.431274,,,,,,
1478385956.94,2.591930,1.092065,-2.319826,0.812606,0.801220,-1.367757,0.240645,-0.887580,0.392799,0.225175,0.278816,-0.022667,10.903336,-23.811066,-3.610901,,,,,,
1478385956.96,2.583792,1.057216,-2.305463,1.160558,-0.129722,-1.511812,0.260055,-0.870991,0.416829,0.334854,1.443959,0.447017,11.951492,-23.885086,-2.625183,,,,,,
1478385956.98,2.558573,1.018262,-2.282546,1.100625,-0.010651,-1.441073,0.288953,-0.851197,0.438144,0.399402,0.246674,0.362515,11.951492,-23.885086,-2.625183,,,,,,
1478385957.00,2.546687,0.991205,-2.265773,0.703953,0.050163,-0.872127,0.306938,-0.836686,0.453592,0.723626,-0.739318,0.310584,13.151047,-23.659088,-1.638916,,,,,,
1478385957.02,2.533003,0.982610,-2.258918,-0.004968,-0.744796,-0.112694,0.317215,-0.831949,0.455232,0.780990,-0.554373,0.430282,13.374466,-23.733276,-0.811401,,,,,,
1478385957.04,2.514358,0.993099,-2.258791,-0.696062,-0.851720,0.531137,0.320508,-0.837722,0.442149,0.630374,-0.128785,0.836233,14.276382,-23.433624,-1.178284,,,,,,
1478385957.06,2.505559,1.020345,-2.257381,-1.354426,-0.020790,0.885925,0.310710,-0.852288,0.420790,0.440679,-0.660239,0.733004,14.351730,-23.584305,-1.852112,,,,,,
1478385957.08,2.510819,1.053907,-2.256967,-1.252987,0.303617,1.033368,0.291451,-0.869361,0.399084,0.363654,-2.062066,-0.423697,14.351730,-23.584305,-1.852112,,,,,,
1478385957.10,2.513348,1.085077,-2.272652,-0.762536,-1.304989,1.375965,0.274376,-0.884339,0.377706,-0.352562,-2.704467,-1.114675,12.551498,-23.734634,-2.169678,,,,,,
1478385957.12,2.500454,1.107391,-2.310574,-0.198274,-2.951127,1.144844,0.267352,-0.894536,0.358230,-1.182559,-1.907070,-0.533767,11.804062,-23.736359,-3.902100,,,,,,
1478385957.14,2.436349,1.106870,-2.322556,0.318863,-3.903291,-0.558872,0.290054,-0.894303,0.340722,-1.530715,-0.914016,-0.554269,11.432022,-23.362183,-4.731995,,,,,,
1478385957.16,2.349612,1.055519,-2.271391,1.292893,-1.024800,-3.943637,0.350732,-0.870156,0.346144,-1.440637,0.421044,0.008455,10.458054,-23.362869,-5.416748,,,,,,
1478385957.18,2.292686,0.941924,-2.194340,3.153893,1.192708,-6.214313,0.441503,-0.808691,0.388707,-1.425955,0.722265,0.096919,10.458054,-23.362869,-5.416748,,,,,,
1478385957.20,2.275931,0.805031,-2.145999,3.322043,0.983795,-6.068221,0.527804,-0.720852,0.449216,-0.883959,-0.926594,-0.610517,12.259048,-22.836960,-4.500244,,,,,,
1478385957.22,2.271773,0.668585,-2.130510,4.228937,-0.695260,-5.232550,0.599677,-0.619877,0.506103,-0.212577,-2.140347,-0.302383,15.411453,-21.785416,-2.971863,,,,,,
1478385957.24,2.230926,0.542597,-2.133206,3.701989,-2.821112,-4.636725,0.676458,-0.516362,0.525143,0.299021,-1.801967,0.062854,18.564957,-20.358459,-0.994690,,,,,,
1478385957.26,2.154715,0.435595,-2.126787,2.570596,-4.022522,-4.449682,0.756400,-0.421950,0.499817,0.310876,-2.127855,-0.184128,22.100906,-17.356766,0.681763,,,,,,
1478385957.28,2.078310,0.343183,-2.123652,1.895635,-3.434208,-3.600808,0.822994,-0.336486,0.457666,0.172749,-2.240082,-0.328012,22.100906,-17.356766,0.681763,,,,,,
,,,,,,,,,,,,,,,,37.354295,-122.033473,36.153870,0.000000,194.765625,1478386175.00
1478385957.30,2.032067,0.284473,-2.118758,0.801578,-1.481132,-2.255400,0.859498,-0.280652,0.427198,-0.518357,-1.539951,0.376268,23.832870,-15.932129,0.319763,,,,,,
1478385957.32,2.022891,0.252587,-2.104062,-0.451123,0.502879,-1.486063,0.870991,-0.249910,0.422989,-1.042790,-1.033446,0.499451,24.813065,-15.032883,-0.423157,,,,,,
1478385957.34,2.054961,0.249579,-2.072499,-1.798182,2.897660,-0.246722,0.857642,-0.246996,0.451047,-1.135870,-0.415098,0.526629,24.741287,-14.358032,-0.575928,,,,,,
1478385957.36,2.121956,0.296367,-2.041132,-2.841555,3.918809,2.303527,0.814777,-0.292048,0.500845,-0.822803,0.256372,0.172693,23.841751,-14.132660,-0.210571,,,,,,
1478385957.38,2.172490,0.394968,-2.032525,-3.064739,1.621701,4.724275,0.760908,-0.384778,0.522460,-0.479368,0.922605,-0.399382,23.841751,-14.132660,-0.210571,,,,,,
1478385957.40,2.184097,0.517082,-2.044050,-3.168674,-0.151162,5.437197,0.710844,-0.494346,0.500323,-0.128874,0.986915,-0.345004,19.184525,-15.632339,0.122375,,,,,,
1478385957.42,2.184551,0.649816,-2.055814,-3.555516,-0.201134,5.929998,0.650883,-0.605040,0.458562,-0.476368,0.700056,-0.208333,16.256546,-16.608261,-0.803955,,,,,,
1478385957.44,2.205182,0.793965,-2.070468,-3.860616,1.100004,6.320884,0.564630,-0.713138,0.415484,-0.635415,1.259342,0.102567,13.930191,-17.284409,-1.950195,,,,,,
1478385957.46,2.267078,0.939757,-2.101508,-3.567341,2.318841,6.335431,0.452655,-0.807415,0.378397,-0.377765,1.702633,-0.180598,10.478897,-17.960556,-3.107666,,,,,,
1478385957.48,2.367168,1.077702,-2.164300,-3.297197,2.042449,6.160988,0.331019,-0.880872,0.338364,0.071814,1.909895,0.423705,10.478897,-17.960556,-3.107666,,,,,,
1478385957.50,2.528489,1.200627,-2.310709,-2.333953,1.046628,6.289203,0.208167,-0.932266,0.295882,0.906838,2.743744,0.829057,6.058334,-17.587402,-4.953003,,,,,,
1478385957.52,2.761450,1.279849,-2.530230,-1.647868,1.520520,3.852492,0.106440,-0.957972,0.266382,2.436788,3.098826,0.943198,3.284271,-17.588043,-5.580811,,,,,,
1478385957.54,2.922278,1.317108,-2.657709,-0.920155,2.043401,1.573047,0.054602,-0.967993,0.244964,2.432901,2.327246,1.278229,2.235886,-17.363419,-5.966980,,,,,,
1478385957.56,3.034487,1.331340,-2.731251,-0.355435,1.879296,0.613066,0.025354,-0.971467,0.235816,2.247732,2.447648,1.149866,1.187805,-17.063812,-6.353271,,,,,,
1478385957.58,2.995846,1.299332,-2.683462,4.473793,-0.844118,-2.155375,0.038943,-0.963379,0.265299,0.279554,0.466828,0.813878,1.187805,-17.063812,-6.353271,,,,,,
1478385957.60,2.682963,1.218985,-2.373754,-1.256233,0.581123,-6.024837,0.152561,-0.938750,0.308988,1.860516,-6.126252,-1.359326,2.092850,-16.164474,-7.021912,,,,,,
1478385957.62,2.633757,1.153296,-2.264828,1.812694,1.671704,-1.717167,0.197178,-0.914105,0.354305,0.742473,-1.339557,-0.023616,6.138748,-16.387421,-4.955811,,,,,,
1478385957.64,2.681560,1.118730,-2.300805,2.078573,0.892634,0.513086,0.193940,-0.899546,0.391412,0.147597,1.252650,-0.062128,6.812088,-16.160599,-3.149719,,,,,,
1478385957.66,2.704272,1.086789,-2.323593,1.513134,-0.321064,-1.217807,0.197074,-0.885137,0.421537,0.214624,1.337423,0.326525,7.335342,-16.309921,-2.469116,,,,,,
1478385957.68,2.649489,1.040117,-2.253924,1.108547,0.534293,-2.736522,0.239132,-0.862463,0.446064,0.489094,-0.036691,0.225430,7.335342,-16.309921,-2.469116,,,,,,
1478385957.70,2.623659,1.010039,-2.211574,0.697213,0.418127,-0.989619,0.263300,-0.846852,0.462076,0.514104,-0.937800,0.455771,8.012283,-15.709396,-1.939087,,,,,,
1478385957.72,2.616903,1.001276,-2.207587,0.051955,-0.499284,0.039899,0.270123,-0.842160,0.466691,0.772983,-0.197116,0.374602,9.060898,-15.558029,-0.579102,,,,,,
1478385957.74,2.613252,1.014762,-2.217446,-0.785181,-0.505748,0.831195,0.266075,-0.849355,0.455850,0.575950,-0.394511,0.595434,9.135574,-15.708252,-0.802856,,,,,,
1478385957.76,2.621336,1.046623,-2.226878,-1.507759,0.354304,1.053467,0.248799,-0.865738,0.434277,0.411632,-0.767517,0.531802,9.586777,-15.558624,-1.173828,,,,,,
1478385957.78,2.643907,1.083674,-2.232228,-1.361838,0.992363,1.002055,0.223461,-0.883684,0.411301,0.109212,-1.793105,-0.437394,9.586777,-15.558624,-1.173828,,,,,,
1478385957.80,2.658765,1.111843,-2.249563,-0.947460,-0.977196,0.988810,0.205683,-0.896517,0.392367,-0.181895,-2.881315,-1.207095,8.761948,-15.709167,-1.706665,,,,,,
1478385957.82,2.624986,1.132063,-2.260978,-0.417969,-2.582938,0.398750,0.209819,-0.905290,0.369358,-0.510723,-1.804045,-0.650120,8.309006,-16.534683,-2.233704,,,,,,
1478385957.84,2.563059,1.104507,-2.257753,1.796428,-3.391484,-1.514234,0.245826,-0.893243,0.376413,-0.623939,-0.595664,-0.589609,7.785233,-16.460297,-2.839111,,,,,,
1478385957.86,2.482438,1.030202,-2.232438,2.657408,-2.653737,-3.268261,0.315194,-0.857403,0.406833,-0.814416,0.407147,-0.294497,8.308670,-16.308792,-1.334351,,,,,,
1478385957.88,2.386584,0.926089,-2.166199,3.207685,-1.378235,-5.733988,0.411838,-0.799276,0.437662,-1.615405,0.886266,-0.278268,8.308670,-16.308792,-1.334351,,,,,,
1478385957.90,2.338106,0.788312,-2.130334,4.298222,-0.769722,-5.338305,0.507477,-0.709164,0.489442,-1.610641,-1.076130,-0.569887,10.183090,-16.007507,-0.041504,,,,,,
1478385957.92,2.326182,0.651566,-2.118701,4.620371,-0.267469,-5.379101,0.578864,-0.606432,0.545121,-0.458823,-1.739499,0.054321,12.211777,-14.580673,1.774475,,,,,,
1478385957.94,2.272778,0.513831,-2.105755,3.468953,-3.617825,-5.436262,0.664964,-0.491517,0.562347,0.098220,-2.653030,0.185379,18.150467,-10.151505,5.945618,,,,,,
1478385957.96,2.178686,0.408959,-2.069835,1.369718,-3.806653,-4.866691,0.753164,-0.397654,0.524037,0.665354,-2.703206,-0.138600,20.561020,-7.676117,6.337280,,,,,,
1478385957.98,2.104716,0.324626,-2.073897,3.023297,-4.060771,-2.449879,0.815858,-0.318954,0.482331,0.108473,-1.653321,-1.156785,20.561020,-7.676117,6.337280,,,,,,
1478385958.00,2.041477,0.279641,-2.104405,1.642260,-2.802631,-0.768192,0.856639,-0.276011,0.435877,-0.447978,-1.186575,0.349905,22.367752,-6.326553,5.901306,,,,,,
1478385958.02,2.024106,0.268065,-2.105555,-0.374165,0.282536,-0.393539,0.866895,-0.264866,0.422302,-0.872907,-0.861080,0.558945,23.725693,-4.676910,5.534912,,,,,,
1478385958.04,2.062968,0.277942,-2.084019,-1.607092,3.338735,0.259118,0.847486,-0.274377,0.454406,-1.264570,-0.442298,0.203492,24.929428,-4.002365,5.094910,,,,,,
1478385958.06,2.141306,0.320931,-2.048798,-3.136071,4.708179,1.567975,0.798654,-0.315450,0.512487,-0.909723,0.040196,0.068553,23.877396,-3.775345,7.108765,,,,,,
1478385958.08,2.209459,0.414123,-2.022819,-3.846728,3.037117,4.201144,0.735025,-0.402387,0.545732,-0.365899,0.171232,-0.343949,23.877396,-3.775345,7.108765,,,,,,
1478385958.10,2.243169,0.552299,-2.033889,-3.804694,0.692567,6.498286,0.666028,-0.524646,0.530240,0.165851,0.056933,-0.308987,22.818008,-5.273544,8.902649,,,,,,
1478385958.12,2.268715,0.705822,-2.065805,-3.957350,0.242248,6.724356,0.583124,-0.648659,0.489088,0.116919,0.217995,-0.270506,20.858658,-7.147964,9.488647,,,,,,
1478385958.14,2.300350,0.864421,-2.104525,-4.341283,0.222832,7.094378,0.483871,-0.760719,0.432637,-0.350998,0.615288,-0.256291,20.243240,-10.598038,9.417908,,,,,,
1478385958.16,2.354656,1.037353,-2.168065,-4.586549,0.016846,7.881879,0.360117,-0.861061,0.359011,-0.180567,1.335900,-0.432360,15.332474,-19.074646,7.819153,,,,,,
1478385958.18,2.492865,1.218169,-2.316067,-4.987675,0.477049,8.476491,0.208660,-0.938468,0.275205,0.323261,1.772804,0.054919,15.332474,-19.074646,7.819153,,,,,,
1478385958.20,2.863043,1.388608,-2.675308,-5.239038,1.665511,7.548727,0.049818,-0.983450,0.174198,1.145037,2.087744,1.522182,10.892136,-23.051315,6.136719,,,,,,
1478385958.22,-2.525744,1.435860,2.787245,-1.646303,5.581574,4.447024,-0.077710,-0.990910,0.109813,3.411344,3.231526,3.734838,6.685532,-25.604584,2.877319,,,,,,
1478385958.24,-2.208374,1.422118,2.566246,-0.218255,3.776698,0.309750,-0.119029,-0.988968,0.088175,3.391490,2.335449,2.318471,1.659546,-26.732330,0.130432,,,,,,
1478385958.26,-2.263437,1.424432,2.649231,0.573102,0.008895,-0.816808,-0.112234,-0.989308,0.093130,3.427618,1.858922,1.848184,-0.592331,-27.633774,-1.314392,,,,,,
1478385958.28,-2.672038,1.412987,3.046485,5.052875,-0.943827,-2.642911,-0.071111,-0.987574,0.140146,0.097295,-0.071996,-0.971231,-0.592331,-27.633774,-1.314392,,,,,,
,,,,,,,,,,,,,,,,37.354285,-122.033475,35.957642,0.520000,194.765625,1478386176.00
1478385958.30,3.085808,1.341653,-2.807327,2.226654,-5.747797,-3.100073,0.012665,-0.973861,0.226790,0.736008,-6.451279,-0.023527,0.824432,-28.982330,0.128845,,,,,,
1478385958.32,2.937754,1.296650,-2.665653,2.197031,1.718924,-1.737646,0.054803,-0.962657,0.265120,-0.109460,-0.980687,1.064867,4.345566,-28.678848,3.613159,,,,,,
1478385958.34,2.881977,1.272101,-2.553580,-0.634456,2.915646,-1.973265,0.075543,-0.955721,0.284412,-0.228695,1.412386,0.437191,5.469559,-28.678162,4.299316,,,,,,
1478385958.36,2.782778,1.270178,-2.375308,0.641432,3.639163,-2.726566,0.103984,-0.955153,0.277253,-0.176783,1.425094,0.083816,6.593765,-28.527176,5.285095,,,,,,
1478385958.38,2.755001,1.204309,-2.306019,3.224711,0.726650,-1.957615,0.135105,-0.933592,0.331892,0.072201,1.015562,0.273866,6.593765,-28.527176,5.285095,,,,,,
1478385958.40,2.717440,1.126956,-2.266343,2.562069,-0.580871,-2.669660,0.176724,-0.903109,0.391360,0.287189,0.365527,0.185377,8.693649,-28.301407,6.055420,,,,,,
1478385958.42,2.623390,1.086632,-2.172312,1.046002,0.023030,-2.203736,0.230556,-0.885064,0.404358,0.794651,-1.763877,-0.132355,10.042831,-27.623840,8.616943,,,,,,
1478385958.44,2.632977,1.053289,-2.178424,1.290543,0.196831,-0.060645,0.240911,-0.869055,0.432094,0.898402,-0.011972,0.207570,12.143906,-27.323669,8.787048,,,,,,
1478385958.46,2.654938,1.035968,-2.204041,0.983850,-0.324018,0.294241,0.238369,-0.860356,0.450519,0.341007,0.149129,0.180645,11.543228,-27.022324,10.130188,,,,,,
1478385958.48,2.661272,1.026071,-2.229855,0.514356,-0.740846,0.296552,0.239433,-0.855270,0.459549,0.077965,-0.150040,0.377289,11.543228,-27.022324,10.130188,,,,,,
1478385958.50,2.659414,1.030856,-2.236583,-0.553671,-0.224150,0.290773,0.238387,-0.857739,0.455473,0.149431,-0.278949,0.764117,12.368942,-26.872314,10.138000,,,,,,
1478385958.52,2.658164,1.054688,-2.233164,-1.317586,0.313112,0.660596,0.229387,-0.869746,0.436947,0.479185,-0.572652,0.567142,12.744827,-26.647247,10.216003,,,,,,
1478385958.54,2.677249,1.090337,-2.241881,-1.590777,0.699075,1.164409,0.206984,-0.886783,0.413249,0.468171,-1.230725,-0.188700,11.619034,-26.947632,9.830627,,,,,,
1478385958.56,2.710060,1.125342,-2.270713,-1.027087,-0.226624,1.391486,0.180217,-0.902415,0.391369,-0.063670,-2.739568,-1.178219,10.042038,-27.698532,8.917175,,,,,,
1478385958.58,2.716337,1.142755,-2.321775,0.396055,-2.994622,1.043384,0.171247,-0.909780,0.378119,-0.768018,-2.703638,-1.230170,10.042038,-27.698532,8.917175,,,,,,
1478385958.60,2.666218,1.100848,-2.342952,2.518332,-3.629970,-1.527433,0.207252,-0.891592,0.402630,-0.606666,-0.298716,-1.127423,9.594620,-27.549820,7.637207,,,,,,
1478385958.62,2.565197,1.030908,-2.288264,2.573220,-1.869217,-3.683912,0.280155,-0.857766,0.430988,-0.710102,0.707849,-0.511280,11.020706,-27.249649,7.800598,,,,,,
1478385958.64,2.487986,0.921472,-2.225299,4.031818,-0.913508,-4.976879,0.367659,-0.796492,0.480028,-0.849592,0.408889,-0.119814,13.123947,-26.198669,8.793457,,,,,,
1478385958.66,2.433387,0.798878,-2.192580,3.735893,-2.307789,-4.313465,0.453711,-0.716574,0.529781,-0.824561,-1.347055,-0.325954,17.180771,-24.172134,10.327942,,,,,,
1478385958.68,2.351392,0.687816,-2.165182,3.106891,-3.763523,-4.937181,0.548952,-0.634851,0.543705,0.058576,-3.386435,0.156978,17.180771,-24.172134,10.327942,,,,,,
1478385958.70,2.243164,0.578243,-2.126574,2.240123,-4.474940,-4.816708,0.655158,-0.546553,0.521581,0.463403,-3.172822,-0.135366,20.565201,-21.695969,11.479309,,,,,,
1478385958.72,2.151047,0.494045,-2.125267,2.623070,-4.578480,-2.618582,0.736319,-0.474191,0.482677,-0.293250,-1.264395,-0.568080,24.849838,-19.596085,11.365906,,,,,,
1478385958.74,2.090910,0.441577,-2.150825,1.865679,-2.592057,-1.177407,0.784526,-0.427365,0.449308,-0.784282,-1.173327,0.008380,30.490402,-16.823135,9.313965,,,,,,
1478385958.76,2.086866,0.420916,-2.154405,-0.023715,1.095052,-0.745320,0.793848,-0.408597,0.450393,-1.109552,-0.909580,0.524247,31.542923,-16.523956,8.498596,,,,,,
1478385958.78,2.130449,0.416794,-2.124993,-1.660929,3.574676,-0.976400,0.774892,-0.404831,0.485443,-1.414982,-0.389511,0.471329,31.542923,-16.523956,8.498596,,,,,,
1478385958.80,2.191791,0.427910,-2.073137,-2.557181,4.202543,-0.573436,0.739969,-0.414970,0.529382,-1.356119,-0.074807,0.186087,31.016525,-16.823883,8.569214,,,,,,
1478385958.82,2.246830,0.476612,-2.030478,-3.337452,3.195475,1.834933,0.693126,-0.458772,0.555972,-0.850704,0.227037,-0.051059,28.913376,-17.273148,9.299561,,,,,,
1478385958.84,2.283674,0.582717,-2.024383,-3.645549,1.170934,5.034095,0.631641,-0.550295,0.546082,-0.326633,0.481508,-0.172837,23.054703,-19.298431,9.022095,,,,,,
1478385958.86,2.316093,0.716744,-2.060279,-3.321123,0.546592,6.175085,0.554067,-0.656934,0.511320,0.160197,0.793195,0.037188,18.396164,-21.549530,7.932251,,,,,,
1478385958.88,2.368117,0.848113,-2.098614,-3.855606,1.620959,5.164247,0.462071,-0.750033,0.473223,0.452495,1.153323,-0.222399,18.396164,-21.549530,7.932251,,,,,,
1478385958.90,2.402186,0.973363,-2.113116,-4.356277,0.702255,4.612748,0.379055,-0.826782,0.415630,0.080402,1.062546,-0.437557,14.266068,-23.276276,6.171143,,,,,,
1478385958.92,2.449144,1.101819,-2.154880,-4.036271,0.524889,5.207928,0.288551,-0.892031,0.347878,0.110268,1.351092,-0.068627,9.839645,-24.178055,4.404541,,,,,,
1478385958.94,2.537489,1.223101,-2.239963,-3.702408,0.505771,4.754376,0.193544,-0.940161,0.280426,0.499388,1.597280,0.328323,6.016403,-24.480103,2.342224,,,,,,
1478385958.96,2.670960,1.324016,-2.366611,-3.004889,0.794978,3.824721,0.110770,-0.969704,0.217726,1.164834,1.774529,1.010592,0.476898,-23.584442,-1.990845,,,,,,
1478385958.98,2.886824,1.386852,-2.555160,-1.841745,2.133283,2.404083,0.046097,-0.983130,0.177005,2.273544,2.394324,1.534680,0.476898,-23.584442,-1.990845,,,,,,
1478385959.00,3.016810,1.415880,-2.642797,-0.876111,1.919412,0.191403,0.019204,-0.988024,0.153098,2.381050,2.784457,1.643686,-1.542099,-22.760971,-3.513489,,,,,,
1478385959.02,2.997533,1.422357,-2.589403,-0.145514,1.658001,-0.480083,0.021232,-0.989003,0.146363,1.856301,2.286977,1.852661,-3.483200,-21.412872,-5.411926,,,,,,
1478385959.04,2.793240,1.407861,-2.386291,1.282125,-1.272696,-3.102227,0.055372,-0.986755,0.152472,1.417559,1.459229,2.468332,-3.402786,-20.212875,-5.414734,,,,,,
1478385959.06,2.560203,1.334381,-2.116606,-2.552454,-0.484872,-1.167544,0.128630,-0.972184,0.195737,-0.057203,-6.439346,-0.580671,-0.929276,-20.061417,-3.965454,,,,,,
1478385959.08,2.647690,1.293885,-2.245463,4.518082,-3.290923,-0.658668,0.129603,-0.961904,0.240713,-0.446864,-0.605433,-1.755179,-0.929276,-20.061417,-3.965454,,,,,,
1478385959.10,2.623174,1.231674,-2.248582,0.904586,0.879088,-1.604379,0.164835,-0.943047,0.288949,0.090689,1.014580,1.371314,-2.357407,-20.510681,-3.228394,,,,,,
1478385959.12,2.561706,1.235494,-2.141903,0.120390,3.076899,-1.217202,0.180298,-0.944311,0.275262,0.206191,1.680288,0.649283,-1.083191,-19.983582,-1.117249,,,,,,
1478385959.14,2.661720,1.163246,-2.195928,4.056885,1.703009,-1.150028,0.182986,-0.918095,0.351594,0.322751,1.209171,0.252792,-0.406967,-20.059616,-2.160278,,,,,,
1478385959.16,2.656425,1.101225,-2.156338,0.832565,1.205846,-2.723312,0.211028,-0.891762,0.400283,0.451264,-0.546195,0.037964,1.018692,-19.082138,0.326050,,,,,,
1478385959.18,2.628715,1.072335,-2.105290,1.202346,0.732190,-0.863848,0.234585,-0.878319,0.416564,0.426319,-1.194267,0.214052,1.018692,-19.082138,0.326050,,,,,,
1478385959.20,2.635361,1.052299,-2.123495,1.001060,-1.083981,0.184270,0.240297,-0.868565,0.433420,0.692961,0.268589,-0.006708,1.093491,-19.081985,0.476868,,,,,,
1478385959.22,2.640556,1.042565,-2.158972,0.714827,-1.242558,0.754942,0.242092,-0.863700,0.442057,0.251484,-0.092111,0.152136,1.545380,-18.481445,1.004517,,,,,,
1478385959.24,2.651235,1.042409,-2.192782,0.134253,-0.642138,0.638057,0.237421,-0.863621,0.444735,0.050360,-0.205684,0.511289,1.769592,-18.405701,1.756531,,,,,,
1478385959.26,2.654477,1.056284,-2.199540,-0.945377,0.072748,0.433008,0.230346,-0.870533,0.434871,0.091797,-0.275677,0.795079,1.469376,-18.330322,2.128357,,,,,,
1478385959.28,2.648289,1.088742,-2.187527,-1.885537,0.310786,0.553828,0.219533,-0.886044,0.408327,0.325191,-0.603915,0.525603,1.469376,-18.330322,2.128357,,,,,,
1478385959.30,2.653380,1.129986,-2.175814,-1.736596,0.868831,0.939266,0.200130,-0.904406,0.376826,0.307530,-1.673169,-0.569651,1.393005,-18.931229,1.229309,,,,,,
,,,,,,,,,,,,,,,,37.354278,-122.033483,38.801208,1.080000,247.148438,1478386177.00
1478385959.32,2.651391,1.167918,-2.187058,-1.416413,-1.559524,1.049601,0.184587,-0.919936,0.345897,-0.106279,-3.119111,-1.308117,0.789536,-19.982056,0.401489,,,,,,
1478385959.34,2.596794,1.185577,-2.183962,-0.430856,-3.095468,-0.003168,0.194737,-0.926716,0.321364,-0.559666,-2.054455,-0.986754,1.387131,-20.732727,-0.265259,,,,,,
1478385959.36,2.533567,1.158980,-2.188020,2.234452,-3.328152,-1.195804,0.228656,-0.916395,0.328536,-0.599506,-0.512087,-0.422775,2.208771,-21.482712,-0.254822,,,,,,
1478385959.38,2.465910,1.091440,-2.184629,1.966819,-3.541136,-2.503536,0.288454,-0.887292,0.359872,-1.050676,0.766015,-1.114709,2.208771,-21.482712,-0.254822,,,,,,
1478385959.40,2.365671,1.004820,-2.125406,3.020864,-1.309144,-5.096103,0.375569,-0.844065,0.382755,-1.707539,1.377284,-0.240467,6.102432,-21.929810,2.635437,,,,,,
1478385959.42,2.326516,0.877003,-2.090083,3.656546,-0.761356,-4.817837,0.465384,-0.768826,0.438548,-1.784063,-0.473697,-0.716426,9.478287,-21.403809,3.642639,,,,,,
1478385959.44,2.323083,0.769535,-2.075033,3.334538,1.243067,-4.238072,0.524403,-0.695802,0.490776,-0.445378,-1.328475,-0.363716,13.007492,-19.826904,5.548218,,,,,,
1478385959.46,2.327348,0.649307,-2.063153,4.182599,-0.415770,-4.905719,0.579223,-0.604635,0.546734,-0.117416,-2.000712,-0.007976,15.186874,-18.099640,7.814758,,,,,,
1478385959.48,2.281833,0.543386,-2.050025,2.223504,-2.109229,-3.666937,0.648551,-0.517037,0.558618,0.278863,-2.921531,0.078971,15.186874,-18.099640,7.814758,,,,,,
1478385959.50,2.233843,0.482038,-2.035251,1.530383,-2.217773,-2.265603,0.698316,-0.463586,0.545383,-0.071591,-1.697989,-0.687885,19.020645,-15.623032,9.420715,,,,,,
1478385959.52,2.197064,0.435726,-2.055321,2.172472,-2.061401,-0.722322,0.734517,-0.422068,0.531360,-0.686085,-1.055242,-0.310916,24.130234,-13.222244,10.214661,,,,,,
1478385959.54,2.185226,0.421853,-2.075385,0.293052,-0.214110,0.231454,0.745468,-0.409452,0.525952,-0.764984,-0.784853,0.458102,25.253647,-13.296402,11.051025,,,,,,
1478385959.56,2.203296,0.439119,-2.058991,-1.802145,2.012397,0.214702,0.730032,-0.425142,0.535077,-0.950537,-0.435331,0.558627,24.425369,-14.046478,10.970032,,,,,,
1478385959.58,2.240482,0.474178,-2.019565,-2.815019,3.083791,0.532141,0.697515,-0.456607,0.552252,-0.879339,-0.100293,0.252466,24.425369,-14.046478,10.970032,,,,,,
1478385959.60,2.287570,0.542132,-1.979721,-3.980571,3.280262,2.244403,0.645824,-0.515964,0.562755,-0.594173,0.113513,0.339635,23.746262,-15.021637,10.816162,,,,,,
1478385959.62,2.327867,0.656090,-1.963352,-4.325614,1.769192,4.668169,0.575945,-0.610023,0.544205,-0.288759,0.253258,0.372970,18.860733,-17.722733,9.725403,,,,,,
1478385959.64,2.374146,0.786630,-2.000621,-3.205630,0.943498,5.945679,0.490339,-0.707977,0.508267,0.218813,0.472595,0.627872,15.554794,-19.373734,8.722290,,,,,,
1478385959.66,2.448275,0.909703,-2.062671,-3.382767,1.703126,5.274355,0.392390,-0.789321,0.472231,0.654271,0.749252,0.216780,12.626114,-20.650116,7.346863,,,,,,
1478385959.68,2.517747,1.026726,-2.103613,-4.069161,1.643146,4.220600,0.302375,-0.855609,0.420122,0.586892,1.009097,-0.177523,12.626114,-20.650116,7.346863,,,,,,
1478385959.70,2.599845,1.138852,-2.163614,-3.796727,1.452332,4.330596,0.215864,-0.908154,0.358692,0.343554,1.282986,0.217983,9.023758,-21.551270,6.188538,,,,,,
1478385959.72,2.738757,1.243597,-2.283958,-3.584965,1.191612,4.324905,0.125995,-0.946946,0.295666,0.569287,1.471833,0.528630,6.697128,-22.452850,4.592896,,,,,,
1478385959.74,2.957318,1.327201,-2.492959,-2.733134,0.730601,3.789840,0.044195,-0.970477,0.237110,1.153361,1.650012,0.965191,0.397751,-23.506454,1.008118,,,,,,
1478385959.76,-3.024293,1.368060,-2.786526,-1.486307,0.850077,2.951489,-0.023564,-0.979519,0.199967,2.207387,2.270092,1.309952,-1.172607,-23.058197,-0.733948,,,,,,
1478385959.78,-2.825849,1.377638,-2.970485,-0.373110,0.802383,0.757687,-0.059608,-0.981403,0.182470,2.350547,2.649982,1.527506,-1.172607,-23.058197,-0.733948,,,,,,
1478385959.80,-2.833798,1.373299,-2.947876,0.577478,0.778755,-0.443768,-0.059445,-0.980561,0.186994,1.810223,2.175873,1.650683,-2.820679,-22.984253,-1.800659,,,,,,
1478385959.82,-2.911087,1.360913,-2.853057,0.809295,0.634009,-1.019642,-0.047601,-0.978055,0.202835,1.420419,2.010785,1.074310,-3.117981,-22.384262,-1.805420,,,,,,
1478385959.84,-3.070763,1.335209,-2.678257,2.652999,0.250115,-2.018603,-0.016519,-0.972377,0.232829,-0.169547,-0.083180,-0.135081,-2.217865,-22.233871,-1.421875,,,,,,
1478385959.86,2.953023,1.292257,-2.466929,2.004000,-2.875661,-2.548652,0.051541,-0.961458,0.270077,0.388370,-6.603025,0.713260,-0.341415,-21.633041,-0.579834,,,,,,
1478385959.88,2.883080,1.233297,-2.394223,2.573226,1.049398,-1.635116,0.084650,-0.943586,0.320125,-0.070612,-0.449587,0.488316,-0.341415,-21.633041,-0.579834,,,,,,
1478385959.90,2.862789,1.202854,-2.333400,0.030098,1.994486,-1.229872,0.098991,-0.933069,0.345807,0.038903,1.507029,0.212070,1.004959,-21.856293,1.159241,,,,,,
1478385959.92,2.864175,1.172746,-2.300720,2.259920,0.786229,-0.878874,0.106159,-0.921818,0.372802,0.213833,2.025899,-0.564528,0.929184,-21.554871,2.582581,,,,,,
1478385959.94,2.840932,1.117552,-2.259603,2.569409,0.983108,-2.180200,0.129680,-0.899031,0.418241,0.479848,0.755156,0.756868,1.528381,-21.855240,2.214478,,,,,,
1478385959.96,2.790804,1.066454,-2.194159,1.302782,-0.212899,-1.945299,0.166057,-0.875492,0.453804,0.224293,-1.159298,-0.516289,3.854477,-20.878052,4.409790,,,,,,
1478385959.98,2.765849,1.024815,-2.169739,1.823844,-0.105991,-0.931234,0.190549,-0.854618,0.483031,0.384769,-0.865764,0.098573,3.854477,-20.878052,4.409790,,,,,,
1478385960.00,2.755883,0.994046,-2.164600,1.234547,-0.232705,-0.635586,0.205152,-0.838239,0.505240,0.290774,0.448148,0.367684,4.755356,-20.427292,5.167480,,,,,,
1478385960.02,2.750384,0.966995,-2.165311,1.214144,-0.428108,-0.460938,0.216496,-0.823183,0.524880,0.063915,0.018694,-0.039528,4.454376,-20.351395,6.064209,,,,,,
1478385960.04,2.743515,0.946755,-2.161674,0.677905,0.032133,-0.445647,0.226509,-0.811524,0.538630,0.167976,-0.133316,0.473317,5.881271,-19.826080,6.376892,,,,,,
1478385960.06,2.741675,0.937973,-2.157402,0.168258,-0.020702,-0.153931,0.230266,-0.806361,0.544756,0.289616,-0.166890,0.339094,6.331131,-19.525101,7.355530,,,,,,
1478385960.08,2.737440,0.944521,-2.159204,-0.612649,-0.406748,0.377859,0.230490,-0.810216,0.538910,0.386988,-0.355463,0.575607,6.331131,-19.525101,7.355530,,,,,,
1478385960.10,2.738351,0.971125,-2.164775,-1.437856,0.020361,0.835952,0.221460,-0.825521,0.519105,0.483145,-0.665263,0.652709,5.731949,-19.375183,7.274109,,,,,,
1478385960.12,2.748335,1.008039,-2.169235,-1.681728,0.625960,0.779499,0.204445,-0.845787,0.492795,0.393349,-1.340523,-0.291989,5.281754,-19.600708,6.745239,,,,,,
1478385960.14,2.767151,1.041848,-2.185393,-1.264622,-0.642024,1.252184,0.184568,-0.863338,0.469661,-0.233259,-2.901997,-1.215328,4.978928,-20.501541,5.919922,,,,,,
1478385960.16,2.748685,1.067171,-2.226694,-0.534062,-3.843553,1.274564,0.184778,-0.875839,0.445829,-0.735727,-3.002884,-1.294050,4.527573,-20.951981,5.466797,,,,,,
1478385960.18,2.687864,1.037211,-2.242658,2.585290,-3.513277,-1.348488,0.222940,-0.860989,0.457160,-0.464441,-0.639148,-0.718452,4.527573,-20.951981,5.466797,,,,,,
1478385960.20,2.593690,0.964009,-2.203219,2.290268,-2.824091,-3.322618,0.297032,-0.821484,0.486760,-0.688771,0.739819,-0.859838,4.675537,-21.101089,6.368652,,,,,,
1478385960.22,2.498139,0.862973,-2.138539,3.782820,-1.719103,-5.082016,0.390084,-0.759779,0.520163,-0.994821,0.719999,-0.389060,7.227219,-20.274719,7.741699,,,,,,
1478385960.24,2.442083,0.739419,-2.104975,4.170257,-1.866292,-4.215256,0.475710,-0.673859,0.565345,-1.021822,-1.173584,-0.212912,10.380997,-18.847961,9.493958,,,,,,
1478385960.26,2.396950,0.633360,-2.114088,4.082031,-3.016960,-3.055063,0.546263,-0.591856,0.592708,-0.461318,-3.469835,0.143956,13.538956,-16.521286,11.168579,,,,,,
1478385960.28,2.331242,0.536500,-2.096717,2.109410,-2.696486,-4.285230,0.622735,-0.511131,0.592408,0.247062,-3.461083,0.055542,13.538956,-16.521286,11.168579,,,,,,
1478385960.30,2.255859,0.462069,-2.069026,1.581380,-3.486065,-2.953861,0.693172,-0.445801,0.566369,-0.459544,-1.557433,-0.688882,18.583725,-11.268707,13.753296,,,,,,
,,,,,,,,,,,,,,,,37.354278,-122.033483,39.617798,0.000000,184.570312,1478386178.00
1478385960.32,2.190076,0.408910,-2.078758,1.946739,-3.039092,-1.303349,0.747162,-0.397610,0.532593,-0.754318,-0.908466,-0.681718,21.066360,-9.543610,13.847961,,,,,,
1478385960.34,2.169023,0.385658,-2.083351,0.073301,0.136123,-0.582030,0.765642,-0.376169,0.521814,-0.680315,-1.137381,0.300574,23.102463,-7.143814,13.636108,,,,,,
1478385960.36,2.195961,0.400400,-2.062520,-1.990918,2.468295,0.374895,0.746732,-0.389787,0.538942,-0.993756,-0.701781,0.328780,24.681961,-5.792755,14.697815,,,,,,
1478385960.38,2.240522,0.445551,-2.019913,-3.326969,3.387218,0.803536,0.707453,-0.430955,0.560167,-0.960612,-0.166701,0.129347,24.681961,-5.792755,14.697815,,,,,,
1478385960.40,2.287668,0.518797,-1.977097,-4.108860,3.074925,2.238345,0.654669,-0.495836,0.570575,-0.563619,0.119310,-0.035953,23.254684,-6.016953,15.509216,,,,,,
1478385960.42,2.317509,0.632947,-1.957768,-4.528684,1.271518,4.600276,0.591755,-0.591524,0.547655,-0.221089,0.272951,0.024001,20.615036,-8.564789,17.665466,,,,,,
1478385960.44,2.337820,0.776716,-1.979155,-4.213964,-0.042096,6.286386,0.513503,-0.700941,0.494971,0.074631,0.502226,0.177728,19.101273,-11.414185,18.258850,,,,,,
1478385960.46,2.373500,0.926532,-2.024857,-4.379066,0.258724,6.239916,0.417283,-0.799542,0.431982,0.233840,0.791302,0.188319,16.310593,-15.014511,17.941772,,,,,,
1478385960.48,2.425300,1.077412,-2.065140,-5.006426,1.354992,5.840113,0.310968,-0.880735,0.357217,0.333075,1.067366,0.387747,16.310593,-15.014511,17.941772,,,,,,
1478385960.50,2.527751,1.231204,-2.136253,-5.348134,1.922152,5.812232,0.191871,-0.942890,0.272292,0.366478,1.417805,0.634187,14.419510,-18.840271,17.184387,,,,,,
1478385960.52,2.734418,1.373821,-2.312791,-4.622643,1.721606,5.413352,0.077502,-0.980663,0.179704,0.876722,1.873409,1.810744,6.442917,-26.194595,12.851624,,,,,,
1478385960.54,-2.936485,1.436680,-2.896863,-1.131104,1.765700,4.531689,-0.027234,-0.991020,0.130912,2.009167,3.119606,2.368097,1.862549,-28.372574,9.887390,,,,,,
1478385960.56,-2.504051,1.426350,2.979222,-0.735359,1.241167,1.682521,-0.085679,-0.989586,0.115669,2.545426,2.260597,1.606362,-2.638184,-29.124329,8.119629,,,,,,
1478385960.58,-2.377516,1.423010,2.869361,-0.092978,0.637252,0.416965,-0.101877,-0.989100,0.106317,2.744516,2.114359,1.643744,-2.638184,-29.124329,8.119629,,,,,,
1478385960.60,-2.417739,1.425089,2.912077,0.241291,-0.271136,-0.960012,-0.096158,-0.989403,0.108787,1.356473,1.779946,1.362267,-3.911484,-29.200699,6.757141,,,,,,
1478385960.62,-2.854303,1.385988,-2.902880,5.736085,1.609739,-3.155844,-0.052069,-0.982972,0.176226,0.119161,-0.458297,-0.434863,-4.060349,-29.126221,6.230469,,,,,,
1478385960.64,3.007761,1.339601,-2.503164,1.520071,-1.184242,-3.293733,0.030575,-0.973393,0.227093,0.735599,-5.805110,1.588200,-1.961151,-28.298203,9.248962,,,,,,
1478385960.66,2.934124,1.293351,-2.408399,2.494277,1.324536,-1.098077,0.056419,-0.961758,0.268026,-0.049827,-0.108280,0.206812,0.586441,-28.597504,9.950317,,,,,,
1478385960.68,2.916259,1.242993,-2.377654,1.744628,0.375265,-0.826339,0.071937,-0.946752,0.313825,0.167443,1.426107,0.266879,0.586441,-28.597504,9.950317,,,,,,
1478385960.70,2.910370,1.210727,-2.349370,2.010043,1.161096,-1.139969,0.080745,-0.935872,0.342962,0.360555,1.513311,-0.026693,0.887115,-27.996155,11.301453,,,,,,
1478385960.71,2.862955,1.149522,-2.281757,2.487119,0.317233,-2.341298,0.112473,-0.912569,0.393152,0.306930,0.390398,0.115592,1.339127,-27.320480,11.978943,,,,,,
1478385960.73,2.794794,1.105623,-2.219907,1.713141,-0.812739,-1.645936,0.152467,-0.893744,0.421872,0.194259,-1.134683,0.012561,2.689590,-26.342834,14.614502,,,,,,
1478385960.75,2.774251,1.066439,-2.196686,1.322709,0.356667,-0.911530,0.173551,-0.875485,0.451006,0.427905,-0.288043,0.608931,4.567139,-25.592300,15.156067,,,,,,
1478385960.77,2.772293,1.044012,-2.187575,0.930885,0.171475,-0.481078,0.181476,-0.864428,0.468860,0.365918,0.125232,0.129650,4.567139,-25.592300,15.156067,,,,,,
1478385960.79,2.766827,1.026220,-2.190361,0.728307,-0.607653,-0.161979,0.189636,-0.855347,0.482099,0.240371,-0.045257,0.179827,4.792953,-25.216705,15.757202,,,,,,
1478385960.81,2.765160,1.020699,-2.194582,0.040968,-0.075472,0.116079,0.192173,-0.852473,0.486167,0.209301,-0.202748,0.506737,4.943863,-24.841171,16.282593,,,,,,
1478385960.83,2.766458,1.029239,-2.199638,-0.595184,-0.209897,0.406282,0.188868,-0.856907,0.479624,0.337912,-0.324138,0.439901,4.945663,-24.315796,16.656067,,,,,,
1478385960.85,2.771941,1.054900,-2.211385,-1.375224,-0.202050,0.948774,0.178230,-0.869851,0.459993,0.527352,-0.616386,0.502593,4.718948,-24.690796,16.654907,,,,,,
1478385960.87,2.790576,1.094597,-2.232835,-1.762310,0.065948,1.260817,0.157624,-0.888743,0.430453,0.362350,-1.298589,-0.204883,4.718948,-24.690796,16.654907,,,,,,
1478385960.89,2.812747,1.132365,-2.268687,-1.360707,-1.150967,1.457963,0.137099,-0.905419,0.401772,-0.200255,-2.640297,-1.058114,4.568619,-25.292374,15.080139,,,,,,
1478385960.91,2.810821,1.159395,-2.323281,-0.753126,-3.574557,1.430984,0.129875,-0.916561,0.378217,-0.745613,-2.299335,-1.123395,3.064255,-26.342606,14.843262,,,,,,
1478385960.93,2.764380,1.138646,-2.350352,2.075053,-3.288974,-0.823023,0.154266,-0.908067,0.389379,-0.420364,-0.228285,-0.603659,2.689148,-26.568222,14.240173,,,,,,
1478385960.95,2.662397,1.083197,-2.296093,2.167204,-2.243647,-3.119232,0.216012,-0.883460,0.415737,-0.723520,0.916358,-0.711452,6.066269,-25.516464,15.995850,,,,,,
1478385960.97,2.548424,0.987065,-2.208351,3.489570,-1.600603,-4.994517,0.308083,-0.834412,0.456991,-0.939461,0.847016,-0.264685,6.066269,-25.516464,15.995850,,,,,,
1478385960.99,2.478144,0.865776,-2.150884,3.968194,-1.546979,-4.675147,0.399093,-0.761598,0.510581,-0.992400,-0.582991,-0.178046,9.372635,-23.640076,17.373291,,,,,,
1478385961.01,2.421774,0.755291,-2.136119,4.049402,-2.466393,-3.682834,0.479980,-0.685501,0.547456,-0.579208,-2.629853,-0.025346,11.930466,-21.162888,19.566406,,,,,,
1478385961.03,2.356705,0.647301,-2.117938,3.005495,-2.534251,-4.480811,0.563781,-0.603035,0.564357,0.265061,-3.486610,0.026188,15.317459,-17.936218,21.240601,,,,,,
1478385961.05,2.291576,0.559445,-2.097100,2.256386,-2.845059,-3.199794,0.636757,-0.530716,0.559358,-0.233681,-1.897507,-0.456270,18.555161,-14.634766,22.688049,,,,,,
1478385961.07,2.225467,0.492883,-2.102329,2.235042,-3.621548,-2.091877,0.698830,-0.473168,0.536422,-0.837014,-0.912529,-0.675079,18.555161,-14.634766,22.688049,,,,,,
1478385961.09,2.178646,0.448984,-2.107006,0.902395,-1.343490,-1.426575,0.739520,-0.434051,0.514500,-0.930544,-1.028611,-0.131917,23.072800,-10.208237,24.219971,,,,,,
1478385961.11,2.185669,0.429404,-2.093756,-0.404109,1.640679,-0.974039,0.742689,-0.416329,0.524484,-1.010709,-0.881401,0.095541,24.802505,-9.158218,24.234131,,,,,,
1478385961.13,2.228861,0.433908,-2.064819,-1.677407,3.323731,-0.379718,0.717859,-0.420420,0.554911,-1.037149,-0.517889,0.213094,25.851212,-9.383057,24.395325,,,,,,
1478385961.15,2.284784,0.467619,-2.024262,-2.967172,3.669208,0.535695,0.674622,-0.450763,0.584550,-0.869278,-0.236005,0.169600,24.043594,-10.807251,25.206482,,,,,,
1478385961.17,2.329869,0.535782,-1.990036,-3.565124,2.590982,2.201633,0.623814,-0.510513,0.591805,-0.498783,0.039978,-0.116753,24.043594,-10.807251,25.206482,,,,,,
1478385961.19,2.360561,0.639093,-1.986803,-3.833631,1.026345,4.405290,0.565067,-0.596468,0.570023,-0.161975,0.211778,-0.090409,19.152695,-14.934006,23.444946,,,,,,
1478385961.21,2.389255,0.769617,-2.013657,-4.094253,0.491129,5.596792,0.490765,-0.695860,0.524337,0.050571,0.435316,0.028901,17.947708,-16.585663,21.787842,,,,,,
1478385961.23,2.429252,0.907278,-2.051393,-4.374088,0.621045,5.393662,0.402552,-0.787830,0.466128,0.145605,0.592899,0.097669,15.764755,-18.912323,20.123047,,,,,,
1478385961.25,2.476875,1.040122,-2.097022,-4.182961,0.397598,5.209612,0.312190,-0.862466,0.398358,0.260792,0.758142,0.047290,13.430649,-21.463928,18.532288,,,,,,
1478385961.27,2.566585,1.165468,-2.183787,-3.888357,0.868118,5.200734,0.214448,-0.918973,0.330909,0.414229,0.882367,0.299843,13.430649,-21.463928,18.532288,,,,,,
1478385961.29,2.725238,1.282571,-2.323658,-4.142909,1.571133,4.638099,0.114960,-0.958750,0.259967,0.637283,0.947733,0.872113,8.089981,-26.117416,15.042847,,,,,,
,,,,,,,,,,,,,,,,37.354265,-122.033477,39.682251,0.220000,268.593750,1478386179.00
1478385961.31,3.023091,1.382726,-2.586869,-3.490487,2.499587,4.166403,0.022104,-0.982367,0.185653,1.333914,1.238745,1.851045,4.712296,-27.319244,13.212708,,,,,,
1478385961.33,-2.776550,1.406379,-3.013868,-0.438246,3.459137,2.876220,-0.058431,-0.986514,0.152892,2.882833,2.690676,2.400773,1.558502,-29.122116,10.336609,,,,,,
1478385961.35,-2.659376,1.397694,-3.081038,0.172867,1.318874,-0.497340,-0.079875,-0.985055,0.152599,2.833201,2.850106,1.102696,-1.516006,-29.122452,10.005859,,,,,,
1478385961.37,-2.779627,1.398944,-2.967211,0.494841,-0.940066,-0.944252,-0.060556,-0.985270,0.159927,1.976068,2.211542,1.395279,-1.516006,-29.122452,10.005859,,,,,,
1478385961.39,-2.986495,1.398270,-2.785630,0.679494,-1.241691,-2.042030,-0.026519,-0.985154,0.169611,0.559631,1.141694,0.998892,-3.090744,-29.122620,9.840088,,,,,,
1478385961.41,3.012534,1.324908,-2.506490,5.532198,-0.987275,-3.339569,0.031328,-0.969921,0.241394,0.196196,-1.848468,0.599473,0.360321,-28.596756,10.698059,,,,,,
1478385961.43,2.820470,1.277307,-2.355510,0.604142,-0.951784,-1.244321,0.091311,-0.957240,0.274506,0.071485,-3.976659,1.458221,2.840485,-26.418671,13.791321,,,,,,
1478385961.45,2.823855,1.229032,-2.337364,2.959878,1.567428,-1.194829,0.104707,-0.942165,0.318374,-0.172090,0.576061,-0.110488,3.512772,-26.792984,14.474121,,,,,,
1478385961.47,2.813208,1.178250,-2.294447,1.475956,1.348302,-1.655299,0.123376,-0.923938,0.362101,-0.214089,1.594501,-0.266200,3.512772,-26.792984,14.474121,,,,,,
1478385961.49,2.791346,1.151363,-2.246717,1.175026,1.084118,-1.166143,0.139737,-0.913320,0.382519,0.192126,1.113454,0.330891,4.491714,-25.366333,16.129639,,,,,,
1478385961.51,2.779877,1.098478,-2.216375,2.604291,0.502041,-1.921701,0.160998,-0.890516,0.425513,0.397290,0.296049,0.424463,5.020767,-24.090195,17.256104,,,,,,
1478385961.53,2.729741,1.056727,-2.158616,1.116561,0.101261,-1.776881,0.196841,-0.870751,0.450607,0.519041,-1.359596,0.004685,6.300156,-22.513382,19.064209,,,,,,
1478385961.55,2.728847,1.022833,-2.150468,1.340005,0.105003,-0.552070,0.208966,-0.853587,0.477202,0.472766,-0.017506,0.137178,6.226639,-21.987793,19.661865,,,,,,
1478385961.57,2.725502,0.999327,-2.154347,1.057508,-0.662584,-0.224530,0.218613,-0.841107,0.494720,0.243500,0.164685,0.160096,6.226639,-21.987793,19.661865,,,,,,
1478385961.59,2.715364,0.983564,-2.163022,0.601031,-0.764128,-0.096325,0.229070,-0.832477,0.504488,0.151728,-0.181942,0.384596,7.205765,-20.937408,20.043518,,,,,,
1478385961.61,2.707721,0.982662,-2.161517,-0.377923,-0.090529,-0.037411,0.233235,-0.831977,0.503404,0.177959,-0.203927,0.723632,7.731888,-20.486816,20.647400,,,,,,
1478385961.63,2.699582,1.001641,-2.150460,-1.330387,0.092176,0.278756,0.230527,-0.842357,0.487127,0.397402,-0.520284,0.624995,7.430527,-20.636353,21.094788,,,,,,
1478385961.65,2.696836,1.038101,-2.140931,-1.906178,0.446926,0.676183,0.218499,-0.861441,0.458450,0.575431,-1.094064,0.211594,8.255997,-20.937546,19.903992,,,,,,
1478385961.67,2.713751,1.077441,-2.145000,-1.644244,0.384294,1.157256,0.196494,-0.880749,0.430896,0.218789,-2.680042,-1.322498,8.255997,-20.937546,19.903992,,,,,,
1478385961.69,2.716950,1.113717,-2.181497,-1.090521,-2.623040,1.590137,0.181825,-0.897345,0.402133,-0.442827,-3.207986,-1.234698,7.425003,-22.513290,19.150391,,,,,,
1478385961.71,2.681852,1.117339,-2.219200,1.938717,-3.315363,-0.138410,0.194381,-0.898938,0.392590,-0.452789,-1.095996,-0.497891,7.047409,-23.339066,18.399109,,,,,,
1478385961.73,2.612328,1.057496,-2.209065,2.169955,-2.746662,-2.357693,0.247933,-0.871129,0.423868,-0.619103,0.596410,-0.660288,10.046707,-23.188126,19.328674,,,,,,
1478385961.75,2.517722,0.973206,-2.143641,3.192543,-1.508898,-4.646412,0.328691,-0.826694,0.456662,-1.043718,1.125980,-0.481472,13.951065,-21.836960,20.488647,,,,,,
1478385961.77,2.443280,0.848300,-2.081650,4.023999,-1.671933,-5.332410,0.425141,-0.750157,0.506477,-1.445862,-0.242747,-0.742424,13.951065,-21.836960,20.488647,,,,,,
1478385961.79,2.399679,0.723598,-2.067468,4.378687,-1.112599,-4.179564,0.506389,-0.662085,0.552462,-0.677470,-1.707696,-0.193300,18.085922,-18.909760,22.696228,,,,,,
1478385961.81,2.371978,0.598901,-2.062633,4.317698,-1.879648,-4.589917,0.574748,-0.563735,0.593184,-0.048564,-2.724580,0.117036,22.226761,-14.782928,24.525208,,,,,,
1478385961.83,2.311902,0.494731,-2.045991,2.393772,-2.503340,-3.853494,0.649267,-0.474795,0.594157,0.299799,-3.002393,-0.009760,24.794510,-10.206055,26.412170,,,,,,
1478385961.85,2.259337,0.419650,-2.034026,2.256686,-2.373341,-2.666358,0.705174,-0.407441,0.580277,-0.275670,-1.515838,-0.883866,32.618820,-4.505142,27.298340,,,,,,
1478385961.87,2.230671,0.366499,-2.055613,2.258169,-1.306678,-0.830009,0.737599,-0.358349,0.572306,-0.768193,-1.157398,-0.125406,32.618820,-4.505142,27.298340,,,,,,
1478385961.89,2.232211,0.347615,-2.066864,0.087961,0.654960,-0.306998,0.741925,-0.340656,0.577495,-0.887677,-0.843441,0.392277,35.174667,-3.079758,27.694641,,,,,,
1478385961.91,2.260859,0.361118,-2.044006,-1.906127,2.409862,0.006340,0.721465,-0.353320,0.595527,-1.066772,-0.540189,0.248436,35.846024,-3.754364,28.078308,,,,,,
1478385961.93,2.308367,0.401492,-2.010163,-2.881335,3.284953,0.851104,0.681250,-0.390792,0.619015,-0.756995,-0.176362,0.017017,34.861374,-5.779007,28.449524,,,,,,
1478385961.95,2.356959,0.479821,-1.977309,-4.351583,2.806237,2.504352,0.626779,-0.461620,0.627738,-0.461374,0.047695,0.129708,29.207138,-12.153671,28.787109,,,,,,
1478385961.97,2.390388,0.599980,-1.968918,-4.488116,1.293701,4.740436,0.563316,-0.564626,0.603219,-0.119194,0.282994,0.101630,29.207138,-12.153671,28.787109,,,,,,
1478385961.99,2.426484,0.737705,-2.004242,-4.140971,0.581356,5.921824,0.485227,-0.672592,0.558727,0.195208,0.591369,0.259557,26.190872,-16.280182,27.269409,,,,,,
1478385962.01,2.476278,0.875327,-2.049971,-4.451948,0.908661,5.280061,0.395537,-0.767753,0.504089,0.389299,0.935066,0.080674,22.123489,-20.706863,25.591980,,,,,,
1478385962.03,2.522981,1.009807,-2.092619,-4.562479,0.427247,5.123623,0.308523,-0.846729,0.433432,0.449365,1.278980,0.101984,18.734360,-24.533905,23.544556,,,,,,
