timestamp(unix),attitude_roll(radians),attitude_pitch(radians),attitude_yaw(radians),rotation_rate_x(radians/s),rotation_rate_y(radians/s),rotation_rate_z(radians/s),gravity_x(G),gravity_y(G),gravity_z(G),user_acc_x(G),user_acc_y(G),user_acc_z(G),magnetic_field_x(microteslas),magnetic_field_y(microteslas),magnetic_field_z(microteslas),latitude(degree),longitude(degree),altitude(meter),speed(m/s),course(degree),timestamp(unix)
1478386139.21,-2.027220,1.561136,0.657653,0.002552,0.064659,-0.022354,-0.008671,-0.999953,0.004258,0.001744,0.036071,-0.004761,14.256058,-35.631668,25.783081,,,,,,
,,,,,,,,,,,,,,,,37.354421,-122.033416,36.085968,0.000000,255.937500,1478386356.99
,,,,,,,,,,,,,,,,37.354421,-122.033416,36.085968,0.000000,255.937500,1478386356.00
1478386139.23,-2.079889,1.561797,0.710139,0.022085,-0.037496,-0.004441,-0.007858,-0.999960,0.004386,0.022873,-0.006205,0.001031,14.181259,-35.707047,25.407532,,,,,,
1478386139.25,-2.146204,1.561580,0.774734,0.035084,-0.095936,0.012515,-0.007732,-0.999958,0.005015,-0.001515,0.011768,0.004735,13.956039,-35.556442,26.004822,,,,,,
1478386139.27,-2.163408,1.560600,0.791473,-0.007818,0.005079,-0.004408,-0.008458,-0.999948,0.005695,-0.018108,0.009515,0.005352,13.956039,-35.556442,26.004822,,,,,,
,,,,,,,,,,,,,,,,37.354421,-122.033416,35.919891,0.000000,255.937500,1478386357.00
1478386139.29,-2.139340,1.560632,0.768573,0.004698,0.080727,-0.018065,-0.008565,-0.999948,0.005472,-0.007106,0.021921,-0.007410,14.181839,-35.406525,25.931702,,,,,,
1478386139.31,-2.159120,1.560922,0.789533,0.017624,0.041419,-0.007467,-0.008214,-0.999951,0.005480,0.003484,0.009366,-0.004503,14.255264,-35.781601,25.858521,,,,,,
1478386139.33,-2.187400,1.560644,0.818207,0.015601,0.012714,0.002067,-0.008283,-0.999948,0.005871,-0.003772,0.016397,0.002369,14.330582,-35.706604,25.859070,,,,,,
1478386139.35,-2.198397,1.560237,0.829221,0.024186,-0.009740,-0.004389,-0.008547,-0.999944,0.006200,-0.004560,0.016790,-0.002325,13.278580,-36.081390,26.074646,,,,,,
1478386139.37,-2.269680,1.560185,0.899629,0.040335,-0.065248,-0.010925,-0.008124,-0.999944,0.006827,0.004812,0.004506,-0.005194,13.278580,-36.081390,26.074646,,,,,,
1478386139.39,-2.319045,1.559721,0.947582,0.052068,-0.061785,0.007268,-0.008116,-0.999939,0.007535,0.000487,0.018829,-0.003903,14.329788,-35.856522,25.934509,,,,,,
1478386139.41,-2.364239,1.558572,0.992386,0.037939,0.018019,-0.007494,-0.008574,-0.999925,0.008713,-0.013307,0.007112,0.009735,13.955917,-35.556381,26.079834,,,,,,
1478386139.43,-2.399756,1.558039,1.029420,0.024927,0.098737,-0.036197,-0.008619,-0.999919,0.009405,-0.016878,0.004283,0.004511,14.704117,-35.931290,26.163452,,,,,,
1478386139.45,-2.462382,1.558234,1.093668,0.035708,0.056015,-0.042706,-0.007891,-0.999921,0.009774,-0.002256,0.009458,-0.011926,13.504715,-35.781235,26.226013,,,,,,
1478386139.47,-2.551027,1.557930,1.182540,0.044489,-0.017419,-0.029003,-0.007164,-0.999917,0.010687,0.000847,0.020547,0.003611,13.504715,-35.781235,26.226013,,,,,,
1478386139.49,-2.617150,1.557090,1.247853,0.038223,-0.048198,-0.013072,-0.006863,-0.999906,0.011864,-0.000721,0.009824,0.010429,14.180923,-35.556381,26.082092,,,,,,
1478386139.51,-2.679728,1.556298,1.309884,0.011348,0.015423,-0.038586,-0.006461,-0.999895,0.012979,-0.004755,0.011110,0.025931,14.556931,-35.481827,25.635620,,,,,,
1478386139.53,-2.694384,1.556530,1.325028,0.025130,0.044518,-0.019248,-0.006169,-0.999898,0.012863,-0.009883,0.024190,-0.013596,13.506180,-35.406082,26.374878,,,,,,
1478386139.55,-2.733053,1.556161,1.364598,0.001718,0.034749,-0.025727,-0.005814,-0.999893,0.013431,0.008408,0.014175,0.011334,13.957840,-35.106293,26.153503,,,,,,
1478386139.57,-2.759024,1.556278,1.391422,0.008095,0.045611,-0.011797,-0.005419,-0.999895,0.013468,-0.002607,0.004457,-0.007929,13.957840,-35.106293,26.153503,,,,,,
1478386139.59,-2.787060,1.556231,1.420514,0.003868,0.046479,-0.027878,-0.005056,-0.999894,0.013659,-0.001734,0.013612,0.002393,14.181625,-35.331146,26.306458,,,,,,
1478386139.61,-2.783433,1.556301,1.417399,0.017808,0.030856,-0.000116,-0.005081,-0.999895,0.013575,-0.006058,0.020616,-0.011225,13.430710,-35.481003,26.449341,,,,,,
1478386139.63,-2.792566,1.555713,1.427546,-0.002505,0.050979,-0.006506,-0.005158,-0.999886,0.014174,-0.004607,0.016442,0.019228,13.505142,-35.555862,26.600342,,,,,,
1478386139.65,-2.822311,1.555842,1.458787,-0.003741,0.092299,-0.030969,-0.004694,-0.999888,0.014198,0.001001,-0.017232,0.000954,13.881973,-35.331375,26.078430,,,,,,
1478386139.67,-2.887719,1.556348,1.525987,-0.014345,0.071856,-0.041729,-0.003629,-0.999896,0.013985,0.010907,-0.004682,-0.004586,13.881973,-35.331375,26.078430,,,,,,
1478386139.69,-2.994643,1.557871,1.632735,-0.011937,-0.038664,-0.093315,-0.001893,-0.999916,0.012786,0.018326,0.000451,-0.021072,14.031265,-35.481369,26.080383,,,,,,
1478386139.71,3.113014,1.558561,1.806589,0.072366,-0.098427,-0.120043,0.000350,-0.999925,0.012230,-0.015898,-0.006834,-0.032372,13.655380,-35.556000,26.451843,,,,,,
1478386139.73,2.891643,1.556071,2.026183,0.172193,-0.068741,-0.256543,0.003642,-0.999892,0.014267,-0.033961,-0.008791,-0.055222,14.332291,-35.256378,26.082703,,,,,,
1478386139.75,2.649338,1.548454,2.268163,0.334870,-0.010982,-0.385421,0.010559,-0.999750,0.019688,-0.019576,-0.025884,-0.074559,14.558304,-34.880920,26.533875,,,,,,
1478386139.77,2.545414,1.538008,2.371492,0.516011,-0.043818,-0.421521,0.018407,-0.999462,0.027127,-0.040578,0.035672,-0.101087,14.558304,-34.880920,26.533875,,,,,,
1478386139.79,2.533792,1.523024,2.382706,0.646808,0.009570,-0.459609,0.027271,-0.998859,0.039202,-0.057682,0.064945,-0.071886,14.709091,-34.730988,26.459900,,,,,,
1478386139.81,2.528824,1.506478,2.389646,0.704816,0.160606,-0.518924,0.036966,-0.997932,0.052580,-0.038370,0.012932,-0.036360,14.635239,-34.205170,27.282593,,,,,,
1478386139.83,2.534926,1.488291,2.386892,0.774203,0.129184,-0.491111,0.046985,-0.996598,0.067705,-0.024280,0.009599,-0.039751,16.137894,-33.454712,27.745422,,,,,,
1478386139.85,2.534611,1.469305,2.386646,0.877204,-0.114134,-0.524725,0.057790,-0.994854,0.083219,0.063563,0.003308,-0.095426,16.365250,-32.704041,28.420349,,,,,,
1478386139.87,2.542199,1.447892,2.371856,0.970162,-0.531102,-0.531053,0.069161,-0.992457,0.101224,0.080909,0.011271,-0.105298,16.365250,-32.704041,28.420349,,,,,,
1478386139.89,2.552772,1.424674,2.344712,1.123954,-0.958979,-0.487088,0.080865,-0.989343,0.121083,0.054862,0.023050,-0.086644,17.042740,-31.878204,29.249695,,,,,,
1478386139.91,2.560249,1.399688,2.314107,1.194089,-1.238422,-0.497351,0.093506,-0.985397,0.142303,0.034241,-0.056580,-0.074477,17.044846,-31.202606,29.847656,,,,,,
1478386139.93,2.558932,1.372828,2.288028,1.309583,-1.410693,-0.572413,0.108222,-0.980468,0.164226,-0.003653,-0.121934,-0.121303,20.052719,-29.176758,30.696716,,,,,,
1478386139.95,2.549404,1.342442,2.267629,1.422558,-1.501775,-0.728457,0.126358,-0.974040,0.187828,-0.028961,-0.169194,-0.151024,21.707504,-28.051590,30.859924,,,,,,
1478386139.97,2.531031,1.308781,2.254957,1.495990,-1.548057,-0.873762,0.148508,-0.965870,0.212228,-0.059457,-0.161175,-0.279977,21.707504,-28.051590,30.859924,,,,,,
1478386139.99,2.507618,1.273782,2.248237,1.456055,-1.439595,-0.982512,0.173361,-0.956215,0.235795,-0.090247,-0.177010,-0.320848,22.086349,-26.925766,31.685242,,,,,,
1478386140.01,2.482906,1.239348,2.247878,1.304616,-1.101897,-1.072663,0.199178,-0.945572,0.257335,-0.122823,-0.183670,-0.415264,23.670120,-25.050980,31.470459,,,,,,
1478386140.03,2.457089,1.207626,2.258996,1.016208,-0.579134,-1.171090,0.224614,-0.934775,0.275216,-0.130803,-0.131280,-0.491295,25.850815,-23.775970,31.488464,,,,,,
1478386140.05,2.430991,1.178944,2.279752,0.763553,-0.224422,-1.234659,0.249110,-0.924203,0.289469,-0.122066,-0.070319,-0.504908,28.635818,-21.375427,32.034119,,,,,,
1478386140.07,2.403300,1.152913,2.307498,0.539212,-0.059556,-1.298701,0.273132,-0.913950,0.300157,-0.051559,-0.085959,-0.443453,28.635818,-21.375427,32.034119,,,,,,
1478386140.09,2.373737,1.128389,2.339169,0.378336,-0.062511,-1.317152,0.297367,-0.903724,0.307987,-0.022693,-0.095178,-0.349522,28.339340,-20.399826,32.628235,,,,,,
1478386140.11,2.343394,1.105467,2.370349,0.321094,-0.136013,-1.288606,0.321326,-0.893674,0.313204,-0.033088,-0.060306,-0.273180,29.995377,-19.125031,32.415955,,,,,,
1478386140.13,2.317953,1.082360,2.398172,0.318323,0.066874,-1.276300,0.344250,-0.883068,0.318878,-0.066631,0.006237,-0.096070,30.299545,-18.225113,32.341309,,,,,,
1478386140.15,2.300434,1.059383,2.426108,0.264533,0.536758,-1.318907,0.364814,-0.872054,0.326240,-0.147910,0.103148,0.138695,30.380722,-16.724747,32.712585,,,,,,
1478386140.17,2.295161,1.035483,2.452737,0.338331,1.098236,-1.326849,0.382032,-0.860109,0.338030,-0.198271,0.232011,0.380568,30.380722,-16.724747,32.712585,,,,,,
1478386140.19,2.304465,1.011151,2.469419,0.619895,1.111822,-1.081654,0.394301,-0.847443,0.355480,-0.262709,0.426850,0.537067,30.835922,-15.524597,32.863525,,,,,,
1478386140.21,2.328942,0.985072,2.458957,1.473593,0.573777,-0.563464,0.401397,-0.833312,0.380094,-0.269988,0.612319,0.696215,30.464737,-14.549225,33.231873,,,,,,
1478386140.23,2.372126,0.949849,2.414216,2.463712,0.229722,-0.284898,0.404793,-0.813328,0.417901,-0.154015,0.709217,0.711189,30.618118,-13.423096,34.355072,,,,,,
1478386140.25,2.425538,0.907174,2.360671,2.711144,0.811520,-0.254020,0.404334,-0.787766,0.464692,-0.003516,1.024033,0.584807,30.175003,-11.547058,35.395020,,,,,,
1478386140.27,2.483758,0.865314,2.306378,2.850816,0.685788,0.253378,0.396436,-0.761299,0.513091,0.028598,1.591240,0.304764,30.175003,-11.547058,35.395020,,,,,,
1478386140.29,2.513135,0.817709,2.243144,2.279423,-2.212155,0.101242,0.402060,-0.729581,0.553226,-0.118140,0.911435,-1.352543,28.840012,-7.570129,37.319733,,,,,,
,,,,,,,,,,,,,,,,37.354421,-122.033416,35.570129,0.000000,255.937500,1478386358.00
1478386140.31,2.517305,0.780907,2.224027,1.876735,1.108587,-1.208757,0.415170,-0.703924,0.576303,0.571814,-0.822031,0.947134,30.203140,-4.645126,37.324585,,,,,,
1478386140.33,2.545227,0.734191,2.244875,1.330237,2.245977,-1.585868,0.416946,-0.669987,0.614226,0.707917,-2.422603,0.151200,30.061386,-2.694763,37.692322,,,,,,
1478386140.35,2.578925,0.699159,2.240435,1.753745,0.903418,-0.569550,0.408289,-0.643574,0.647388,-0.135172,0.378865,-0.056675,27.818192,-0.593002,39.463562,,,,,,
1478386140.37,2.577629,0.666862,2.221315,1.700158,-1.336926,0.031058,0.420024,-0.618523,0.664085,-0.448955,0.649666,-0.063514,27.818192,-0.593002,39.463562,,,,,,
1478386140.39,2.575534,0.642350,2.195905,1.396973,-0.427504,0.146285,0.429418,-0.599078,0.675800,0.057292,0.117114,0.422177,27.300186,1.132538,39.978241,,,,,,
1478386140.41,2.584639,0.626922,2.184525,0.693547,0.261648,-0.007964,0.428082,-0.586654,0.687446,0.399524,-0.596802,0.305962,28.740250,4.206696,39.158417,,,,,,
1478386140.43,2.592458,0.620865,2.173207,0.358633,-0.104750,0.332340,0.424541,-0.581739,0.693790,0.065343,-0.357073,0.388912,28.517258,4.807144,39.604401,,,,,,
1478386140.45,2.590089,0.626327,2.168321,-0.490976,-0.277145,0.280172,0.424512,-0.586173,0.690066,0.094760,-0.340981,0.538862,27.993607,5.107147,39.598267,,,,,,
1478386140.47,2.581653,0.650685,2.175766,-1.578555,-0.184428,0.519999,0.422607,-0.605731,0.674160,0.372299,-0.760617,0.674198,27.993607,5.107147,39.598267,,,,,,
1478386140.49,2.573280,0.691635,2.183364,-1.922079,-0.111196,1.039924,0.414532,-0.637797,0.649136,0.240558,-1.474538,0.436008,28.892929,4.806702,39.158142,,,,,,
1478386140.51,2.579153,0.730352,2.178300,-1.292214,0.179505,1.148662,0.397240,-0.667132,0.630187,0.052238,-2.311429,-0.642455,29.027084,1.206497,38.945251,,,,,,
1478386140.53,2.561704,0.755817,2.182498,-1.173506,-1.714633,0.217336,0.398736,-0.685884,0.608747,-0.085366,-2.808394,-1.722807,27.966843,-1.043442,39.016418,,,,,,
1478386140.55,2.496418,0.776773,2.188956,-0.832187,-3.341282,0.525434,0.428862,-0.700981,0.569827,-0.396940,-1.700691,-0.682376,29.764236,-2.094849,37.612549,,,,,,
1478386140.57,2.457978,0.764316,2.182847,1.615567,-1.325150,-0.921021,0.455924,-0.692044,0.559651,-0.385962,-0.694202,0.232829,29.764236,-2.094849,37.612549,,,,,,
1478386140.59,2.451449,0.695025,2.190027,2.837034,0.558278,-3.444808,0.488970,-0.640405,0.592276,-0.725084,0.121560,0.034937,32.687820,-3.071838,35.619720,,,,,,
1478386140.61,2.456894,0.551756,2.228149,5.509906,2.151534,-6.949815,0.538589,-0.524183,0.659662,-1.133987,0.086790,-0.298120,33.522354,-1.272797,34.647736,,,,,,
1478386140.63,2.472579,0.385201,2.277633,4.987358,1.571712,-6.461914,0.574765,-0.375746,0.726953,-1.251324,-2.133303,-0.920678,30.725571,10.802948,35.408447,,,,,,
1478386140.65,2.492070,0.228528,2.298367,5.752583,0.720392,-5.253470,0.589082,-0.226544,0.775667,-0.433000,-3.117267,-1.021960,29.033127,18.078064,35.519714,,,,,,
1478386140.67,2.462038,0.080403,2.310630,5.207447,-2.736246,-4.750016,0.626416,-0.080316,0.775340,0.129474,-3.094077,-1.374171,29.033127,18.078064,35.519714,,,,,,
1478386140.69,2.381968,-0.049292,2.304161,5.034993,-4.538608,-3.627020,0.687813,0.049272,0.724214,0.317635,-2.314150,-1.403566,26.667618,25.050995,33.450134,,,,,,
1478386140.71,2.282767,-0.147330,2.279039,3.752497,-4.763541,-1.958858,0.748874,0.146798,0.646249,-0.325657,-2.585305,-0.709588,26.248093,30.522079,29.529541,,,,,,
1478386140.73,2.207466,-0.198278,2.249007,2.149213,-2.512398,-0.693648,0.788326,0.196981,0.582872,-0.705578,-2.342352,-0.218447,29.295547,38.012939,20.387573,,,,,,
1478386140.75,2.193593,-0.211667,2.236389,0.024553,0.644704,0.108384,0.794122,0.210090,0.570291,-1.127710,-1.430900,0.280051,29.978622,38.985458,17.916443,,,,,,
1478386140.77,2.242146,-0.181274,2.258662,-2.906978,2.933807,0.857476,0.770154,0.180283,0.611851,-1.138104,-0.951630,0.406536,29.978622,38.985458,17.916443,,,,,,
1478386140.79,2.319505,-0.094783,2.309837,-5.884744,3.655552,2.174851,0.729281,0.094641,0.677638,-0.949267,-0.600287,0.367650,29.675583,38.686584,19.039307,,,,,,
1478386140.81,2.380811,0.060217,2.364223,-8.074286,2.287726,4.570161,0.688238,-0.060181,0.722984,-0.646109,-0.272949,0.143379,28.157028,35.990860,23.307190,,,,,,
1478386140.83,2.390439,0.262638,2.370941,-7.007530,-0.547965,7.863504,0.659079,-0.259629,0.705838,-0.109350,0.222337,0.026095,29.206192,22.275284,32.733826,,,,,,
1478386140.85,2.394618,0.470402,2.331249,-5.934474,-0.091047,8.348487,0.605627,-0.453244,0.654053,0.348154,0.482694,0.718658,31.486313,12.751602,34.060242,,,,,,
1478386140.87,2.422638,0.660603,2.298003,-7.143935,0.576709,6.741313,0.520044,-0.613593,0.594187,0.568045,0.715277,-0.514505,31.486313,12.751602,34.060242,,,,,,
1478386140.89,2.420344,0.857268,2.308178,-7.411248,-0.020459,6.148327,0.432185,-0.756058,0.491521,0.383977,1.050827,0.229762,31.820450,3.902313,34.765076,,,,,,
1478386140.91,2.415498,1.048696,2.305455,-6.870048,-0.476177,6.598889,0.331116,-0.866774,0.372916,0.508087,1.413740,0.875635,30.126236,-6.073135,34.328094,,,,,,
1478386140.93,2.423089,1.239344,2.287017,-6.897741,-0.238436,6.410384,0.214208,-0.945571,0.244971,0.878504,1.479262,2.086236,28.968033,-14.325729,31.716248,,,,,,
1478386140.95,2.506658,1.395493,2.217025,-4.414577,1.395364,5.016360,0.103445,-0.984674,0.140417,1.613520,0.862848,3.355891,22.166824,-28.133041,24.414734,,,,,,
1478386140.97,2.899846,1.471703,1.861070,-0.959526,1.916324,2.885890,0.023684,-0.995094,0.096054,2.171873,0.142509,3.554122,22.166824,-28.133041,24.414734,,,,,,
1478386140.99,3.113215,1.451509,1.663471,1.773865,0.629679,0.094251,0.003377,-0.992894,0.118957,3.067287,0.336293,3.140320,17.054153,-31.434509,22.948486,,,,,,
1478386141.01,3.130379,1.413910,1.659916,2.497205,-0.192291,-0.245442,0.001752,-0.987719,0.156234,2.612796,1.905153,1.983979,15.403183,-31.584305,23.157410,,,,,,
1478386141.03,2.894645,1.325919,1.856476,6.426020,-1.310122,-4.641445,0.059263,-0.970167,0.235083,2.149706,2.079313,4.587244,15.630203,-30.607727,24.731750,,,,,,
1478386141.05,2.711784,1.146767,2.083695,3.039823,1.251379,-5.957654,0.171444,-0.911438,0.374015,0.441288,-6.433807,-2.463340,20.984909,-21.675720,31.733459,,,,,,
1478386141.07,2.695132,1.041000,2.152619,3.370202,2.797252,-1.897096,0.218201,-0.862910,0.455823,0.949188,0.807322,1.232608,20.984909,-21.675720,31.733459,,,,,,
1478386141.09,2.765929,0.971493,2.107218,3.618787,-0.434691,-0.162957,0.206951,-0.825729,0.524732,0.787449,1.758071,-0.545270,20.925583,-17.247879,34.569672,,,,,,
1478386141.11,2.733602,0.910936,2.116697,2.229221,-0.930789,-1.505473,0.243220,-0.790078,0.562690,0.795736,-1.100593,1.277550,19.661728,-14.171097,36.347778,,,,,,
1478386141.13,2.730988,0.880613,2.113967,0.844528,-0.089326,-0.311071,0.254139,-0.771129,0.583758,0.569057,-0.750660,0.910703,21.699112,-11.170349,37.109161,,,,,,
1478386141.15,2.717262,0.875898,2.122864,-0.265827,-0.401983,-0.499768,0.263622,-0.768119,0.583521,0.255238,-1.291329,0.613043,22.081100,-9.444824,37.632782,,,,,,
1478386141.17,2.706525,0.873379,2.144165,0.080012,0.943938,-0.671753,0.270687,-0.766503,0.582410,0.110539,-2.842017,-0.227796,22.081100,-9.444824,37.632782,,,,,,
1478386141.19,2.720659,0.864907,2.164409,0.147104,1.145721,-0.952077,0.265072,-0.761035,0.592083,0.172688,-3.320096,-1.873028,21.930557,-9.594894,37.556702,,,,,,
1478386141.21,2.673197,0.841006,2.196099,0.775953,-2.656100,-1.838616,0.300991,-0.745314,0.594904,-0.342007,-2.867754,-2.257914,21.330307,-9.519531,37.925476,,,,,,
1478386141.23,2.575258,0.776329,2.227939,3.572970,-3.770132,-3.065500,0.382818,-0.700665,0.602096,-0.600469,-1.388599,-0.771972,22.385849,-8.394821,37.632660,,,,,,
1478386141.25,2.513260,0.665877,2.241627,4.263476,-1.891991,-3.813438,0.462229,-0.617749,0.636184,-0.711969,-0.599460,-0.037933,26.601517,-5.170609,36.840149,,,,,,
1478386141.27,2.469651,0.536341,2.264926,5.104506,-1.746967,-5.244330,0.535097,-0.510994,0.672723,-1.847948,-1.236381,-1.051202,26.601517,-5.170609,36.840149,,,,,,
,,,,,,,,,,,,,,,,37.354421,-122.033416,35.299347,0.000000,255.937500,1478386359.00
1478386141.29,2.397193,0.393933,2.286859,4.599627,-3.417033,-5.269034,0.625636,-0.383823,0.679161,-1.781642,-3.094800,-1.341362,30.482315,6.602509,34.968628,,,,,,
1478386141.31,2.330416,0.262172,2.281792,4.958626,-3.442400,-3.932952,0.700321,-0.259179,0.665114,-1.243457,-2.965858,-1.365020,32.689133,12.975418,32.871582,,,,,,
1478386141.33,2.251163,0.148381,2.260856,4.230853,-4.805501,-3.472136,0.768801,-0.147837,0.622166,-1.251726,-1.851263,-1.225178,33.921951,19.121964,29.415466,,,,,,
1478386141.35,2.152715,0.057205,2.237762,3.189820,-4.672755,-2.665854,0.834043,-0.057173,0.548729,-1.126523,-2.072130,-1.111885,35.299088,23.843063,25.515076,,,,,,
1478386141.37,2.097678,-0.004965,2.223175,1.784408,-1.340359,-2.064021,0.864369,0.004965,0.502834,-1.059757,-2.544546,-0.099666,35.299088,23.843063,25.515076,,,,,,
1478386141.39,2.116644,-0.038904,2.222762,0.064839,2.143804,-1.076616,0.854041,0.038894,0.518750,-1.016928,-2.065551,0.342441,37.275497,28.113266,20.722107,,,,,,
1478386141.41,2.188410,-0.027360,2.258337,-2.989823,4.047054,-0.163194,0.814958,0.027356,0.578874,-0.969407,-0.873639,0.408232,36.168716,31.636673,19.125427,,,,,,
1478386141.43,2.276377,0.044500,2.326293,-6.039562,4.417279,1.407373,0.760482,-0.044485,0.647834,-0.767745,-0.448069,0.493325,33.531387,30.215622,23.078308,,,,,,
1478386141.45,2.325812,0.194568,2.399935,-8.551764,1.617039,4.319571,0.714519,-0.193343,0.672369,-0.552532,-0.167329,0.196619,31.253677,25.871094,28.543579,,,,,,
1478386141.47,2.323754,0.390046,2.408646,-5.771860,-1.028874,8.135671,0.674865,-0.380231,0.632441,-0.024612,0.529478,0.157964,31.253677,25.871094,28.543579,,,,,,
1478386141.49,2.316402,0.587345,2.366162,-5.172927,-1.086995,8.175016,0.611556,-0.554153,0.564724,0.152314,0.882766,0.565510,31.436325,17.699783,32.244873,,,,,,
1478386141.51,2.316483,0.763012,2.346013,-5.995556,-0.533813,6.414346,0.530954,-0.691101,0.490374,-0.042215,0.670624,-0.326082,34.282364,0.074570,32.026245,,,,,,
1478386141.53,2.296696,0.951321,2.373609,-7.226957,0.498358,6.553938,0.434238,-0.814183,0.385413,0.055294,0.795522,0.559167,32.895340,-8.476395,31.063049,,,,,,
1478386141.55,2.266191,1.160223,2.415066,-7.628477,0.064350,7.775390,0.306456,-0.916892,0.255721,0.341142,1.160956,1.450806,30.686539,-16.879089,28.366089,,,,,,
1478386141.57,2.292860,1.375100,2.385179,-5.775256,0.205201,8.535444,0.145924,-0.980912,0.128519,0.898525,1.588472,2.661688,30.686539,-16.879089,28.366089,,,,,,
1478386141.59,3.135441,1.522032,1.579107,-3.247091,2.925222,6.138032,0.000300,-0.998811,0.048744,1.644994,0.568025,3.510308,26.830063,-25.132858,24.602295,,,,,,
1478386141.61,-1.806934,1.491436,0.298599,0.198870,2.757348,2.179719,-0.077077,-0.996853,0.018547,2.993138,-0.690281,4.004509,20.882156,-31.436493,20.961792,,,,,,
1478386141.63,-1.861449,1.470404,0.408424,0.270440,2.051939,0.814596,-0.096020,-0.994965,0.028722,4.475888,0.476807,1.451091,10.817337,-34.886963,20.496460,,,,,,
1478386141.65,-2.504407,1.451911,1.013266,6.700473,-1.694714,-4.317225,-0.070563,-0.992941,0.095332,5.163626,2.551489,7.740010,10.970352,-34.061508,20.945557,,,,,,
1478386141.67,2.891141,1.270007,2.016153,2.720262,5.013350,-7.696869,0.073429,-0.955103,0.287031,0.128338,-5.261496,-4.931135,10.970352,-34.061508,20.945557,,,,,,
1478386141.69,2.790721,1.115622,2.134248,5.526053,-1.837635,-2.160379,0.151104,-0.898184,0.412835,1.155933,-0.004877,1.919212,14.134079,-28.880112,27.336670,,,,,,
1478386141.71,2.837437,1.033649,2.070659,4.444901,-1.249139,0.540330,0.153244,-0.859172,0.488201,0.930069,1.747066,0.202519,15.728226,-22.950089,32.359741,,,,,,
1478386141.73,2.805532,0.970856,2.077790,2.463775,-0.656322,-2.184894,0.186186,-0.825369,0.533010,0.743913,0.514624,1.503534,18.307632,-15.071045,36.411926,,,,,,
1478386141.75,2.785383,0.925801,2.114648,1.080841,0.869109,-1.173445,0.209651,-0.799103,0.563455,0.347264,-2.282318,1.022330,19.216843,-12.820450,37.014282,,,,,,
1478386141.77,2.780443,0.913646,2.141768,0.202976,0.980077,-0.989830,0.215848,-0.791736,0.571457,0.516650,-1.594906,0.589416,19.216843,-12.820450,37.014282,,,,,,
1478386141.79,2.786539,0.895060,2.167155,0.491268,1.384429,-1.086511,0.217439,-0.780247,0.586460,0.492873,-2.950283,-0.863468,19.069839,-11.919769,37.685089,,,,,,
1478386141.81,2.779147,0.878582,2.185900,1.117374,-0.993077,-0.745793,0.226297,-0.769834,0.596779,0.538642,-3.569826,-1.902443,17.869492,-11.844254,38.197876,,,,,,
1478386141.83,2.698233,0.853100,2.212476,1.406902,-3.750045,-1.870443,0.282117,-0.753323,0.594066,-0.204968,-2.216251,-1.621669,17.196701,-11.243973,38.489349,,,,,,
1478386141.85,2.612371,0.764893,2.235845,4.291835,-2.768622,-3.153378,0.364236,-0.692460,0.622761,-0.258859,-0.636840,0.475154,23.892227,-7.120255,37.193878,,,,,,
1478386141.87,2.587809,0.633901,2.253668,5.738742,0.374211,-4.658307,0.423737,-0.592292,0.685300,-0.727753,-0.469948,0.420474,23.892227,-7.120255,37.193878,,,,,,
1478386141.89,2.548965,0.481235,2.294205,4.660501,-2.995754,-5.664154,0.495106,-0.462874,0.735267,-1.701694,-2.265016,-1.276801,25.943405,-1.270172,37.271851,,,,,,
1478386141.91,2.435223,0.339788,2.317585,5.484259,-5.624022,-4.845158,0.611966,-0.333287,0.717229,-1.435742,-3.356135,-1.970448,25.375290,6.005402,37.844360,,,,,,
1478386141.93,2.367868,0.208122,2.319424,4.445771,-2.433182,-4.237733,0.683725,-0.206623,0.699877,-1.335656,-2.104382,-1.571596,29.382553,12.227554,35.015717,,,,,,
1478386141.95,2.299881,0.094629,2.309757,4.241637,-4.201456,-3.555957,0.742448,-0.094488,0.663207,-1.457048,-1.305171,-1.588210,32.369858,23.921112,28.560547,,,,,,
1478386141.97,2.210600,-0.007106,2.288253,3.808336,-4.395008,-3.097822,0.802193,0.007106,0.597023,-0.994011,-1.703593,-1.165931,32.369858,23.921112,28.560547,,,,,,
1478386141.99,2.137616,-0.088132,2.265165,2.997280,-2.943230,-2.355891,0.840338,0.088018,0.534868,-1.040854,-2.493170,-0.499697,32.696182,28.341827,24.275574,,,,,,
1478386142.01,2.100502,-0.136053,2.235990,2.082683,-1.003042,-0.716390,0.854981,0.135633,0.500610,-1.178834,-3.147917,-0.065125,34.068802,32.012772,20.228333,,,,,,
1478386142.03,2.099764,-0.153129,2.226227,0.046169,0.717048,-0.356212,0.853226,0.152531,0.498738,-1.279343,-1.821629,0.233928,34.683945,34.409851,17.302307,,,,,,
1478386142.05,2.139699,-0.133037,2.242993,-1.977357,2.548064,1.066306,0.835048,0.132645,0.533948,-1.147349,-1.272568,0.196902,34.238541,35.083786,16.245728,,,,,,
1478386142.07,2.209754,-0.057126,2.271031,-4.120348,3.711009,3.056248,0.801408,0.057095,0.595386,-0.718553,-1.010327,0.082485,34.238541,35.083786,16.245728,,,,,,
1478386142.09,2.280703,0.074383,2.300755,-5.870560,3.251468,4.883215,0.756326,-0.074315,0.649961,-0.362389,-0.812526,0.168765,32.713638,31.489639,22.091309,,,,,,
1478386142.11,2.324361,0.257519,2.312804,-6.947011,1.614084,7.323525,0.705207,-0.254682,0.661680,-0.202643,-0.690188,0.317110,33.133682,26.319077,26.536011,,,,,,
1478386142.13,2.348062,0.477350,2.298385,-7.101560,0.696347,8.797291,0.633150,-0.459427,0.622935,-0.045076,-0.328217,0.316793,33.990555,17.997864,30.319580,,,,,,
1478386142.15,2.380707,0.693096,2.264462,-6.603701,0.657702,8.265976,0.530461,-0.638922,0.557126,0.136989,-0.091944,0.014575,34.392929,8.024704,32.153442,,,,,,
1478386142.17,2.407452,0.906640,2.242433,-7.713128,0.555494,7.739170,0.412954,-0.787437,0.457616,0.432124,-0.437676,0.505961,34.392929,8.024704,32.153442,,,,,,
1478386142.19,2.438412,1.130448,2.201834,-7.658391,-0.840335,8.520716,0.275636,-0.904603,0.325142,0.654387,-0.554549,0.934807,31.230362,-11.851547,30.906555,,,,,,
1478386142.21,2.595120,1.353438,2.002336,-6.863914,-2.018268,9.356501,0.112069,-0.976470,0.184244,1.298911,-0.319809,1.916937,27.444138,-21.080093,27.371338,,,,,,
1478386142.23,-2.205870,1.478110,0.500621,-5.488443,1.935058,9.526827,-0.074508,-0.995708,0.054906,4.094360,-0.511510,4.186839,22.991226,-29.035355,22.100647,,,,,,
1478386142.25,-1.431292,1.373529,-0.163801,-2.669217,6.715140,2.622573,-0.194087,-0.980606,-0.027253,5.283107,0.746338,3.340607,16.070847,-34.964539,17.924194,,,,,,
1478386142.27,-1.207916,1.366920,-0.309474,-0.426378,1.920705,-0.301370,-0.189282,-0.979289,-0.071869,3.284100,2.199199,2.454178,16.070847,-34.964539,17.924194,,,,,,
1478386142.29,-1.285011,1.376866,-0.240232,1.213318,-1.815628,-1.113317,-0.184901,-0.981254,-0.054329,2.979380,2.277321,4.875206,8.113937,-37.216705,15.751465,,,,,,
,,,,,,,,,,,,,,,,37.354421,-122.033416,35.273956,0.000000,3.164062,1478386360.00
1478386142.31,-2.525880,1.454395,1.005934,13.204281,1.367505,-9.496458,-0.067075,-0.993233,0.094811,2.946027,-3.203148,6.239127,8.715195,-36.841400,16.056335,,,,,,
1478386142.33,2.778947,1.276995,2.011713,5.992026,1.850516,-5.227576,0.102733,-0.957150,0.270758,1.550343,-6.043857,-0.883887,14.577652,-31.508713,23.748901,,,,,,
1478386142.35,2.809450,1.151577,2.000599,4.637067,0.268645,-0.199879,0.132726,-0.913407,0.384800,1.060359,1.691651,0.196239,18.496201,-25.427841,29.619873,,,,,,
1478386142.37,2.853406,1.086596,1.932368,2.617686,-1.126346,-0.129235,0.132302,-0.885047,0.446304,0.825630,2.057487,1.231674,18.496201,-25.427841,29.619873,,,,,,
1478386142.39,2.793302,1.024068,1.996057,2.283365,0.312360,-3.216805,0.177436,-0.854230,0.488680,0.253060,-1.060657,1.180525,18.961777,-20.999908,32.536255,,,,,,
1478386142.41,2.756266,0.988162,2.057665,0.499723,0.785134,-1.764484,0.206809,-0.835016,0.509880,0.460626,-1.645574,0.988334,21.005356,-16.122665,34.792023,,,,,,
1478386142.43,2.733068,0.964440,2.109744,0.849530,1.302507,-1.798779,0.226387,-0.821730,0.522981,0.658242,-1.733995,0.008987,21.909378,-15.072205,35.247925,,,,,,
1478386142.45,2.739426,0.932784,2.147255,0.937062,2.079893,-1.424677,0.233126,-0.803281,0.548080,0.354597,-2.661319,-0.983841,20.562515,-14.096390,36.056549,,,,,,
1478386142.47,2.733770,0.913223,2.174660,0.907262,-0.449876,-1.208388,0.242408,-0.791478,0.561072,0.513253,-3.074138,-1.670569,20.562515,-14.096390,36.056549,,,,,,
1478386142.49,2.660454,0.883863,2.211464,1.479288,-2.792270,-2.019427,0.293487,-0.773194,0.562171,-0.384582,-2.456847,-1.357764,19.890121,-13.270660,36.797333,,,,,,
1478386142.51,2.586672,0.795692,2.236179,4.148185,-2.538496,-3.314355,0.368703,-0.714348,0.594782,-0.411229,-1.156761,-0.093942,21.096298,-11.920715,36.730377,,,,,,
1478386142.53,2.546974,0.666682,2.251209,5.617419,-0.897042,-4.555201,0.440243,-0.618382,0.650991,-0.769985,-0.532390,-0.117132,26.077652,-5.020920,36.534485,,,,,,
1478386142.55,2.492641,0.515981,2.289304,4.284566,-3.152574,-5.985795,0.525670,-0.493389,0.692992,-1.454457,-1.659535,-1.833480,27.759842,2.104004,36.454895,,,,,,
1478386142.57,2.385661,0.360114,2.309182,5.916727,-5.173251,-5.299381,0.641967,-0.352381,0.680960,-1.666350,-3.260077,-1.931372,27.759842,2.104004,36.454895,,,,,,
1478386142.59,2.311603,0.222260,2.298773,4.708285,-3.608346,-4.343078,0.719773,-0.220434,0.658283,-1.498124,-3.020105,-1.196567,30.266769,8.627289,34.735382,,,,,,
1478386142.61,2.218080,0.101236,2.288922,4.115058,-5.564182,-4.233032,0.793640,-0.101063,0.599935,-1.400940,-2.261791,-1.276311,33.229996,15.898621,31.068237,,,,,,
1478386142.63,2.096667,-0.002678,2.265091,3.619737,-6.093152,-3.249195,0.864884,0.002678,0.501964,-1.366654,-2.109444,-0.987621,35.993637,27.064682,22.137390,,,,,,
1478386142.65,1.998117,-0.074430,2.238913,2.299838,-3.960089,-2.219938,0.907560,0.074362,0.413287,-1.303663,-2.527120,-0.275835,37.667770,30.659363,16.818359,,,,,,
1478386142.67,1.956797,-0.108478,2.221240,0.930691,-0.777670,-0.517979,0.920977,0.108265,0.374274,-1.505556,-2.497929,0.234278,37.667770,30.659363,16.818359,,,,,,
1478386142.69,1.990327,-0.101159,2.227861,-1.400166,3.301659,0.458246,0.908611,0.100987,0.405250,-1.306652,-1.113865,0.558755,38.434647,33.205765,13.218384,,,,,,
1478386142.71,2.107991,-0.056039,2.273577,-4.057592,6.893870,1.403716,0.857799,0.056010,0.510924,-0.938549,-0.622645,0.612458,38.137466,33.805695,13.138611,,,,,,
1478386142.73,2.246109,0.058269,2.344207,-7.733287,6.074069,3.509475,0.779187,-0.058236,0.624080,-0.730694,-0.540305,0.746678,34.424423,29.016693,24.140808,,,,,,
1478386142.75,2.285998,0.271170,2.421824,-10.431884,0.583374,6.991964,0.727374,-0.267858,0.631806,-0.422213,-0.466288,0.713012,33.552841,20.622559,30.007324,,,,,,
1478386142.77,2.286056,0.500144,2.418912,-5.206007,-0.135580,9.400891,0.662455,-0.479552,0.575485,0.261022,0.072860,0.726502,33.552841,20.622559,30.007324,,,,,,
1478386142.79,2.318410,0.699452,2.361738,-5.303551,0.277916,8.493700,0.561128,-0.643799,0.520249,0.361236,0.566818,0.668456,34.548538,9.224548,32.001465,,,,,,
1478386142.81,2.342803,0.894261,2.350483,-7.239865,0.962103,6.702606,0.448605,-0.779746,0.436748,0.578281,0.514900,-0.287319,33.681686,-0.075439,32.020691,,,,,,
1478386142.83,2.316957,1.093809,2.370709,-6.939556,-1.401002,7.189170,0.337121,-0.888382,0.311652,0.556952,0.357590,0.600412,31.842941,-8.926163,31.278870,,,,,,
1478386142.85,2.312260,1.301152,2.338638,-6.314010,-1.473884,8.573666,0.196456,-0.963866,0.179910,0.966157,0.435408,1.787894,26.303177,-25.658157,24.298645,,,,,,
1478386142.87,2.784836,1.498632,1.853084,-5.119057,0.562940,8.534337,0.025181,-0.997397,0.067562,1.764217,0.428412,2.918873,26.303177,-25.658157,24.298645,,,,,,
1478386142.89,-1.473178,1.459468,-0.117461,-2.770491,4.081533,5.332150,-0.110569,-0.993809,-0.010828,2.873890,-0.112987,3.654490,20.956253,-32.112915,19.539551,,,,,,
1478386142.91,-1.198319,1.415288,-0.310807,-1.897645,3.742968,-0.046787,-0.144261,-0.987933,-0.056365,3.682836,-0.216977,1.985870,13.217697,-36.015610,16.848877,,,,,,
1478386142.93,-1.097585,1.404316,-0.373560,0.190000,0.927029,0.742936,-0.147502,-0.986174,-0.075523,2.527064,1.444655,2.412834,9.689499,-37.141846,15.616943,,,,,,
1478386142.95,-1.268236,1.413195,-0.212266,1.970453,-1.332566,-1.016668,-0.149821,-0.987607,-0.046766,2.290339,1.896725,4.340314,8.191422,-36.691788,15.675598,,,,,,
1478386142.97,-2.910111,1.442181,1.465905,13.555410,3.287732,-9.916883,-0.029426,-0.991740,0.124840,2.929496,-3.310307,5.610207,8.191422,-36.691788,15.675598,,,,,,
1478386142.99,2.749175,1.259143,2.182731,6.933413,4.618110,-4.486475,0.117264,-0.951828,0.283325,1.747742,-3.982727,-0.720855,11.797958,-33.235748,21.701294,,,,,,
1478386143.01,2.823655,1.135823,2.095989,5.260230,-1.000189,1.212288,0.131729,-0.906881,0.400267,0.959610,2.436148,-0.082045,15.715378,-27.003693,28.771790,,,,,,
1478386143.03,2.850633,1.068116,2.028984,2.669998,-1.243926,-1.050465,0.138208,-0.876294,0.461526,1.235632,2.023526,1.907035,16.556076,-22.274933,32.515991,,,,,,
1478386143.05,2.790260,1.000086,2.104950,2.189882,1.075868,-2.871921,0.185920,-0.841518,0.507230,-0.075080,-2.052953,0.971728,17.619308,-18.898666,33.791565,,,,,,
1478386143.07,2.776339,0.956947,2.148939,1.119751,0.847330,-1.660684,0.205745,-0.817437,0.538020,0.544133,-0.868369,0.817022,17.619308,-18.898666,33.791565,,,,,,
1478386143.09,2.756540,0.932839,2.191884,0.493875,1.035343,-1.627066,0.223696,-0.803314,0.551949,0.631849,-1.843628,0.368462,18.085220,-14.470963,36.482910,,,,,,
1478386143.11,2.772923,0.905176,2.222712,1.290829,2.515108,-1.187830,0.222548,-0.786534,0.576053,0.405946,-2.866924,-0.539676,18.388046,-13.720596,36.858673,,,,,,
1478386143.13,2.802611,0.885410,2.242149,0.656246,1.234439,-0.912530,0.210480,-0.774175,0.596952,0.398956,-3.217296,-2.247526,17.191849,-12.594788,37.668335,,,,,,
1478386143.15,2.738008,0.854783,2.274139,1.676580,-3.760115,-1.896758,0.257773,-0.754428,0.603648,-0.195502,-2.419461,-1.869410,15.993942,-11.843903,38.554108,,,,,,
1478386143.17,2.649647,0.765020,2.295513,3.810103,-3.119105,-2.767390,0.340732,-0.692551,0.635826,-0.235080,-0.857269,0.016549,15.993942,-11.843903,38.554108,,,,,,
1478386143.19,2.596542,0.660599,2.316952,4.674881,-1.629376,-3.925299,0.409390,-0.613590,0.675209,-0.869900,-0.475689,-0.972389,22.022873,-5.619537,37.920715,,,,,,
1478386143.21,2.535369,0.516486,2.354056,4.907376,-2.555870,-5.713846,0.495448,-0.493828,0.714609,-1.141093,-1.501656,-1.224756,24.144058,-0.894455,38.002747,,,,,,
1478386143.23,2.451238,0.366939,2.379286,5.721251,-4.473631,-4.911047,0.594418,-0.358760,0.719693,-1.370022,-3.664357,-1.160550,26.351425,6.004654,37.104156,,,,,,
1478386143.25,2.356845,0.216317,2.376798,5.425335,-4.740055,-5.324704,0.690178,-0.214634,0.691077,-0.488289,-3.396847,-0.563772,29.611618,13.052338,34.790558,,,,,,
1478386143.27,2.240525,0.076899,2.371947,4.480593,-6.718074,-4.550772,0.781673,-0.076823,0.618939,-1.151195,-2.481771,-0.820935,29.611618,13.052338,34.790558,,,,,,
1478386143.29,2.079426,-0.039598,2.350182,4.115211,-8.513081,-4.180261,0.872728,0.039588,0.486599,-1.045488,-1.682547,-1.345501,31.223038,19.873505,30.961243,,,,,,
,,,,,,,,,,,,,,,,37.354431,-122.033417,35.339813,0.660000,16.875000,1478386361.00
1478386143.31,1.934600,-0.129883,2.317344,2.792239,-5.908034,-2.766148,0.926678,0.129518,0.352834,-1.127240,-2.330019,-0.445532,36.389420,30.435928,18.381226,,,,,,
1478386143.33,1.856881,-0.170604,2.290953,1.308169,-2.321900,-0.820747,0.945429,0.169777,0.278101,-1.447397,-1.824898,0.149709,37.539505,33.954788,12.232117,,,,,,
1478386143.35,1.862796,-0.173396,2.292488,-0.896015,1.781241,0.144012,0.943309,0.172529,0.283551,-1.394741,-0.877759,0.312320,37.322586,34.927292,9.752075,,,,,,
1478386143.37,1.947169,-0.144051,2.332385,-3.235049,5.132564,1.191942,0.920372,0.143553,0.363742,-1.079918,-0.368788,0.397915,37.322586,34.927292,9.752075,,,,,,
1478386143.39,2.075053,-0.057586,2.403247,-6.315129,5.892711,3.253935,0.874083,0.057554,0.482356,-0.839293,-0.113981,0.205755,37.619888,34.703430,10.880737,,,,,,
1478386143.41,2.137500,0.118280,2.484163,-8.329102,1.332932,7.091687,0.837780,-0.118004,0.533103,-0.426449,0.023445,0.151803,35.247269,28.115417,22.876770,,,,,,
1478386143.43,2.144699,0.337733,2.477407,-4.473588,0.020018,10.052176,0.792348,-0.331349,0.512243,0.052577,0.544041,1.155070,36.699600,19.044968,27.418518,,,,,,
1478386143.45,2.177322,0.534366,2.438626,-3.837263,1.448072,8.448168,0.707091,-0.509295,0.490551,-0.212233,0.678103,0.301792,37.779312,9.295898,28.358459,,,,,,
1478386143.47,2.231889,0.706088,2.413886,-4.874649,2.089256,7.153198,0.600600,-0.648862,0.467180,-0.391631,0.424421,-0.473330,37.779312,9.295898,28.358459,,,,,,
1478386143.49,2.264473,0.891808,2.420130,-6.061965,1.952670,7.166784,0.482874,-0.778208,0.401528,-0.248987,0.007563,0.127861,37.517166,1.196381,28.830200,,,,,,
1478386143.51,2.304275,1.085915,2.397084,-5.883533,-0.008198,8.221575,0.346245,-0.884730,0.312036,0.070152,0.089198,0.640616,34.703506,-7.127808,29.652039,,,,,,
1478386143.53,2.394666,1.288749,2.271383,-5.107387,-1.781844,9.040732,0.189089,-0.960488,0.204228,0.622877,0.249443,1.357555,26.535934,-23.331360,26.093933,,,,,,
1478386143.55,2.905197,1.464988,1.724618,-5.078838,-0.773050,8.260403,0.024734,-0.994408,0.102674,1.937348,0.000389,2.839633,22.089462,-29.485519,21.942932,,,,,,
1478386143.57,-1.786886,1.445709,0.165163,-2.466264,3.352738,6.225995,-0.121859,-0.992187,0.026750,4.139102,-0.711701,3.399672,22.089462,-29.485519,21.942932,,,,,,
1478386143.59,-1.430962,1.394470,-0.122728,-1.525873,2.591387,0.982788,-0.173702,-0.984495,-0.024449,3.762264,0.391859,1.842152,16.447952,-34.439377,18.076416,,,,,,
1478386143.61,-1.421797,1.376856,-0.117011,0.626754,0.385141,0.980464,-0.190591,-0.981252,-0.028610,2.632425,1.990499,2.542633,10.066208,-36.390717,16.743469,,,,,,
1478386143.63,-1.592979,1.383650,0.061955,2.097932,0.192509,-1.487699,-0.186010,-0.982539,0.004127,1.621054,1.493526,2.982629,7.515579,-36.465515,16.943176,,,,,,
1478386143.65,-2.659554,1.400247,1.198009,11.658698,3.130216,-9.201568,-0.078682,-0.985492,0.150384,2.345665,-3.946530,3.940391,9.468460,-34.737274,20.182556,,,,,,
1478386143.67,2.841395,1.283431,2.040098,6.783423,4.737992,-5.480038,0.083812,-0.958994,0.270751,1.480229,-2.741842,1.257920,9.468460,-34.737274,20.182556,,,,,,
1478386143.69,2.890288,1.166405,2.025281,4.113705,1.689420,1.165339,0.097841,-0.919342,0.381100,0.820983,2.378113,0.057529,15.709610,-29.030930,26.527832,,,,,,
1478386143.71,2.978878,1.099417,1.932781,3.089974,-0.875658,-0.101031,0.073566,-0.890943,0.448118,1.100323,2.007169,0.940081,16.326523,-23.701218,31.242920,,,,,,
1478386143.73,2.881208,1.033295,2.030750,2.411819,0.076286,-3.362554,0.131814,-0.858991,0.494733,0.203498,-1.742328,1.006656,14.009476,-21.073624,33.836945,,,,,,
1478386143.75,2.852211,0.994912,2.081895,0.959321,0.809648,-1.460203,0.155400,-0.838711,0.521933,0.568477,-1.205188,0.706933,16.879166,-16.046661,35.800537,,,,,,
1478386143.77,2.830005,0.971461,2.119696,0.761416,0.426249,-1.424207,0.172935,-0.825711,0.536931,0.410073,-1.483279,0.145152,16.879166,-16.046661,35.800537,,,,,,
1478386143.79,2.818652,0.944132,2.157041,1.128334,1.316701,-1.319619,0.186113,-0.809988,0.556130,0.278990,-2.738962,-0.739312,17.106369,-15.446365,36.101013,,,,,,
1478386143.81,2.825749,0.917652,2.187620,0.803500,1.254752,-1.401555,0.188759,-0.794177,0.577627,0.388924,-2.950605,-1.972769,16.435349,-14.245392,37.065735,,,,,,
1478386143.83,2.767246,0.893374,2.228824,1.060294,-2.571732,-1.825114,0.229193,-0.779191,0.583379,-0.146384,-1.908110,-1.409429,15.762833,-13.494797,37.656738,,,,,,
1478386143.85,2.693790,0.816599,2.266469,3.754289,-1.793661,-3.009577,0.296467,-0.728822,0.617192,-0.210957,-0.927688,-0.012975,19.831131,-9.369614,37.835052,,,,,,
1478386143.87,2.657277,0.707242,2.292787,4.854173,-0.598393,-3.611240,0.353931,-0.649740,0.672734,-0.619373,-0.699991,-0.403340,19.831131,-9.369614,37.835052,,,,,,
1478386143.89,2.626498,0.556231,2.323314,6.270857,-1.034994,-5.315178,0.418356,-0.527989,0.739058,-0.908895,-1.143993,-0.869352,21.953415,-4.269165,38.290955,,,,,,
1478386143.91,2.556588,0.407150,2.362614,5.627928,-3.390133,-5.117638,0.507062,-0.395994,0.765557,-1.129987,-2.975924,-1.370568,22.506210,2.106415,38.877350,,,,,,
1478386143.93,2.464470,0.256469,2.364355,5.975538,-4.779538,-4.421048,0.606059,-0.253667,0.753887,-0.720256,-3.443294,-1.271007,25.165054,9.230225,37.682587,,,,,,
1478386143.95,2.354409,0.118846,2.359890,5.018872,-6.343823,-4.293463,0.703372,-0.118566,0.700864,-0.908831,-2.303507,-1.362409,27.825912,16.202240,34.688232,,,,,,
1478386143.97,2.207675,-0.004366,2.336637,4.853982,-7.728795,-3.606290,0.803948,0.004366,0.594683,-1.092172,-1.731416,-1.156878,27.825912,16.202240,34.688232,,,,,,
1478386143.99,2.067997,-0.099961,2.295928,3.770714,-5.943199,-2.527362,0.874533,0.099795,0.474586,-1.334861,-2.225054,-0.430244,34.193588,27.816986,24.442139,,,,,,
1478386144.01,1.999718,-0.154871,2.266394,1.873077,-1.332663,-1.346989,0.898530,0.154253,0.410912,-1.445970,-2.394350,0.270545,35.198715,32.235153,17.613953,,,,,,
1478386144.03,2.035271,-0.170656,2.258757,-0.292199,3.642920,-0.253689,0.881069,0.169829,0.441446,-1.456112,-1.299010,0.634207,36.638412,34.256424,13.872253,,,,,,
1478386144.05,2.164090,-0.148616,2.300115,-3.492036,7.274499,-0.040923,0.819964,0.148070,0.552932,-1.138583,-0.546233,0.502885,35.591660,35.156921,14.384033,,,,,,
1478386144.07,2.329403,-0.074710,2.380781,-6.748303,7.537966,0.697758,0.723771,0.074641,0.685992,-0.862671,-0.318491,0.323697,35.591660,35.156921,14.384033,,,,,,
1478386144.09,2.413089,0.087017,2.476544,-10.679553,1.311021,3.230525,0.663235,-0.086908,0.743348,-0.691235,-0.157767,0.009338,27.677109,30.594620,27.068604,,,,,,
1478386144.11,2.382235,0.310377,2.505975,-6.620116,-2.037107,8.427319,0.655561,-0.305417,0.690623,0.352755,0.260633,0.510091,26.358932,22.950470,32.928406,,,,,,
1478386144.13,2.369864,0.515091,2.432399,-4.775148,-1.813114,9.539099,0.606889,-0.492614,0.623712,0.475813,0.727218,0.534430,29.160721,12.827255,34.711700,,,,,,
1478386144.15,2.373831,0.707737,2.380813,-6.933306,-1.263297,7.288897,0.527726,-0.650116,0.546677,0.263076,0.380935,-1.422714,31.747574,4.051331,33.789001,,,,,,
1478386144.17,2.337146,0.900565,2.393409,-6.640019,-1.130898,6.400844,0.447518,-0.783678,0.430786,0.026939,0.426958,0.481949,31.747574,4.051331,33.789001,,,,,,
1478386144.19,2.318337,1.098350,2.404063,-7.041745,-0.276981,7.437795,0.333729,-0.890458,0.309371,0.119305,0.450440,0.878267,30.882889,-5.099625,32.832703,,,,,,
1478386144.21,2.378567,1.301483,2.344695,-5.991339,0.749348,8.251241,0.183884,-0.963954,0.192301,0.546234,0.231975,1.849340,27.517654,-21.680908,26.548828,,,,,,
1478386144.23,2.881893,1.491911,1.884131,-6.207752,3.471129,7.660036,0.020236,-0.996890,0.076161,1.390424,0.078601,3.365871,22.018387,-28.359772,22.688843,,,,,,
1478386144.25,-1.307519,1.457445,-0.122449,-3.765978,4.672449,5.450612,-0.109211,-0.993583,-0.029436,2.579304,-0.384271,3.728670,14.873550,-33.762756,19.708618,,,,,,
1478386144.27,-1.239492,1.400593,-0.134526,-0.698341,1.710378,1.032011,-0.160172,-0.985550,-0.055096,3.889664,0.311890,2.055310,14.873550,-33.762756,19.708618,,,,,,
1478386144.29,-1.260714,1.379867,-0.115511,1.361157,-1.800579,1.445826,-0.180721,-0.981828,-0.057906,3.260967,2.260972,2.219802,7.291092,-36.541122,16.341187,,,,,,
,,,,,,,,,,,,,,,,37.354462,-122.033422,35.115234,0.660000,8.437500,1478386362.00
1478386144.31,-1.592043,1.383545,0.164255,3.013981,-3.120901,-0.969565,-0.186117,-0.982520,0.003955,1.373708,1.546622,1.821805,5.114456,-36.765686,16.770081,,,,,,
1478386144.33,-2.287514,1.411643,0.825393,7.140947,-1.002705,-4.755868,-0.119491,-0.987362,0.104109,0.705245,-1.704670,2.614412,6.917130,-35.488647,18.809204,,,,,,
1478386144.35,3.042686,1.318356,1.755576,4.911430,-1.951112,-6.002794,0.024663,-0.968306,0.248547,0.760706,-6.094362,1.688098,11.202438,-31.433365,24.089966,,,,,,
1478386144.37,2.892121,1.175359,1.965231,6.412063,3.483193,-3.743685,0.095106,-0.922828,0.373287,0.335421,1.380271,0.319050,11.202438,-31.433365,24.089966,,,,,,
1478386144.39,2.923733,1.085889,2.007086,3.170902,3.005853,-0.977012,0.100749,-0.884718,0.455108,0.482869,2.729567,-0.476761,17.065567,-27.229492,27.960938,,,,,,
1478386144.41,2.897638,1.032864,2.031124,3.020168,-0.883859,-1.920707,0.123757,-0.858770,0.497191,0.987510,1.267767,1.725405,16.482071,-22.049927,32.514587,,,,,,
1478386144.43,2.842082,0.962213,2.100497,1.934839,0.943519,-2.790469,0.168683,-0.820459,0.546254,0.756777,-2.782874,0.951625,16.878372,-16.121353,36.100739,,,,,,
1478386144.45,2.828729,0.939606,2.143932,0.694182,0.624745,-1.129971,0.181626,-0.807326,0.561460,0.716613,-1.424562,0.440340,16.585587,-14.245529,36.917236,,,,,,
1478386144.47,2.812888,0.913303,2.166750,0.957158,0.088728,-0.971793,0.197285,-0.791526,0.578416,0.464458,-1.722527,-0.388032,16.585587,-14.245529,36.917236,,,,,,
1478386144.49,2.808460,0.886524,2.180096,0.911075,0.258231,-0.792980,0.206703,-0.774879,0.597357,0.468392,-3.009880,-1.445181,17.038467,-13.420013,37.444275,,,,,,
1478386144.51,2.784019,0.866789,2.203517,0.562695,-0.914470,-1.215634,0.226549,-0.762255,0.606336,0.072234,-2.720351,-1.690580,17.117996,-12.369858,37.591919,,,,,,
1478386144.53,2.715166,0.837199,2.241589,1.713655,-2.485815,-2.157097,0.276937,-0.742771,0.609588,-0.346655,-1.370938,-0.771301,18.099655,-10.719330,38.121796,,,,,,
1478386144.55,2.655523,0.748076,2.268634,4.151802,-1.526255,-3.076538,0.342424,-0.680229,0.648100,-0.386522,-0.630729,0.204515,21.639786,-7.569992,37.472748,,,,,,
1478386144.57,2.623837,0.634500,2.293892,4.977974,-0.569104,-4.140890,0.398602,-0.592775,0.699810,-0.842267,-0.410460,-0.380154,21.639786,-7.569992,37.472748,,,,,,
1478386144.59,2.575984,0.481605,2.332624,5.616096,-2.337529,-5.786810,0.474969,-0.463202,0.748230,-1.103005,-1.733560,-1.338074,23.385025,-2.994751,37.701477,,,,,,
1478386144.61,2.502684,0.316008,2.361366,6.409829,-3.295645,-5.665196,0.566792,-0.310775,0.762998,-0.738515,-3.209123,-1.247388,24.464066,3.605698,38.142456,,,,,,
1478386144.63,2.427920,0.155921,2.365336,5.969056,-3.933239,-4.769174,0.646673,-0.155290,0.746792,-0.630392,-3.986876,-1.120373,25.697128,10.504333,36.784088,,,,,,
1478386144.65,2.332487,0.015153,2.347088,5.593947,-5.486355,-3.978124,0.723587,-0.015153,0.690067,-0.982743,-2.488097,-1.072314,29.447708,24.821899,29.353638,,,,,,
1478386144.67,2.206769,-0.105557,2.318657,4.496049,-6.338749,-3.438552,0.800016,0.105361,0.590655,-0.897322,-2.316176,-0.718523,29.447708,24.821899,29.353638,,,,,,
1478386144.69,2.094411,-0.187168,2.284913,3.165449,-4.540523,-1.761702,0.850892,0.186077,0.491281,-1.257432,-2.680096,-0.089792,31.731552,30.441208,23.659668,,,,,,
1478386144.71,2.035940,-0.216004,2.256184,0.935065,-1.246012,-0.144270,0.872988,0.214329,0.438128,-1.421251,-1.742450,0.131819,33.332870,34.410583,18.038696,,,,,,
1478386144.73,2.080532,-0.205985,2.277424,-2.356248,3.930133,-0.042805,0.854421,0.204531,0.477632,-1.148916,-0.582125,0.284606,33.645523,35.981842,14.287109,,,,,,
1478386144.75,2.215259,-0.154305,2.343025,-5.202955,7.074105,0.867982,0.789924,0.153694,0.593631,-0.848854,-0.215217,0.184506,31.305984,34.712738,20.192566,,,,,,
1478386144.77,2.347615,-0.022725,2.426109,-9.132874,4.627134,3.245543,0.712963,0.022723,0.700833,-0.677700,-0.059680,-0.029660,31.305984,34.712738,20.192566,,,,,,
1478386144.79,2.359789,0.203063,2.467266,-7.644173,-0.811222,8.728068,0.690084,-0.201670,0.695063,0.059000,0.502390,0.523275,28.574417,30.069839,27.304199,,,,,,
1478386144.81,2.364504,0.414303,2.392713,-4.239437,-0.660630,9.818854,0.641883,-0.402552,0.652640,0.093988,0.919840,0.606989,28.973312,20.475128,32.586914,,,,,,
1478386144.83,2.402547,0.597085,2.318332,-4.905643,0.562294,7.975894,0.557038,-0.562234,0.611229,-0.036134,0.589379,-0.682778,31.404892,11.025711,33.164551,,,,,,
1478386144.85,2.405759,0.798276,2.322913,-7.326895,0.681685,6.221935,0.468463,-0.716154,0.517365,-0.091418,-0.018115,0.019943,30.874435,-7.049835,32.613525,,,,,,
1478386144.87,2.422933,0.995356,2.324550,-7.846467,0.869169,6.802769,0.358291,-0.838953,0.409616,0.038025,0.686990,0.651953,30.874435,-7.049835,32.613525,,,,,,
1478386144.89,2.452160,1.208015,2.295689,-7.341224,-0.437088,7.706077,0.225736,-0.934913,0.273825,0.437365,0.795845,0.855570,28.364304,-15.451645,30.813660,,,,,,
1478386144.91,2.619167,1.415598,2.101884,-6.935013,-0.776821,7.903507,0.077131,-0.987981,0.133957,1.337069,0.453282,2.705352,23.833176,-23.630417,27.042847,,,,,,
1478386144.93,-1.879430,1.499721,0.346562,-4.388605,3.381978,6.513332,-0.067660,-0.997475,0.021572,2.542178,-0.335823,4.095280,19.685532,-30.310379,22.071411,,,,,,
1478386144.95,-1.451944,1.427489,0.000399,-0.063987,3.805646,1.597662,-0.141810,-0.989749,-0.016934,3.108302,-0.590466,2.657804,13.896439,-34.889709,17.752197,,,,,,
1478386144.97,-1.234904,1.428105,-0.167308,-0.271928,1.486394,0.020340,-0.134260,-0.989837,-0.046873,3.284331,1.095229,2.252333,13.896439,-34.889709,17.752197,,,,,,
1478386144.99,-1.494793,1.417251,0.071941,2.176921,-2.803241,0.517096,-0.152501,-0.988235,-0.011613,1.922185,1.775299,3.196306,6.988602,-37.066040,16.414734,,,,,,
1478386145.01,-2.538535,1.413515,1.087165,10.697379,-1.053787,-5.937908,-0.088837,-0.987657,0.129004,1.507812,-1.922621,3.785455,7.291458,-36.165222,17.240112,,,,,,
1478386145.03,2.881413,1.274120,1.917164,4.617077,-1.539216,-6.085511,0.075207,-0.956313,0.282504,0.921284,-5.472657,1.619717,11.125168,-32.334564,22.891907,,,,,,
1478386145.05,2.814633,1.147069,2.027737,3.899364,2.162251,-2.230257,0.132051,-0.911563,0.389379,0.663665,1.332324,0.344019,17.667740,-26.704346,28.115417,,,,,,
1478386145.07,2.859574,1.092039,2.004681,2.437358,-0.483972,0.205539,0.128204,-0.887568,0.442477,0.600251,2.239527,0.521939,17.667740,-26.704346,28.115417,,,,,,
1478386145.09,2.813834,1.033402,2.025947,3.109751,-0.875365,-2.572266,0.164792,-0.859045,0.484649,0.688114,0.408667,1.288971,17.615494,-19.874023,33.419434,,,,,,
1478386145.11,2.760283,0.984067,2.102291,0.721344,1.015732,-2.079745,0.206030,-0.832756,0.513877,0.377619,-3.040352,0.860254,19.876266,-17.248337,34.109161,,,,,,
1478386145.13,2.741096,0.961614,2.145937,0.829236,0.848594,-1.544737,0.223086,-0.820116,0.526918,0.668379,-1.183851,0.311125,20.558365,-15.447678,34.785522,,,,,,
1478386145.15,2.737492,0.929468,2.181416,0.891013,1.524748,-1.507512,0.235231,-0.801302,0.550074,0.345961,-2.049467,-0.762950,20.486526,-14.547073,35.382080,,,,,,
1478386145.17,2.742090,0.914492,2.211342,0.303579,0.881946,-1.090412,0.237341,-0.792253,0.562143,0.434870,-2.820327,-1.678049,20.486526,-14.547073,35.382080,,,,,,
1478386145.19,2.694894,0.899723,2.245550,0.236474,-1.901027,-1.422985,0.268624,-0.783155,0.560812,-0.046898,-2.090503,-1.153662,19.363693,-13.721039,36.418427,,,,,,
1478386145.21,2.622782,0.858064,2.284093,2.306247,-2.063015,-2.496799,0.324237,-0.756578,0.567856,-0.409579,-1.282546,-0.457032,20.945297,-12.220947,36.504761,,,,,,
1478386145.23,2.578636,0.761565,2.305849,4.325087,-0.919779,-3.452791,0.386261,-0.690055,0.612067,-0.558731,-0.708154,-0.033790,23.506729,-9.821381,36.073181,,,,,,
1478386145.25,2.558843,0.631799,2.327827,5.602554,-0.037302,-4.923632,0.444091,-0.590598,0.673778,-0.906707,-0.605249,-0.294033,25.252121,-5.095779,36.676453,,,,,,
1478386145.27,2.511752,0.474052,2.365498,5.422876,-2.611637,-5.978080,0.524063,-0.456495,0.719006,-1.251266,-2.217852,-1.175626,25.252121,-5.095779,36.676453,,,,,,
1478386145.29,2.434439,0.311713,2.381022,5.901930,-3.831010,-5.296810,0.618365,-0.306689,0.723579,-0.769778,-3.485471,-1.255928,25.430832,1.504883,37.333435,,,,,,
1478386145.31,2.363311,0.162857,2.379365,5.499981,-3.801572,-4.762149,0.692767,-0.162138,0.702699,-0.864428,-2.982805,-1.170197,30.079239,16.425674,33.135132,,,,,,
1478386145.33,2.263819,0.024770,2.356796,5.477557,-5.751453,-4.064530,0.769082,-0.024768,0.638670,-1.169244,-1.765866,-0.935774,31.464127,22.947006,29.454407,,,,,,
,,,,,,,,,,,,,,,,37.354480,-122.033417,34.609528,1.640000,10.898438,1478386363.00
1478386145.35,2.139140,-0.091118,2.317619,4.641655,-6.058975,-3.106318,0.839297,0.090992,0.536004,-1.180682,-2.068760,-0.539849,32.772842,28.566376,23.825684,,,,,,
1478386145.37,2.036822,-0.164934,2.276407,2.913440,-3.917106,-1.570247,0.881237,0.164188,0.443242,-1.389065,-2.512622,-0.046467,32.772842,28.566376,23.825684,,,,,,
1478386145.39,1.996071,-0.188537,2.248422,0.937988,-0.394299,0.051461,0.894783,0.187422,0.405260,-1.616402,-1.839994,0.281034,35.127670,33.135239,17.685486,,,,,,
1478386145.41,2.052366,-0.175528,2.262587,-2.082930,4.604902,0.352706,0.872651,0.174628,0.456054,-1.326829,-0.696769,0.517777,35.817978,35.156036,13.486389,,,,,,
1478386145.43,2.202886,-0.119791,2.321697,-5.092204,8.240390,1.189772,0.801013,0.119505,0.586598,-0.931430,-0.250578,0.331981,34.457291,34.185303,17.750610,,,,,,
1478386145.45,2.365142,0.007396,2.401951,-8.687350,6.639782,2.761448,0.700733,-0.007396,0.713386,-0.777393,-0.056920,0.089776,30.153763,30.443054,25.518860,,,,,,
1478386145.47,2.397156,0.227648,2.469004,-9.875971,-0.613057,6.992817,0.660077,-0.225687,0.716494,-0.599927,0.181787,-0.136843,30.153763,30.443054,25.518860,,,,,,
1478386145.49,2.394160,0.445438,2.409409,-4.664536,-1.123567,10.150188,0.613429,-0.430853,0.661869,0.471517,0.570029,1.209667,27.934921,22.949814,32.269165,,,,,,
1478386145.51,2.430893,0.632668,2.310482,-4.293845,-0.465574,8.750874,0.526101,-0.591299,0.611215,0.281104,0.763692,0.191962,30.283554,12.226883,34.349792,,,,,,
1478386145.53,2.425733,0.835548,2.291185,-7.335658,-0.713554,6.541813,0.440205,-0.741664,0.506116,0.443172,0.140376,-2.095930,30.354477,-5.774399,33.054504,,,,,,
1478386145.55,2.439832,1.028169,2.267197,-7.179410,0.002705,7.137029,0.333361,-0.856355,0.394369,0.186094,0.336625,0.698496,29.570114,-14.251923,30.522095,,,,,,
1478386145.57,2.516172,1.233939,2.195392,-6.874168,0.776414,7.760442,0.193501,-0.943798,0.267961,0.421001,0.597057,0.929213,29.570114,-14.251923,30.522095,,,,,,
1478386145.59,2.885904,1.426410,1.840923,-6.695645,1.935891,7.844074,0.036390,-0.989594,0.139207,1.002901,0.557313,2.152694,25.862961,-22.430023,27.434570,,,,,,
1478386145.61,-1.847821,1.452996,0.365851,-3.681580,5.146040,6.571767,-0.113047,-0.993070,0.032143,2.154505,0.177045,3.968345,20.288589,-29.184036,23.424072,,,,,,
1478386145.63,-1.614885,1.383409,0.208935,0.187966,2.506361,1.288958,-0.186111,-0.982494,0.008211,3.019027,-0.455967,3.424498,12.471695,-34.212845,19.610962,,,,,,
1478386145.65,-1.536957,1.391304,0.138093,0.881244,-0.885550,0.215617,-0.178428,-0.983934,-0.006040,3.931998,0.367327,1.629606,5.565689,-36.239929,17.523071,,,,,,
1478386145.67,-1.803567,1.378852,0.370800,2.645196,-2.025849,-0.208615,-0.185623,-0.981635,0.044005,2.343948,2.074577,2.063051,5.565689,-36.239929,17.523071,,,,,,
1478386145.69,-2.226555,1.383620,0.756909,3.699005,-1.646359,-2.712256,-0.147489,-0.982534,0.113468,0.873914,1.184957,1.417355,6.017380,-35.488800,18.650269,,,,,,
1478386145.71,-3.071805,1.334734,1.587562,4.848385,-2.785492,-7.933702,-0.016308,-0.972266,0.233307,1.928326,-4.115304,4.839859,8.120743,-33.986542,20.916809,,,,,,
1478386145.73,2.980811,1.181920,1.863237,7.713052,2.114129,-4.409747,0.060698,-0.925336,0.374259,1.240724,-3.634891,0.720116,12.630600,-30.231857,25.600586,,,,,,
1478386145.75,2.947085,1.093369,1.956357,2.865633,3.568050,-1.605298,0.088813,-0.888180,0.450831,0.331018,1.695217,0.455404,15.735123,-21.149277,33.179443,,,,,,
1478386145.77,2.939409,1.041176,1.965751,1.764172,-1.951582,-0.773002,0.101450,-0.862999,0.494915,0.278005,2.484031,-0.253948,15.735123,-21.149277,33.179443,,,,,,
1478386145.79,2.884251,0.983771,2.013997,2.287866,0.051417,-2.360667,0.140970,-0.832592,0.535647,0.861975,0.514035,1.554670,16.194687,-18.447556,34.900909,,,,,,
1478386145.81,2.862791,0.964525,2.062685,-0.094936,1.026337,-0.849244,0.156813,-0.821779,0.547804,0.518800,-3.299697,0.648591,17.103561,-16.196732,35.728210,,,,,,
1478386145.83,2.856157,0.952867,2.084717,0.914632,0.481996,-0.816933,0.163130,-0.815080,0.555908,0.464738,-1.163711,0.438721,17.032150,-15.145981,36.474396,,,,,,
1478386145.85,2.858635,0.927021,2.095757,0.806369,0.504453,-0.511491,0.167579,-0.799836,0.576351,0.375435,-2.063568,-0.848812,17.559311,-14.620819,36.628082,,,,,,
1478386145.87,2.843680,0.911537,2.104611,0.738627,-1.317508,-0.613847,0.179794,-0.790446,0.585550,0.590333,-2.903127,-1.865396,17.559311,-14.620819,36.628082,,,,,,
1478386145.89,2.767608,0.894321,2.129416,0.733800,-3.452925,-1.337709,0.228713,-0.779784,0.582775,-0.061415,-1.963944,-1.450237,17.339951,-13.195312,37.146606,,,,,,
1478386145.91,2.677779,0.832347,2.160636,3.259684,-2.826066,-2.710923,0.301138,-0.739513,0.602027,-0.318670,-0.926640,-0.339469,19.444412,-12.370819,36.640198,,,,,,
1478386145.93,2.625014,0.736188,2.195289,3.756977,-0.665857,-3.815275,0.366003,-0.671468,0.644339,-0.436346,-0.315547,0.246408,23.658310,-9.446304,36.148529,,,,,,
1478386145.95,2.586149,0.603836,2.246821,5.277633,-0.488028,-5.922269,0.434071,-0.567804,0.699415,-0.932575,-0.304419,-0.198377,25.703537,-4.871063,36.380280,,,,,,
1478386145.97,2.512995,0.450483,2.294292,5.392417,-2.944043,-5.740783,0.529350,-0.435400,0.728159,-1.606712,-1.986582,-1.331064,25.703537,-4.871063,36.380280,,,,,,
1478386145.99,2.468651,0.291086,2.318199,5.730481,-1.182234,-5.934075,0.597069,-0.286992,0.749096,-0.724083,-2.774562,-0.803417,28.013412,8.178162,35.614227,,,,,,
1478386146.01,2.426445,0.124354,2.341711,5.649677,-2.650418,-6.163691,0.650666,-0.124034,0.749166,-0.331360,-3.055714,-0.854787,28.874557,15.601349,33.800598,,,,,,
1478386146.03,2.341938,-0.030250,2.334265,6.071925,-5.079617,-4.103310,0.716787,0.030245,0.696636,-0.403524,-3.255130,-1.026927,28.986710,22.948624,31.079712,,,,,,
1478386146.05,2.227524,-0.149989,2.284534,5.451208,-5.342766,-2.357175,0.783102,0.149428,0.603674,-0.913671,-2.782439,-0.890265,30.147232,29.243820,26.272400,,,,,,
1478386146.07,2.140196,-0.222643,2.225376,3.840875,-2.644750,-0.574700,0.821436,0.220808,0.525820,-1.234019,-3.110471,-0.126940,30.147232,29.243820,26.272400,,,,,,
1478386146.09,2.120833,-0.242212,2.189725,0.603210,0.713633,0.094533,0.827621,0.239851,0.507460,-1.859069,-2.435163,0.181917,31.997604,36.807938,15.393188,,,,,,
1478386146.11,2.185535,-0.229673,2.222249,-2.793166,4.138793,-0.473560,0.795472,0.227659,0.561600,-1.596406,-1.002150,-0.020859,32.751175,37.332123,14.574158,,,,,,
1478386146.13,2.319566,-0.168821,2.289802,-5.638425,6.766401,0.981773,0.722113,0.168020,0.671060,-0.911322,-0.480368,-0.101312,31.243362,36.660339,17.786011,,,,,,
1478386146.15,2.427587,-0.012577,2.357748,-9.770562,2.762949,4.350470,0.654815,0.012577,0.755685,-0.567229,-0.054279,-0.237969,28.219772,33.591843,24.290100,,,,,,
1478386146.17,2.410064,0.237838,2.360333,-7.628715,-1.830544,10.319382,0.649203,-0.235602,0.723206,0.235822,0.329108,0.044052,28.219772,33.591843,24.290100,,,,,,
1478386146.19,2.416860,0.463545,2.275316,-5.265963,-0.728124,9.858557,0.592978,-0.447121,0.669672,0.801508,0.865746,1.206809,26.750809,26.098679,31.122864,,,,,,
1478386146.21,2.425480,0.677247,2.241547,-9.511834,-0.564394,6.938034,0.511577,-0.626650,0.587876,0.405033,0.608477,-0.796555,32.879684,5.325439,32.896423,,,,,,
1478386146.23,2.399680,0.888318,2.265679,-8.206202,-0.297363,6.552134,0.426176,-0.776012,0.464951,0.126177,-0.091999,0.368408,32.307144,-5.475281,32.173096,,,,,,
1478386146.25,2.386893,1.108418,2.282427,-8.055952,0.093337,7.409276,0.305595,-0.894994,0.324958,0.092889,0.291860,0.837243,30.919998,-14.778412,29.037170,,,,,,
1478386146.27,2.438944,1.319821,2.219059,-6.932448,-0.756887,8.151444,0.160493,-0.968671,0.189523,0.470747,0.632764,0.919577,30.919998,-14.778412,29.037170,,,,,,
1478386146.29,3.135566,1.516432,1.516672,-6.517974,1.094862,7.959602,0.000327,-0.998523,0.054337,1.507683,0.585162,2.770706,26.233994,-23.931885,25.567749,,,,,,
1478386146.31,-1.311151,1.431413,-0.230616,-2.541957,6.099400,5.632962,-0.134275,-0.990302,-0.035669,2.919249,0.281577,4.322123,15.846024,-35.566483,15.973755,,,,,,
1478386146.33,-1.183380,1.385146,-0.261326,-0.815491,3.481150,-0.134307,-0.170906,-0.982816,-0.069736,3.080864,-0.258746,3.372272,8.340744,-37.067459,15.003235,,,,,,
,,,,,,,,,,,,,,,,37.354511,-122.033405,34.975342,3.940000,10.546875,1478386364.00
1478386146.35,-1.115083,1.397448,-0.309639,1.078906,-0.262410,-0.202209,-0.154879,-0.985013,-0.075910,3.429583,0.848676,2.214444,6.538071,-37.817917,14.537476,,,,,,
