timestamp(unix),attitude_roll(radians),attitude_pitch(radians),attitude_yaw(radians),rotation_rate_x(radians/s),rotation_rate_y(radians/s),rotation_rate_z(radians/s),gravity_x(G),gravity_y(G),gravity_z(G),user_acc_x(G),user_acc_y(G),user_acc_z(G),magnetic_field_x(microteslas),magnetic_field_y(microteslas),magnetic_field_z(microteslas),latitude(degree),longitude(degree),altitude(meter),speed(m/s),course(degree),timestamp(unix)
1478277328.95,-0.203617,-0.082003,2.180306,-0.658559,0.767450,0.616898,-0.201534,0.081911,-0.976051,0.111980,0.026137,-0.183251,-36.950317,6.075880,-20.868191,,,,,,
,,,,,,,,,,,,,,,,37.352846,-122.034827,52.148926,0.980000,212.343750,1478280790.24
1478277328.98,-0.203433,-0.095519,2.195057,-0.357708,-0.589395,0.860812,-0.201112,0.095373,-0.974914,0.132844,-0.057898,-0.054703,-36.106945,6.971951,-22.031887,,,,,,
,,,,,,,,,,,,,,,,37.352846,-122.034827,52.148926,0.980000,212.343750,1478280783.00
1478277329.02,-0.280530,-0.100933,2.221736,0.436114,-2.418581,0.497042,-0.275456,0.100762,-0.956018,-0.019466,-0.013970,-0.286490,-36.744186,8.572314,-20.349546,,,,,,
1478277329.00,-0.232784,-0.102390,2.209792,-0.078305,-1.943424,0.640077,-0.229479,0.102211,-0.967932,0.058504,-0.091622,-0.185312,-36.191322,8.177274,-21.471935,,,,,,
,,,,,,,,,,,,,,,,37.352846,-122.034827,52.148926,0.980000,212.343750,1478280790.31
1478277329.04,-0.329170,-0.088808,2.240652,1.014760,-2.288725,0.852147,-0.321984,0.088691,-0.942582,-0.035041,0.073311,-0.234771,-38.026955,8.938413,-17.657265,,,,,,
1478277329.06,-0.374015,-0.070819,2.272111,1.455553,-2.240539,1.205493,-0.364440,0.070759,-0.928535,0.113586,0.057277,-0.095742,-38.026955,8.938413,-17.657265,,,,,,
1478277329.08,-0.424276,-0.052199,2.311858,1.581533,-2.727904,1.546939,-0.411100,0.052175,-0.910096,0.252913,0.022196,0.125458,-38.887791,9.592704,-15.278857,,,,,,
1478277329.10,-0.500588,-0.039173,2.367636,1.846573,-4.455024,2.478893,-0.479573,0.039163,-0.876628,0.427067,0.095999,0.128855,-39.256512,10.117542,-13.938627,,,,,,
1478277329.12,-0.614225,-0.036242,2.448870,2.373944,-5.996428,3.525088,-0.575947,0.036234,-0.816684,0.529972,0.210027,-0.014234,-39.963997,12.422859,-9.288448,,,,,,
1478277329.15,-0.745972,-0.041184,2.550473,3.119049,-6.509127,4.060625,-0.678110,0.041173,-0.733806,0.312296,0.259380,-0.262212,-39.942459,14.366006,-5.995125,,,,,,
1478277329.17,-0.874890,-0.054191,2.667933,3.868547,-6.143236,4.258544,-0.766346,0.054165,-0.640141,-0.180416,0.337742,-0.277569,-38.318653,19.217167,0.324032,,,,,,
1478277329.19,-0.979114,-0.073081,2.784312,3.660571,-4.577436,3.785484,-0.827788,0.073016,-0.556269,-0.353379,0.178571,0.032587,-38.318653,19.217167,0.324032,,,,,,
1478277329.21,-1.038668,-0.099001,2.878227,2.723375,-2.331740,3.120332,-0.857509,0.098839,-0.504885,-0.323658,0.152748,-0.018797,-35.204857,24.160854,3.820334,,,,,,
,,,,,,,,,,,,,,,,37.352846,-122.034827,52.148926,0.980000,212.343750,1478280790.32
1478277329.23,-1.054837,-0.127053,2.948153,1.955310,-0.531494,2.631050,-0.862809,0.126712,-0.489393,-0.404296,0.030912,-0.110812,-33.698349,26.159704,4.220767,,,,,,
1478277329.25,-1.044752,-0.153963,3.012475,2.058386,0.294019,2.617779,-0.854571,0.153355,-0.496177,-0.318189,0.067821,-0.278146,-31.202530,29.220348,3.208887,,,,,,
1478277329.27,-1.035424,-0.176349,3.085079,2.583193,-0.856271,2.541988,-0.846739,0.175437,-0.502249,-0.379182,-0.006079,-0.303903,-31.202530,29.220348,3.208887,,,,,,
1478277329.29,-1.064130,-0.186841,-3.123553,2.689809,-2.260555,2.140887,-0.859150,0.185756,-0.476819,-0.294720,0.028065,0.262403,-27.530191,32.857651,0.432539,,,,,,
1478277329.32,-1.098965,-0.200960,-3.055803,2.409301,-2.399194,1.846972,-0.872812,0.199610,-0.445371,-0.257269,-0.005304,0.309278,-27.530191,32.857651,0.432539,,,,,,
1478277329.34,-1.116537,-0.216704,-2.998494,1.899818,-0.665354,1.785510,-0.877569,0.215012,-0.428534,-0.332773,-0.063141,0.280265,-25.333076,34.581051,-0.331570,,,,,,
1478277329.36,-1.132974,-0.232582,-2.950675,1.369531,-2.121962,1.454476,-0.881291,0.230491,-0.412553,-0.107433,-0.166175,0.493318,-23.393494,35.888229,-1.582151,,,,,,
1478277329.38,-1.161952,-0.254373,-2.912666,0.786186,-1.585163,1.853176,-0.888054,0.251639,-0.384756,-0.100669,-0.187323,0.465521,-22.585133,36.400360,-1.627655,,,,,,
1478277329.40,-1.180046,-0.286071,-2.891477,0.176403,-0.981002,1.506505,-0.887047,0.282185,-0.365403,0.081398,-0.129094,0.498261,-22.585133,36.400360,-1.627655,,,,,,
1478277329.42,-1.212987,-0.304759,-2.859290,1.848201,-2.668661,1.369772,-0.893504,0.300063,-0.334085,-0.095067,-0.060576,-0.806677,-19.802410,38.000637,-1.240841,,,,,,
1478277329.44,-1.269724,-0.308973,-2.779749,4.094697,-4.393612,1.434096,-0.909795,0.304080,-0.282502,0.193838,-0.105640,-0.804396,-19.802410,38.000637,-1.240841,,,,,,
1478277329.46,-1.339561,-0.309109,-2.688084,3.492037,-4.525523,1.033093,-0.927250,0.304210,-0.218318,0.521351,-0.018321,0.303233,-18.404383,38.607254,-2.912438,,,,,,
1478277329.48,-1.398567,-0.327492,-2.641757,0.880836,-2.488443,1.388373,-0.932844,0.321669,-0.162271,0.397336,-0.112731,1.380731,-17.514633,38.896667,-4.243873,,,,,,
1478277329.51,-1.411110,-0.358643,-2.631089,0.068835,-0.106880,1.592320,-0.924461,0.351004,-0.148892,0.361533,-0.113623,0.857769,-16.723854,39.256866,-4.115207,,,,,,
1478277329.53,-1.412054,-0.398840,-2.623240,0.084542,-0.433359,2.200671,-0.909926,0.388349,-0.145670,0.467604,-0.145780,0.156244,-16.723854,39.256866,-4.115207,,,,,,
1478277329.55,-1.430902,-0.454894,-2.608810,0.260414,-1.597107,3.001091,-0.889532,0.439367,-0.125259,0.429266,-0.192693,0.034591,-14.467403,40.146042,-4.088187,,,,,,
1478277329.57,-1.467448,-0.524618,-2.594551,0.035085,-2.045856,3.589741,-0.860897,0.500882,-0.089291,0.400631,-0.254209,-0.001377,-10.942463,41.271194,-3.830780,,,,,,
1478277329.59,-1.490191,-0.602246,-2.592145,-0.400909,-0.610466,3.649818,-0.821390,0.566495,-0.066352,0.168268,-0.012647,0.243782,-8.698553,41.826584,-3.549000,,,,,,
1478277329.61,-1.504952,-0.680949,-2.596612,-0.409670,-1.036796,3.571675,-0.775292,0.629531,-0.051123,-0.487297,0.033784,-0.032053,-3.816874,42.600098,-2.895982,,,,,,
1478277329.63,-1.526274,-0.740161,-2.598119,-0.229696,-0.355078,2.463443,-0.737628,0.674407,-0.032863,-0.367902,-0.236083,0.540751,-1.686865,42.753654,-2.646318,,,,,,
1478277329.65,-1.509680,-0.790449,-2.618341,-0.976447,2.239776,2.335923,-0.702213,0.710669,-0.042970,-0.403317,-0.272345,0.550859,-1.686865,42.753654,-2.646318,,,,,,
1478277329.68,-1.476480,-0.844772,-2.632789,-0.161626,1.502433,2.575883,-0.660951,0.747820,-0.062524,-0.098647,-0.181398,-0.456366,1.628590,42.799644,-1.806086,,,,,,
1478277329.70,-1.459785,-0.889609,-2.610883,0.455593,-0.060195,1.825651,-0.625840,0.776825,-0.069762,-0.317809,-0.194825,0.263518,5.052433,42.550224,-1.294299,,,,,,
1478277329.72,-1.427109,-0.910435,-2.582599,0.797890,0.580071,1.078328,-0.607081,0.789771,-0.087835,-0.011724,0.575250,0.115163,6.268505,42.376999,-1.618411,,,,,,
,,,,,,,,,,,,,,,,37.352790,-122.034872,52.148926,-1.000000,-1.000000,1478280791.01
1478277329.74,-1.379196,-0.941620,-2.522804,1.853289,-0.251610,1.984718,-0.577710,0.808513,-0.112064,0.168286,-0.263606,-0.275143,8.031027,42.010189,-2.893162,,,,,,
1478277329.76,-1.311491,-0.977634,-2.445756,1.624702,0.045852,1.929007,-0.540298,0.829177,-0.143329,0.143737,-0.145843,0.540271,8.031027,42.010189,-2.893162,,,,,,
1478277329.78,-1.255114,-1.006728,-2.384453,0.778430,0.555133,1.839284,-0.508210,0.845087,-0.165984,-0.108047,0.126074,0.128706,10.747430,41.188995,-5.067857,,,,,,
1478277329.80,-1.214998,-1.044484,-2.338155,0.326610,-0.264314,2.081896,-0.470885,0.864666,-0.174987,0.002883,0.707188,-0.028718,11.919951,40.787704,-5.656995,,,,,,
1478277329.82,-1.195975,-1.077522,-2.304406,0.115519,-0.559583,1.441099,-0.440638,0.880787,-0.173356,-0.388479,0.831600,-0.080932,14.470087,39.871246,-6.214825,,,,,,
1478277329.85,-1.194470,-1.091322,-2.292464,-0.063883,-0.388631,0.248186,-0.429030,0.887238,-0.169535,-0.400086,0.825149,-0.084753,15.315532,39.522236,-6.414917,,,,,,
1478277329.87,-1.223109,-1.087475,-2.312192,-0.547952,-0.640260,-0.640602,-0.436915,0.885456,-0.158342,-0.181814,0.289547,0.054994,15.431448,39.470863,-6.453291,,,,,,
1478277329.89,-1.274200,-1.086660,-2.353917,-1.032473,-0.684399,-0.008139,-0.445121,0.885077,-0.136034,0.141914,-0.278174,0.018312,15.431448,39.470863,-6.453291,,,,,,
1478277329.91,-1.335813,-1.099174,-2.396492,-1.021756,-1.464568,0.443072,-0.441846,0.890832,-0.105781,0.082685,-0.108514,-0.140038,14.924578,39.777027,-5.724392,,,,,,
1478277329.93,-1.415551,-1.117045,-2.438342,-1.026493,-2.275761,0.834076,-0.433069,0.898809,-0.067777,-0.041999,-0.211675,-0.091082,15.056132,39.778320,-5.359259,,,,,,
1478277329.95,-1.481547,-1.144726,-2.465088,-0.328896,-1.393112,1.400114,-0.411651,0.910597,-0.036838,-0.077622,-0.339430,0.084170,-4.963568,42.381519,-22.481089,,,,,,
1478277329.97,-1.464799,-1.177539,-2.445857,0.394862,0.582527,1.754669,-0.381049,0.923666,-0.040542,-0.077570,-0.271551,0.316894,-4.963568,42.381519,-22.481089,,,,,,
1478277329.99,-1.418755,-1.218932,-2.413454,0.184013,0.652739,2.086819,-0.340673,0.938732,-0.052199,-0.060176,0.128849,-0.109590,-1.718891,42.557930,-22.629578,,,,,,
1478277330.02,-1.396414,-1.237906,-2.388449,0.376634,-0.489891,0.107634,-0.321820,0.945102,-0.056695,-0.079028,0.122479,-0.105094,-1.718891,42.557930,-22.629578,,,,,,
1478277330.04,-1.383946,-1.236186,-2.362098,0.367939,-0.434467,0.146823,-0.322685,0.944538,-0.061005,0.033470,0.103313,-0.061156,-0.445670,42.395699,-22.992081,,,,,,
1478277330.06,-1.369560,-1.240783,-2.342060,0.224676,-0.148063,0.269868,-0.317516,0.946038,-0.064773,0.082195,-0.000802,0.105071,-0.541498,42.146687,-23.443409,,,,,,
1478277330.08,-1.353004,-1.247970,-2.323631,0.166158,-0.000666,0.534345,-0.309753,0.948343,-0.068549,0.094284,-0.091165,0.100120,-0.387252,42.066101,-23.590736,,,,,,
1478277330.10,-1.342524,-1.260613,-2.309101,0.047158,-0.255289,0.527905,-0.297315,0.952278,-0.069073,0.042631,-0.067619,0.064373,-0.387252,42.066101,-23.590736,,,,,,
1478277330.12,-1.336414,-1.264445,-2.301421,0.085425,0.067942,0.230105,-0.293336,0.953440,-0.070040,0.125108,-0.398524,0.120562,0.397974,41.958778,-23.780928,,,,,,
1478277330.14,-1.315833,-1.271384,-2.289062,0.084292,0.553605,0.300407,-0.285424,0.955510,-0.074392,0.102791,-0.471944,0.121389,0.397974,41.958778,-23.780928,,,,,,
1478277330.16,-1.301956,-1.277907,-2.288489,-0.155895,0.505051,0.287080,-0.278349,0.957414,-0.076688,0.111861,-0.198045,0.037076,1.131882,41.890289,-23.877859,,,,,,
1478277330.18,-1.290191,-1.293260,-2.286055,-0.094412,0.659257,0.958656,-0.263271,0.961733,-0.075877,0.267253,-0.153048,-0.051503,2.125578,41.978157,-23.654722,,,,,,
1478277330.21,-1.242686,-1.304255,-2.262471,0.332662,0.917334,0.172330,-0.249345,0.964688,-0.084881,0.108369,-0.083081,0.148525,3.081607,41.949436,-23.600388,,,,,,
1478277330.23,-1.212162,-1.284040,-2.179453,1.759982,-3.389804,-0.745459,-0.264848,0.959166,-0.099277,0.201737,-0.628295,-0.870831,3.081607,41.949436,-23.600388,,,,,,
1478277330.25,-1.252618,-1.314636,-2.188306,0.309060,-0.419781,-0.055416,-0.240651,0.967370,-0.079263,0.153966,-0.236703,0.059579,1.853545,41.222515,-24.969950,,,,,,
1478277330.27,-1.260036,-1.343122,-2.166361,-0.391346,-2.245654,2.275500,-0.214901,0.974194,-0.069019,0.149579,-0.392987,-0.287014,2.351975,41.462643,-24.526459,,,,,,
1478277330.29,-1.196135,-1.418856,-2.031481,0.467034,-3.221870,4.451346,-0.140857,0.988479,-0.055390,0.075534,-0.407272,-0.300643,2.984299,41.505711,-24.384415,,,,,,
1478277330.31,-0.421791,-1.479619,-1.222999,1.930483,-0.103074,5.251350,-0.037276,0.995846,-0.083071,-0.033311,-0.216931,0.203585,6.806091,40.293861,-25.618576,,,,,,
1478277330.33,0.577845,-1.420064,-0.241621,1.751448,1.370944,5.562319,0.082022,0.988661,-0.125782,-0.237829,-0.239928,0.130879,10.438120,38.676655,-26.858742,,,,,,
1478277330.35,0.927330,-1.344871,0.135199,-0.700156,-2.757218,4.760007,0.179212,0.974587,-0.134399,-0.920545,2.782600,-0.058198,10.438120,38.676655,-26.858742,,,,,,
1478277330.38,1.112378,-1.276227,0.402104,-1.014488,-3.289785,3.623523,0.260352,0.956927,-0.128479,-0.664436,1.555432,-0.155548,16.235661,35.764271,-27.991962,,,,,,
1478277330.40,1.158758,-1.242340,0.502199,-0.407975,-1.412428,1.030597,0.295584,0.946541,-0.129187,-0.188773,-0.236016,0.135016,17.625378,34.561829,-28.654070,,,,,,
1478277330.42,1.161731,-1.250905,0.499890,-0.038873,0.483275,-0.411784,0.288518,0.949270,-0.125078,0.379924,0.158793,0.363253,17.548473,34.474846,-28.805655,,,,,,
1478277330.44,1.163909,-1.246528,0.516539,-0.255929,-1.224416,0.416655,0.292603,0.947884,-0.126093,-0.182740,-0.090081,0.163156,17.397816,34.648018,-28.689034,,,,,,
1478277330.46,1.165843,-1.241388,0.544884,-0.277478,-0.982009,0.332397,0.297320,0.946234,-0.127445,-0.187457,-0.088431,0.164508,17.397816,34.648018,-28.689034,,,,,,
1478277330.48,1.170516,-1.238220,0.563396,-0.207984,-0.418260,0.236197,0.300672,0.945204,-0.127221,-0.296369,0.243684,0.302163,16.784168,34.696861,-28.993954,,,,,,
1478277330.50,1.188317,-1.235396,0.589872,-0.421342,-0.305628,0.347474,0.305364,0.944279,-0.122845,-0.253148,-0.052616,0.273724,16.668055,34.725616,-29.026493,,,,,,
1478277330.52,1.236814,-1.233348,0.649395,-1.142719,-0.533574,0.318705,0.312786,0.943603,-0.108531,-0.253063,0.301423,0.180644,16.743111,34.940868,-28.723404,,,,,,
1478277330.55,1.292296,-1.239110,0.730083,-1.311774,-1.111924,0.085399,0.313091,0.945495,-0.089522,-0.089702,0.219285,0.161849,16.674349,35.356087,-28.251429,,,,,,
1478277330.57,1.352583,-1.243830,0.819050,-1.458057,-1.192448,0.100115,0.313555,0.947021,-0.069529,-0.090121,0.170395,0.297846,15.845531,36.461033,-27.308271,,,,,,
1478277330.59,1.431581,-1.248630,0.933515,-1.878647,-1.473496,0.059305,0.313559,0.948552,-0.043936,-0.093436,0.247859,0.418494,15.845531,36.461033,-27.308271,,,,,,
1478277330.61,1.525514,-1.254604,1.065310,-2.049240,-1.468673,-0.235974,0.310632,0.950426,-0.014076,-0.159829,0.250456,0.475929,14.768454,37.879265,-25.947712,,,,,,
1478277330.63,1.641059,-1.265372,1.220227,-2.329531,-1.385110,-0.688388,0.299956,0.953719,0.021111,-0.149764,0.230668,0.472465,14.089656,38.717041,-25.073936,,,,,,
1478277330.65,1.798736,-1.273631,1.401375,-2.344944,-0.412625,-0.735996,0.285237,0.956170,0.066167,-0.135045,0.228217,0.427409,12.297780,40.730389,-22.716293,,,,,,
1478277330.67,1.910037,-1.271447,1.535777,-1.570672,-1.242026,-0.235510,0.278091,0.955529,0.098134,0.159302,0.114967,-0.623509,12.297780,40.730389,-22.716293,,,,,,
1478277330.69,1.968370,-1.261525,1.636606,-1.514504,-1.954649,0.007948,0.280625,0.952556,0.117845,0.142303,0.082906,-0.124787,10.676260,41.827717,-19.802696,,,,,,
1478277330.72,2.021549,-1.249856,1.726746,-1.265014,-1.062229,-0.171880,0.283951,0.948939,0.137427,-0.382004,0.159017,0.216500,10.676260,41.827717,-19.802696,,,,,,
1478277330.74,2.074893,-1.250345,1.790631,-0.638090,-0.139546,-0.609032,0.275813,0.949093,0.152148,-0.373866,0.158863,0.201780,9.685215,42.692047,-18.419361,,,,,,
1478277330.76,2.124879,-1.257157,1.850783,-0.604974,-0.514630,-0.793871,0.262363,0.951217,0.162333,-0.202121,0.001527,-0.118907,8.709019,43.256962,-17.569160,,,,,,
1478277330.78,2.170788,-1.268627,1.913190,-0.309781,-0.635348,-1.023993,0.245615,0.954693,0.168031,-0.200449,-0.067807,-0.078752,7.955826,43.526791,-17.257191,,,,,,
1478277330.80,2.209660,-1.286619,1.968757,-0.039831,-0.767377,-1.161246,0.225072,0.959893,0.167179,-0.227834,-0.176476,-0.091007,7.955826,43.526791,-17.257191,,,,,,
1478277330.82,2.235577,-1.305382,2.016545,0.086232,-1.002194,-0.998093,0.206451,0.964984,0.161815,-0.192611,-0.300372,-0.089488,5.060714,43.966480,-17.234409,,,,,,
1478277330.84,2.256864,-1.320965,2.061798,-0.032425,-1.088328,-0.870477,0.191301,0.968954,0.156627,-0.141832,-0.297033,-0.055369,5.060714,43.966480,-17.234409,,,,,,
1478277330.86,2.292584,-1.331101,2.120527,-0.306184,-0.915115,-0.739989,0.178204,0.971410,0.156861,0.007099,-0.272756,0.030455,3.197274,44.075462,-17.401667,,,,,,
1478277330.88,2.346468,-1.332421,2.191975,-0.703180,-0.622425,-0.488743,0.168581,0.971723,0.165333,0.193281,-0.454023,0.404430,1.731433,44.328728,-16.960335,,,,,,
1478277330.91,2.415613,-1.322495,2.274728,-1.147178,-0.554226,-0.275480,0.163151,0.969331,0.183790,0.226193,-0.463808,0.296618,1.271444,44.556290,-16.395357,,,,,,
1478277330.93,2.478833,-1.307052,2.359306,-1.198656,-1.095052,-0.388515,0.160406,0.965421,0.205507,0.228937,-0.459897,0.274901,1.271444,44.556290,-16.395357,,,,,,
1478277330.95,2.544093,-1.292911,2.451815,-1.288734,-1.088354,-0.644941,0.154328,0.961638,0.226795,-0.326096,-0.211546,0.417355,0.458424,45.144222,-14.747070,,,,,,
1478277330.97,2.627620,-1.275849,2.561362,-1.545937,-1.078818,-0.861395,0.142915,0.956818,0.253132,-0.506211,0.125015,0.348171,-0.921703,45.701561,-12.892043,,,,,,
1478277330.99,2.686773,-1.251877,2.657654,-1.665007,-1.852680,-0.573690,0.137739,0.949575,0.281666,-0.330152,0.257777,0.238063,-1.754502,45.986000,-11.742938,,,,,,
1478277331.01,2.707501,-1.224273,2.726156,-1.590611,-2.103725,-0.289494,0.142843,0.940559,0.308130,0.075189,0.139946,0.356634,-2.374959,45.798519,-9.571004,,,,,,
1478277331.03,2.705593,-1.196941,2.769596,-1.406420,-1.933229,-0.002449,0.154233,0.930926,0.331041,0.278537,0.000363,0.509611,-2.832043,46.009266,-8.359164,,,,,,
1478277331.05,2.693312,-1.173437,2.795150,-1.044327,-1.487710,0.072384,0.167726,0.922086,0.348748,0.134215,0.034014,0.641700,-2.832043,46.009266,-8.359164,,,,,,
1478277331.08,2.682549,-1.158435,2.811686,-0.625506,-1.076618,0.001133,0.177579,0.916177,0.359284,-0.029035,0.078543,0.591216,-3.202393,46.309677,-6.317228,,,,,,
1478277331.10,2.674433,-1.151109,2.825311,-0.330179,-0.982770,-0.116975,0.183507,0.913217,0.363814,-0.034963,0.081504,0.586686,-3.401110,46.434551,-5.197475,,,,,,
1478277331.12,2.663367,-1.148731,2.839201,-0.153636,-1.188218,-0.252410,0.188521,0.912245,0.363689,-0.060713,0.026339,0.541417,-3.568128,46.454689,-4.896847,,,,,,
1478277331.14,2.652470,-1.153088,2.856068,0.165244,-1.234052,-0.484379,0.190603,0.914021,0.358101,-0.310934,-0.320881,0.193611,-4.155245,46.437042,-4.591704,,,,,,
1478277331.16,2.643365,-1.168000,2.875074,0.611513,-1.271894,-0.720966,0.187321,0.919968,0.344338,-0.154881,-0.403123,0.028098,-4.155245,46.437042,-4.591704,,,,,,
1478277331.18,2.631778,-1.188324,2.891570,0.676125,-1.209337,-0.709943,0.182135,0.927745,0.325756,-0.102240,-0.267833,0.030735,-5.280939,46.274323,-5.054458,,,,,,
1478277331.20,2.631816,-1.203432,2.907711,0.328851,-0.244306,-0.502416,0.175262,0.933277,0.313491,-0.016998,-0.356999,0.132065,-5.916779,46.151505,-5.457044,,,,,,
1478277331.22,2.668499,-1.209327,2.925679,0.025029,1.704033,-0.371819,0.161137,0.935378,0.314805,0.171153,-0.681487,-0.051438,-6.757646,45.974861,-5.949385,,,,,,
1478277331.25,2.739486,-1.212308,2.941672,-0.024868,2.830143,-0.201957,0.137311,0.936428,0.322874,0.644274,-0.981808,-0.214399,-6.865311,45.931229,-6.159419,,,,,,
1478277331.27,2.777035,-1.208721,2.951360,-0.206234,0.254753,-0.092193,0.126291,0.935164,0.330937,0.152030,-0.181517,0.359310,-6.675248,45.913757,-6.489732,,,,,,
1478277331.29,2.798733,-1.228137,2.952097,1.768523,2.387237,-0.513841,0.112955,0.941864,0.316437,0.165366,-0.188218,0.373809,-6.675248,45.913757,-6.489732,,,,,,
1478277331.31,2.853360,-1.284347,2.918467,2.783612,4.272095,-0.131585,0.080316,0.959253,0.270892,-0.302774,0.206289,-0.691730,-6.855161,45.627876,-8.114965,,,,,,
1478277331.33,2.857019,-1.327657,2.866529,1.731056,1.363511,0.058069,0.067590,0.970587,0.231068,-0.219858,0.830286,-0.418843,-6.426078,45.184010,-10.576374,,,,,,
1478277331.35,2.832133,-1.360215,2.819181,1.649993,1.223810,0.017117,0.063658,0.977910,0.199099,-0.272582,0.391277,-0.211153,-5.607740,44.431133,-13.754143,,,,,,
1478277331.37,2.779197,-1.397534,2.720171,2.200875,2.633534,0.493711,0.061117,0.985027,0.161200,-0.270041,0.384159,-0.173254,-5.607740,44.431133,-13.754143,,,,,,
1478277331.39,2.530134,-1.440422,2.393327,3.359256,3.650895,1.490142,0.074631,0.991513,0.106450,0.395492,0.142993,-0.012395,-2.847466,42.875584,-18.663469,,,,,,
1478277331.41,1.780881,-1.467272,1.590656,4.491821,1.350078,1.323286,0.101068,0.994646,0.021551,-0.028222,0.706968,-0.567602,-2.847466,42.875584,-18.663469,,,,,,
1478277331.44,1.130794,-1.424719,0.926878,3.612497,-0.067233,1.533552,0.131694,0.989350,-0.061999,-0.422541,1.134506,-0.418119,0.538042,40.110435,-24.199429,,,,,,
1478277331.46,0.828539,-1.355385,0.644489,4.165757,-1.599538,1.015251,0.157522,0.976888,-0.144485,-0.925741,2.150782,-0.206269,2.020824,36.858521,-28.846394,,,,,,
1478277331.48,0.610378,-1.286486,0.432167,3.711103,0.069675,-0.018307,0.160773,0.959855,-0.229847,-0.242118,0.855498,1.400089,1.416875,35.399757,-29.677525,,,,,,
1478277331.50,0.497860,-1.228611,0.310292,3.105651,-0.016130,-0.033155,0.160239,0.942024,-0.294813,0.308328,0.287057,0.976210,1.416875,35.399757,-29.677525,,,,,,
1478277331.52,0.433966,-1.169637,0.238397,2.908861,0.391853,0.217738,0.164188,0.920609,-0.354290,0.418133,0.020584,1.151332,1.556614,30.263062,-34.894554,,,,,,
1478277331.54,0.419800,-1.126004,0.207745,1.649238,0.847128,0.332213,0.175369,0.902700,-0.392910,-0.038040,0.017222,1.446530,1.556614,30.263062,-34.894554,,,,,,
1478277331.56,0.437603,-1.102746,0.195832,0.793449,1.600065,0.140578,0.191182,0.892450,-0.408635,-0.550557,-0.279245,1.254140,2.601420,27.810244,-36.820225,,,,,,
1478277331.58,0.455188,-1.092844,0.186666,0.407352,0.651156,-0.057620,0.202213,0.887939,-0.413128,-0.793141,-0.600005,0.674526,4.391354,26.890614,-37.329834,,,,,,
1478277331.61,0.429063,-1.091652,0.173578,-0.216912,-1.014275,-0.386546,0.191793,0.887390,-0.419231,-0.778905,-0.863006,0.339901,4.333199,26.665554,-37.497704,,,,,,
1478277331.63,0.427250,-1.119701,0.163465,-1.445341,1.287441,-0.925528,0.180645,0.899970,-0.396763,-0.886303,-0.900459,1.527592,4.333199,26.665554,-37.497704,,,,,,
1478277331.65,0.457520,-1.163281,0.152818,-2.064810,1.888080,-1.078125,0.175068,0.918109,-0.355567,0.195995,-0.730456,0.525779,4.288924,28.668171,-35.995098,,,,,,
1478277331.67,0.499530,-1.222309,0.180487,-3.061534,-0.137994,-0.693155,0.163572,0.939890,-0.299751,0.494754,-0.809336,0.420127,4.288924,28.668171,-35.995098,,,,,,
1478277331.69,0.566054,-1.288764,0.283934,-3.506271,-1.977756,-0.077405,0.149258,0.960492,-0.234899,0.509067,-0.829938,0.355275,4.267490,31.751268,-33.309929,,,,,,
1478277331.71,0.711747,-1.348438,0.476353,-3.778949,-1.798531,0.263693,0.144041,0.975380,-0.166990,-0.041990,0.059685,0.460249,2.363232,35.299175,-29.737000,,,,,,
1478277331.73,1.024077,-1.399773,0.819557,-3.938555,-0.582219,0.177683,0.145383,0.985411,-0.088480,-0.208676,1.283037,0.808725,1.781174,37.061249,-27.553528,,,,,,
1478277331.75,1.516532,-1.424695,1.318255,-3.777028,0.115595,-0.159927,0.145368,0.989346,-0.007896,-0.083799,2.288745,0.055702,1.781174,37.061249,-27.553528,,,,,,
1478277331.78,2.042174,-1.424343,1.838432,-3.352710,0.950175,-0.901223,0.130015,0.989295,0.066269,0.273107,1.764932,0.267197,1.620750,40.171391,-22.793379,,,,,,
1478277331.80,2.483760,-1.375065,2.265208,-4.501735,0.070681,-0.058071,0.118908,0.980906,0.153899,0.178669,1.534613,-0.135711,1.195271,42.522850,-18.063345,,,,,,
1478277331.82,2.653937,-1.281300,2.479685,-4.933131,-2.037907,0.417082,0.133758,0.958388,0.252193,0.163819,1.557130,-0.234005,1.158508,43.712414,-14.959571,,,,,,
1478277331.84,2.720622,-1.198142,2.591887,-3.966517,-2.027436,0.048023,0.148784,0.931364,0.332301,-0.800654,1.036852,0.354726,0.879871,45.453190,-8.314998,,,,,,
1478277331.86,2.727550,-1.130506,2.675258,-3.228713,-4.213215,-0.295796,0.171467,0.904628,0.390189,-0.759388,0.971944,-0.313330,0.344835,44.596653,-6.579368,,,,,,
1478277331.88,2.689399,-1.085127,2.754120,-2.295786,-5.205919,-0.711574,0.203964,0.884363,0.419883,-0.384612,0.326437,-0.715934,0.344835,44.596653,-6.579368,,,,,,
1478277331.90,2.644420,-1.061176,2.805141,-1.048153,-3.426722,-0.405252,0.232674,0.872930,0.428785,0.034278,-0.690938,-0.840818,-0.988401,45.004410,-2.427820,,,,,,
1478277331.92,2.620335,-1.064410,2.822585,0.564163,-0.944096,-0.498797,0.241526,0.874503,0.420607,-0.059107,-1.027136,-0.820021,-1.820511,45.040268,-0.572920,,,,,,
1478277331.95,2.617915,-1.098887,2.811050,2.087233,1.095263,-0.615331,0.227325,0.890702,0.393667,0.014542,-1.416504,-0.787466,-2.186985,45.017693,-0.945063,,,,,,
1478277331.97,2.621024,-1.158212,2.767968,3.285436,2.433140,-0.689589,0.199436,0.916088,0.347863,-0.243976,-1.488781,-0.732659,-2.959299,44.785019,-4.220522,,,,,,
1478277331.99,2.614278,-1.237758,2.694275,4.184914,3.139968,-0.790498,0.164509,0.945054,0.282508,-0.156391,-1.347428,-0.539603,-2.959299,44.785019,-4.220522,,,,,,
1478277332.01,2.567658,-1.319008,2.573563,3.784996,3.279750,-0.442639,0.135266,0.968468,0.209217,-0.127149,-1.370843,-0.466313,-3.381016,43.839027,-9.948711,,,,,,
1478277332.03,2.545712,-1.355436,2.485056,0.608292,2.634578,-0.054873,0.119936,0.976899,0.176869,0.014723,0.224333,1.468135,-3.169909,43.070923,-12.927324,,,,,,
1478277332.05,2.618628,-1.348026,2.530443,-0.928766,0.538249,-0.316338,0.110345,0.975289,0.191403,0.191367,0.715156,0.802310,-2.162555,42.519825,-14.820810,,,,,,
1478277332.07,2.698364,-1.324229,2.610002,-1.667593,0.174075,-0.196625,0.104674,0.969756,0.220492,0.048326,-0.116332,0.731229,-2.227440,42.722996,-14.214516,,,,,,
1478277332.09,2.797686,-1.297035,2.656915,-0.966096,4.808328,0.219244,0.091155,0.962761,0.254524,-0.265456,-0.847374,-0.207680,-2.079997,43.349239,-12.197762,,,,,,
1478277332.11,2.872708,-1.298573,2.647797,0.645429,1.687754,-0.478810,0.071428,0.963175,0.259213,0.324690,1.026632,-2.978756,-2.079997,43.349239,-12.197762,,,,,,
1478277332.14,2.933240,-1.325890,2.720377,0.882229,0.487733,-1.158484,0.050154,0.970160,0.237221,0.222323,0.734811,-0.130288,-0.843372,43.321026,-12.443717,,,,,,
1478277332.16,2.989374,-1.371223,2.694200,3.304867,5.049973,0.691335,0.030061,0.980151,0.195959,0.759749,-0.528033,-1.418783,-1.803689,43.078224,-13.163651,,,,,,
1478277332.18,2.683249,-1.446070,2.273425,4.132918,4.639840,2.852140,0.055044,0.992232,0.111563,0.734766,-0.540114,-1.334387,0.835192,41.709293,-17.085251,,,,,,
1478277332.20,1.940013,-1.432155,1.496246,2.669494,-1.915643,3.546644,0.128885,0.990405,0.049873,1.172385,0.628065,-0.918862,0.835192,41.709293,-17.085251,,,,,,
1478277332.22,1.178403,-1.384097,0.884893,5.961104,-8.311088,0.996684,0.171509,0.982622,-0.070980,-1.456040,3.423475,1.191296,5.403177,37.429943,-24.537184,,,,,,
1478277332.24,0.739816,-1.322672,0.458893,4.314131,2.002904,-0.795723,0.165562,0.969375,-0.181388,-1.433674,1.496644,1.749183,5.403177,37.429943,-24.537184,,,,,,
1478277332.26,0.562646,-1.261763,0.243813,3.737966,0.229030,0.012182,0.162235,0.952628,-0.257254,0.111614,0.626367,1.245780,3.968073,32.935078,-30.525459,,,,,,
1478277332.28,0.466022,-1.202119,0.173408,2.705617,-1.645112,0.492268,0.161932,0.932805,-0.321952,0.354990,0.116542,1.472983,3.436166,30.090815,-32.728386,,,,,,
1478277332.31,0.429997,-1.147587,0.119134,2.611905,2.182213,0.073193,0.171203,0.911776,-0.373302,0.373154,-0.189272,1.831783,3.187552,28.601652,-34.061657,,,,,,
1478277332.33,0.472707,-1.112149,0.091976,1.126320,3.127501,0.284998,0.201577,0.896652,-0.394185,-0.091057,-0.382782,1.169713,3.187552,28.601652,-34.061657,,,,,,
1478277332.35,0.494362,-1.098441,0.081608,0.623396,0.201046,0.062948,0.215877,0.890499,-0.400510,-0.742595,-0.953289,-0.030383,7.451250,25.885698,-35.536194,,,,,,
1478277332.37,0.448472,-1.084712,0.072191,0.322500,-2.252158,0.035864,0.202559,0.884169,-0.420969,-0.729277,-0.946959,-0.009923,7.451250,25.885698,-35.536194,,,,,,
1478277332.39,0.427658,-1.111127,0.046632,-1.248304,1.625777,-1.630201,0.184000,0.896199,-0.403696,-1.188273,-0.616369,2.332315,5.876463,25.308826,-36.240059,,,,,,
1478277332.41,0.439073,-1.155746,0.005564,-2.053032,1.970013,-1.442240,0.171416,0.915096,-0.364987,0.595186,-0.872097,0.319257,6.352683,27.002569,-34.912979,,,,,,
1478277332.43,0.455612,-1.223792,0.030234,-3.487371,-1.597978,-0.719499,0.149640,0.940396,-0.305391,0.594607,-0.648663,0.299608,6.371467,28.511211,-33.688675,,,,,,
1478277332.45,0.510291,-1.298810,0.138416,-4.020734,-2.244196,-0.066375,0.131215,0.963239,-0.234420,0.613033,-0.671506,0.228637,6.371467,28.511211,-33.688675,,,,,,
1478277332.48,0.685405,-1.369889,0.340195,-3.949251,-0.089013,0.005710,0.126318,0.979886,-0.154491,0.347223,-0.596753,0.813411,3.983435,32.363365,-30.416382,,,,,,
1478277332.50,1.141963,-1.421360,0.779721,-4.511170,1.503097,0.435005,0.135400,0.988855,-0.061906,0.131476,-0.135278,0.168306,3.642950,35.998833,-26.061937,,,,,,
1478277332.52,1.793860,-1.422802,1.424209,-4.500152,-0.296358,0.266508,0.143802,0.989069,0.032620,-0.493472,1.373953,-0.296704,4.449510,37.723873,-23.356428,,,,,,
1478277332.54,2.285422,-1.377499,1.971682,-4.575556,-2.827069,-0.506851,0.145097,0.981376,0.125887,-0.704805,3.450234,-0.650118,4.178036,40.720631,-17.685749,,,,,,
1478277332.56,2.562748,-1.335620,2.253638,-2.584074,1.866688,-0.994875,0.127472,0.972473,0.195056,0.549438,1.514633,-0.208987,3.301842,41.824562,-15.106799,,,,,,
1478277332.58,2.792271,-1.293034,2.456558,-3.559601,0.225052,-1.023760,0.093849,0.961671,0.257644,0.869941,1.042754,0.213608,3.301842,41.824562,-15.106799,,,,,,
1478277332.60,2.843400,-1.214695,2.545293,-3.576557,-1.879366,0.104402,0.102423,0.937263,0.333238,-0.225485,0.970833,0.083998,2.353934,43.121101,-11.110403,,,,,,
1478277332.62,2.844233,-1.162243,2.585001,-2.011505,-1.851244,0.035589,0.116402,0.917697,0.379847,-1.138649,0.638440,0.221228,1.892583,44.114655,-6.223092,,,,,,
1478277332.65,2.814500,-1.135945,2.620680,-1.194354,-3.760049,-0.580449,0.135352,0.906933,0.398940,-1.061011,0.389363,-0.247374,1.742773,44.292240,-4.855070,,,,,,
1478277332.67,2.756677,-1.118051,2.669175,-1.011063,-5.154177,-0.497976,0.164249,0.899250,0.405429,-0.113269,-0.070133,-0.814547,0.516382,44.469269,-3.260214,,,,,,
1478277332.69,2.688300,-1.113293,2.685831,0.156748,-2.779347,-0.058288,0.193437,0.897158,0.397102,0.610365,-0.902727,-0.980094,0.516382,44.469269,-3.260214,,,,,,
1478277332.71,2.647888,-1.136800,2.651754,2.066386,0.852297,0.208842,0.199272,0.907292,0.370286,0.271309,-1.526448,-0.787415,-0.158515,44.500446,-2.845508,,,,,,
1478277332.73,2.603710,-1.191239,2.551951,3.694500,2.773844,0.317409,0.189819,0.928829,0.318192,-0.645095,-1.711422,-0.996536,-0.065563,44.417061,-3.941024,,,,,,
,,,,,,,,,,,,,,,,37.352915,-122.034767,47.750244,0.750000,-1.000000,1478280793.40
1478277332.75,2.535549,-1.265303,2.418392,4.153892,2.548973,-0.405088,0.171321,0.953699,0.247200,-0.680141,-1.257501,-0.691078,0.803402,43.721077,-8.731178,,,,,,
1478277332.77,2.443533,-1.340279,2.265459,3.736966,2.783122,-0.671840,0.146852,0.973548,0.175037,-0.655672,-1.277351,-0.618916,0.950874,43.058304,-11.553766,,,,,,
1478277332.79,2.356041,-1.394144,2.110483,2.127621,3.219262,-0.565818,0.124282,0.984438,0.124244,0.368027,0.180922,0.856316,1.336252,41.531208,-16.179768,,,,,,
1478277332.81,2.450408,-1.411719,2.145663,-0.445189,2.054314,-1.017770,0.100977,0.987374,0.122051,0.312674,1.397010,1.537754,1.336252,41.531208,-16.179768,,,,,,
1478277332.84,2.620008,-1.401185,2.314652,-1.390877,-0.602213,-0.577002,0.084105,0.985650,0.146354,0.122133,0.877799,1.066506,1.715635,41.307434,-16.708199,,,,,,
1478277332.86,2.724902,-1.365199,2.423318,-2.194122,0.900954,0.128082,0.082628,0.978939,0.186684,-0.414888,-0.986599,0.232628,1.178943,41.650181,-15.883456,,,,,,
1478277332.88,2.861882,-1.320778,2.475112,-2.278934,4.581534,0.189160,0.068308,0.968908,0.237806,-0.352380,-1.821676,-1.294904,1.628049,42.569599,-13.175365,,,,,,
1478277332.90,2.939853,-1.308265,2.552567,1.396082,-2.432862,-0.993202,0.052002,0.965736,0.254262,0.508453,0.646858,-3.030828,1.628049,42.569599,-13.175365,,,,,,
1478277332.92,2.922999,-1.366778,2.526077,2.414985,3.148155,0.031384,0.043936,0.979260,0.197784,-0.192130,0.498187,0.135864,1.343378,42.542519,-13.294401,,,,,,
1478277332.94,2.767715,-1.422666,2.292664,3.197070,2.855489,1.575370,0.053904,0.989049,0.137393,-0.202097,0.488399,0.196255,1.343378,42.542519,-13.294401,,,,,,
1478277332.96,2.269427,-1.444045,1.731545,2.577147,2.659364,2.852606,0.096797,0.991978,0.081304,0.454488,-0.034947,-0.777349,4.300304,41.013153,-16.965858,,,,,,
1478277332.98,1.620111,-1.411981,1.111487,4.144260,-5.570267,2.468550,0.157957,0.987415,0.007796,-0.172193,2.951488,-1.730971,6.687939,40.006855,-18.523890,,,,,,
1478277333.01,0.913477,-1.349359,0.541848,6.137365,-4.868047,0.365721,0.173868,0.975583,-0.134194,-1.287088,2.478275,2.104150,7.119618,36.772579,-24.197102,,,,,,
1478277333.03,0.638412,-1.288312,0.241566,3.495022,2.059287,-0.373236,0.166108,0.960366,-0.223842,-0.310746,1.181052,2.347789,7.119618,36.772579,-24.197102,,,,,,
1478277333.05,0.575785,-1.243942,0.169708,1.904584,-0.551671,0.555851,0.174818,0.947057,-0.269298,0.605974,0.319224,1.328640,6.233146,31.206264,-31.236654,,,,,,
1478277333.07,0.548066,-1.193194,0.111013,3.024246,2.891203,0.552127,0.192103,0.929551,-0.314692,0.866048,-0.324601,1.258006,6.233146,31.206264,-31.236654,,,,,,
1478277333.09,0.617849,-1.144567,0.082843,1.330068,4.978528,0.798578,0.239499,0.910531,-0.337006,0.036792,-0.358804,1.364594,8.193958,28.522318,-33.282848,,,,,,
1478277333.11,0.694441,-1.126501,0.086316,0.710724,1.765092,0.519287,0.275067,0.902914,-0.330280,-1.179821,-1.082708,-0.610043,13.474361,26.918873,-32.897221,,,,,,
1478277333.13,0.653330,-1.096506,0.071161,1.530712,-2.830791,0.582850,0.277602,0.889617,-0.362655,-1.182357,-1.069411,-0.577668,13.973550,26.276272,-33.207062,,,,,,
1478277333.15,0.580542,-1.088041,0.036154,0.062298,-0.521817,-1.030165,0.254615,0.885719,-0.388166,-1.371467,-0.433464,1.556333,13.973550,26.276272,-33.207062,,,,,,
1478277333.18,0.569607,-1.115086,-0.006005,-0.836302,1.676481,-1.474468,0.237347,0.897948,-0.370614,0.210987,-0.849700,0.594613,11.675857,25.736698,-34.492149,,,,,,
1478277333.20,0.581730,-1.152187,-0.004904,-1.949704,-0.378537,-0.613294,0.223355,0.913655,-0.339628,0.472538,-0.889821,0.332045,11.675857,25.736698,-34.492149,,,,,,
1478277333.22,0.620759,-1.204501,0.076808,-3.311085,-2.343177,0.054319,0.208324,0.933661,-0.291340,0.487568,-0.909826,0.283757,11.389161,27.710526,-33.027645,,,,,,
1478277333.24,0.714619,-1.261161,0.230006,-3.644523,-2.005183,0.167073,0.199686,0.952445,-0.230162,0.215673,-0.403723,1.046919,9.194649,31.030821,-30.675041,,,,,,
1478277333.26,0.900992,-1.316674,0.441029,-4.110891,-0.489051,0.087696,0.197080,0.967884,-0.156075,0.041521,-0.426441,0.761040,8.570084,32.750549,-29.023554,,,,,,
1478277333.28,1.261981,-1.358257,0.814087,-4.353412,0.202054,0.132255,0.200964,0.977498,-0.064112,-0.148276,-0.078100,0.001749,8.570084,32.750549,-29.023554,,,,,,
1478277333.30,1.666362,-1.366364,1.251738,-4.501417,-2.293826,0.063752,0.202085,0.979176,0.019372,-0.776701,1.536571,-0.223443,8.533071,36.370049,-24.347851,,,,,,
1478277333.32,2.047274,-1.340631,1.697579,-4.309490,-1.891595,-0.611092,0.202727,0.973629,0.104636,-0.898330,3.165501,0.090829,7.475831,39.436874,-19.423088,,,,,,
1478277333.34,2.355347,-1.320639,1.996833,-2.612729,2.359702,-1.328016,0.175197,0.968874,0.174900,0.520512,1.994017,0.178432,6.589962,40.742104,-16.883860,,,,,,
1478277333.37,2.632689,-1.287683,2.243774,-3.720400,-0.310155,-1.396755,0.136103,0.960190,0.243948,1.020635,1.544387,0.145411,5.592875,42.404179,-12.610188,,,,,,
1478277333.39,2.710242,-1.209840,2.402961,-4.201212,-3.987048,-0.062787,0.147659,0.935560,0.320819,-0.022125,0.851885,-0.045856,4.566656,43.223824,-9.962846,,,,,,
1478277333.41,2.717807,-1.158750,2.481312,-1.880974,-2.965791,-0.503546,0.164685,0.916303,0.365058,-1.163404,0.321444,-0.054420,4.566656,43.223824,-9.962846,,,,,,
1478277333.43,2.692406,-1.144482,2.529445,-0.893274,-3.886175,-0.505921,0.179563,0.910496,0.372497,-0.956663,-0.118244,-0.291061,3.398930,44.079994,-5.814863,,,,,,
1478277333.45,2.636197,-1.129877,2.559875,-0.668120,-3.488974,-0.142060,0.206623,0.904360,0.373418,-0.015674,-0.454057,-0.809407,2.145508,44.289734,-4.714639,,,,,,
1478277333.47,2.589051,-1.132291,2.559013,0.659678,-1.112014,0.034177,0.222845,0.905387,0.361405,0.542047,-1.067008,-1.261476,1.795367,44.340862,-4.367638,,,,,,
1478277333.49,2.566847,-1.165186,2.510694,2.600668,2.286288,-0.134325,0.214502,0.918862,0.331183,-0.342752,-2.013069,-0.915915,1.689180,44.195259,-5.686596,,,,,,
1478277333.51,2.547604,-1.235089,2.410964,4.114445,3.787525,-0.646191,0.184377,0.944177,0.273010,-0.612935,-1.474588,-0.770583,1.689180,44.195259,-5.686596,,,,,,
1478277333.54,2.529439,-1.317723,2.309687,3.818246,3.684184,-1.175147,0.143877,0.968147,0.204915,-0.572435,-1.498558,-0.702488,1.945008,43.298321,-10.482553,,,,,,
1478277333.56,2.504633,-1.389596,2.206257,2.952905,3.378349,-1.022138,0.107181,0.983628,0.144872,0.108014,-0.227311,0.089930,1.864786,42.593605,-13.065947,,,,,,
1478277333.58,2.538399,-1.415185,2.192491,-0.525764,1.242194,-0.412686,0.087919,0.987917,0.127634,0.261599,0.677336,1.589041,2.109468,41.267040,-16.762852,,,,,,
1478277333.60,2.688138,-1.389093,2.352886,-1.836725,-0.903996,-0.365042,0.079162,0.983537,0.162443,-0.108474,0.992293,0.962252,2.109468,41.267040,-16.762852,,,,,,
1478277333.62,2.789857,-1.340306,2.442716,-3.025785,2.617879,0.279341,0.078709,0.973555,0.214468,-0.536747,-0.164488,1.313837,1.681337,42.386768,-13.745781,,,,,,
1478277333.64,2.954077,-1.265029,2.485835,-2.948153,4.720761,0.605172,0.056117,0.953616,0.295748,-0.195460,0.611066,-0.932879,1.681337,42.386768,-13.745781,,,,,,
1478277333.66,2.968562,-1.262776,2.529284,1.663924,-3.865504,-1.408570,0.052197,0.952936,0.298646,1.325016,1.724936,-3.125519,3.896492,43.516842,-8.917011,,,,,,
1478277333.68,3.000041,-1.316278,2.557646,2.655285,2.417068,0.001846,0.035521,0.967785,0.249261,0.432191,-0.997814,-1.275903,2.902767,43.508987,-9.324896,,,,,,
1478277333.71,2.849275,-1.375570,2.324591,3.732154,3.720059,2.856471,0.055902,0.981004,0.185760,0.411810,-1.011033,-1.212402,3.190010,42.607224,-12.761646,,,,,,
1478277333.73,2.222570,-1.391384,1.646054,3.832445,-0.133125,4.995220,0.141871,0.983949,0.108248,0.640219,0.006286,-1.750613,3.190010,42.607224,-12.761646,,,,,,
1478277333.75,1.433654,-1.369654,0.976463,6.377127,-7.068606,1.016875,0.197913,0.979839,-0.027314,-0.704322,3.486287,2.359238,9.324844,38.027893,-21.338652,,,,,,
1478277333.77,1.011904,-1.328809,0.544906,4.139797,1.222231,-0.541013,0.203171,0.970864,-0.127065,-1.661331,1.801048,1.278600,9.324844,38.027893,-21.338652,,,,,,
1478277333.79,0.756794,-1.284639,0.288566,3.346999,-0.987361,0.073349,0.193804,0.959336,-0.205220,0.273146,0.632477,1.360418,8.804789,34.102467,-27.347923,,,,,,
1478277333.81,0.650475,-1.232990,0.191238,2.646643,0.129497,0.605301,0.200695,0.943484,-0.263742,0.484424,-0.078753,1.441949,8.191475,31.092815,-30.895760,,,,,,
,,,,,,,,,,,,,,,,37.352941,-122.034764,43.696350,0.940000,-1.000000,1478280795.00
1478277333.83,0.636156,-1.172943,0.120125,3.176000,3.836914,0.627898,0.230181,0.921895,-0.311652,0.034574,-0.410359,1.482870,8.012751,28.838118,-31.300800,,,,,,
1478277333.85,0.680596,-1.124377,0.060613,1.763957,4.261681,0.483351,0.271674,0.901999,-0.335547,-0.468742,-0.640188,1.299368,8.012751,28.838118,-31.300800,,,,,,
1478277333.88,0.677431,-1.098514,0.040471,1.264836,-1.509780,0.449300,0.285141,0.890532,-0.354467,-1.110230,-1.163008,-0.307612,13.737227,25.185268,-32.443367,,,,,,
1478277333.90,0.573360,-1.075603,-0.003849,1.311640,-3.166163,-0.632264,0.257777,0.879877,-0.399209,-1.059687,-0.896189,0.172326,13.737227,25.185268,-32.443367,,,,,,
1478277333.92,0.505584,-1.085646,-0.060084,-0.356190,0.823874,-1.557671,0.225858,0.884605,-0.407998,-1.027387,-0.678657,1.816781,10.699551,23.838148,-34.537567,,,,,,
1478277333.94,0.509318,-1.105237,-0.089190,-0.660373,1.247176,-0.550302,0.218886,0.893571,-0.391944,0.542192,-0.834519,0.237708,10.334845,24.505554,-34.179672,,,,,,
1478277333.96,0.534727,-1.145525,-0.061648,-2.841651,-1.133635,-0.736197,0.210247,0.910927,-0.354976,0.696903,-0.494332,-0.009419,10.658332,25.158272,-33.601231,,,,,,
1478277333.98,0.540359,-1.207653,0.020105,-3.276284,-3.861330,0.151235,0.182738,0.934785,-0.304605,0.724413,-0.518190,-0.059791,10.658332,25.158272,-33.601231,,,,,,
1478277334.00,0.656758,-1.278565,0.185924,-4.903389,-0.702574,0.329587,0.175894,0.957604,-0.228160,-0.163412,-0.319954,0.973811,7.864438,28.416622,-31.721087,,,,,,
1478277334.02,0.951989,-1.349923,0.488598,-4.759501,-0.316302,-0.272442,0.178458,0.975706,-0.127081,-0.692191,1.597887,-0.215906,6.941946,32.584423,-27.670313,,,,,,
1478277334.04,1.352607,-1.419543,0.900781,-4.531958,0.525711,-1.940715,0.147104,0.988583,-0.032616,-0.502253,2.314991,0.002465,6.657473,34.617218,-25.157652,,,,,,
1478277334.07,2.076487,-1.442771,1.580618,-3.838412,3.027780,-1.437951,0.111696,0.991816,0.061848,0.794981,1.704122,-0.193623,5.357441,38.115974,-19.850729,,,,,,
1478277334.09,2.579550,-1.417528,2.033784,-2.425641,1.405344,-0.979074,0.081360,0.988277,0.129184,0.752976,1.726856,-0.587253,5.428269,39.268917,-17.437529,,,,,,
1478277334.11,2.738623,-1.356269,2.253390,-4.567801,-4.260484,0.008241,0.083484,0.977077,0.195834,-0.561786,1.833027,0.697263,5.428269,39.268917,-17.437529,,,,,,
1478277334.13,2.792265,-1.269764,2.367998,-3.646140,-1.921865,0.189999,0.101484,0.955031,0.278598,-1.341978,1.112657,0.218396,4.193572,40.909885,-13.578528,,,,,,
1478277334.15,2.800555,-1.209616,2.438126,-2.782403,-3.534684,-0.208772,0.118193,0.935480,0.333027,-1.254988,0.748022,-0.402561,3.510143,42.283669,-8.680536,,,,,,
1478277334.17,2.752417,-1.166365,2.482926,-1.924851,-4.930844,0.180894,0.149303,0.919326,0.364071,-0.553081,-0.127136,-0.820675,2.960656,42.636482,-6.996169,,,,,,
1478277334.19,2.668573,-1.136063,2.506855,-1.098802,-4.458436,0.103100,0.191874,0.906983,0.374922,0.436742,-0.678330,-1.245406,2.245076,42.974590,-4.870889,,,,,,
1478277334.21,2.611493,-1.128294,2.505431,0.198370,-1.447344,0.207110,0.216507,0.903683,0.369434,0.457794,-1.232876,-1.020969,2.245076,42.974590,-4.870889,,,,,,
1478277334.24,2.594701,-1.149871,2.476104,1.778170,1.586369,-0.228607,0.212489,0.912711,0.349008,-0.236125,-1.755439,-0.809686,2.094904,43.006775,-4.648646,,,,,,
1478277334.26,2.606910,-1.205502,2.443027,2.918275,1.834949,-1.314786,0.182030,0.934019,0.307367,-0.974678,-1.377836,-0.815073,1.178411,42.568218,-7.152021,,,,,,
1478277334.28,2.667532,-1.286267,2.446579,3.584696,3.582718,-2.061671,0.128143,0.959794,0.249750,-0.214996,-0.804368,-0.349573,0.222106,41.810852,-10.788731,,,,,,
1478277334.30,2.771105,-1.373709,2.452202,3.416697,4.720612,-1.349457,0.070898,0.980641,0.182528,-0.157751,-0.825215,-0.282351,0.222106,41.810852,-10.788731,,,,,,
1478277334.32,2.863131,-1.404274,2.473609,-0.104540,2.147131,-0.365329,0.045562,0.986167,0.159369,0.219377,0.730096,1.216440,0.080484,39.803486,-16.741240,,,,,,
1478277334.34,2.915051,-1.372498,2.524327,-2.452297,-0.938697,0.192182,0.044248,0.980403,0.191968,0.340700,0.905461,1.103046,0.080484,39.803486,-16.741240,,,,,,
1478277334.36,2.936582,-1.297834,2.550954,-4.015547,1.664863,0.567993,0.054881,0.962977,0.263940,-0.231609,-0.619501,0.752356,0.166405,40.579285,-14.761000,,,,,,
1478277334.38,3.043740,-1.238708,2.564985,-1.062365,3.076454,-0.052327,0.031851,0.945364,0.324459,0.521753,0.549845,-2.460216,0.531971,41.371288,-12.358267,,,,,,
1478277334.41,3.063467,-1.273739,2.606837,2.331045,-0.078868,-1.170114,0.022845,0.956202,0.291815,0.576795,1.409734,-1.347967,1.483129,41.930313,-10.209922,,,,,,
1478277334.43,-3.075578,-1.326444,2.665809,3.018602,5.152536,-0.100900,-0.015959,0.970294,0.241401,-0.655794,-0.618259,-0.706916,1.483129,41.930313,-10.209922,,,,,,
1478277334.45,3.114993,-1.416258,2.491463,4.331144,2.633071,2.867015,0.004094,0.988083,0.153870,0.734309,-0.252167,-0.931152,3.105861,40.057747,-15.821630,,,,,,
1478277334.47,2.304455,-1.441256,1.650060,2.663963,-0.174942,5.486376,0.095945,0.991621,0.086497,0.642459,-0.255705,-0.863779,3.105861,40.057747,-15.821630,,,,,,
1478277334.49,1.352009,-1.392535,0.834181,6.735734,-9.447055,1.205755,0.173092,0.984153,-0.038486,0.326008,2.707466,-2.332714,8.902845,37.255814,-19.933306,,,,,,
1478277334.51,0.797058,-1.336305,0.301430,4.642498,2.950750,-0.575174,0.166199,0.972633,-0.162368,-1.037796,4.416314,1.434707,6.285368,32.418541,-27.823114,,,,,,
1478277334.53,0.609319,-1.273646,0.075735,3.623243,-0.429698,0.054820,0.167570,0.956175,-0.240104,-0.301939,1.076891,1.590416,7.330982,30.451654,-29.724514,,,,,,
1478277334.55,0.517465,-1.216023,-0.025290,3.241082,1.552242,0.280908,0.171840,0.937725,-0.301897,0.510594,0.347873,1.492571,7.330982,30.451654,-29.724514,,,,,,
1478277334.58,0.534868,-1.146172,-0.094976,3.008887,4.853317,0.618206,0.209997,0.911194,-0.354440,-0.481206,-0.361160,0.837274,9.689875,25.107956,-33.768185,,,,,,
1478277334.60,0.600428,-1.110186,-0.117977,1.014363,2.885025,0.478645,0.251138,0.895782,-0.366750,-0.940759,-1.120223,-0.711879,9.689875,25.107956,-33.768185,,,,,,
1478277334.62,0.591005,-1.081652,-0.120121,1.501783,-2.343105,0.947266,0.261810,0.882735,-0.390172,-0.951431,-1.107177,-0.688456,14.191938,22.993504,-33.682056,,,,,,
1478277334.64,0.525562,-1.065567,-0.107979,-0.938203,-2.573408,-0.001881,0.242827,0.875063,-0.418688,-1.436674,-0.515246,3.335603,12.032597,21.442869,-35.496666,,,,,,
1478277334.66,0.528088,-1.104839,-0.112626,-1.518778,1.587296,-1.271715,0.226384,0.893392,-0.388074,0.006755,-0.631978,0.610914,11.133924,22.297543,-35.262566,,,,,,
1478277334.68,0.568583,-1.155385,-0.100797,-2.772793,0.589218,-0.959925,0.217296,0.914950,-0.340071,0.356801,-0.771823,0.264876,11.133924,22.297543,-35.262566,,,,,,
1478277334.70,0.605732,-1.225376,-0.025176,-3.755231,-2.679018,-0.519741,0.192782,0.940933,-0.278351,0.620939,-0.481445,0.295533,11.784260,24.833683,-33.301842,,,,,,
1478277334.72,0.723113,-1.301850,0.162487,-4.854002,-2.481666,0.168292,0.175830,0.964051,-0.199220,0.762525,-0.386308,0.915926,9.196881,28.821960,-30.810799,,,,,,
1478277334.74,1.056759,-1.358933,0.527919,-4.722433,-0.860758,0.583843,0.183106,0.977641,-0.103395,0.215362,-0.133158,0.174562,8.143026,31.083031,-28.846659,,,,,,
1478277334.77,1.468382,-1.379185,1.005572,-4.534211,-3.259971,0.301976,0.189443,0.981699,-0.019470,-0.211141,2.834112,0.481109,7.365745,34.904423,-24.331469,,,,,,
1478277334.79,1.914105,-1.366416,1.461278,-3.723940,2.328279,0.030203,0.191117,0.979187,0.068318,-0.212815,2.836624,0.393322,6.657989,36.550095,-22.008068,,,,,,
,,,,,,,,,,,,,,,,37.352963,-122.034779,42.890381,0.940000,350.156250,1478280796.00
1478277334.81,2.303721,-1.345635,1.778019,-3.193327,3.859246,-1.180480,0.165934,0.974758,0.149374,0.309667,2.197788,0.218058,6.657989,36.550095,-22.008068,,,,,,
1478277334.83,2.575148,-1.296182,2.015053,-3.907046,0.142492,-0.109168,0.145523,0.962530,0.228822,0.354050,2.015223,-0.166032,7.896075,38.838062,-17.142057,,,,,,
1478277334.85,2.649110,-1.220978,2.163268,-4.143356,-4.492869,-0.441402,0.162047,0.939435,0.301998,-1.257841,1.594806,-0.726375,7.782277,40.669273,-12.249072,,,,,,
1478277334.87,2.662434,-1.165894,2.285090,-2.636147,-4.668669,-0.745669,0.181614,0.919141,0.349566,-1.543400,0.996585,-0.585192,6.752333,41.438896,-10.090450,,,,,,
1478277334.89,2.639501,-1.137358,2.349323,-1.573132,-3.777587,-0.212419,0.202126,0.907527,0.368157,0.128105,-1.079783,-0.863427,4.741222,42.239807,-7.610021,,,,,,
1478277334.91,2.587283,-1.111288,2.384244,-1.188611,-3.765929,0.015973,0.233443,0.896271,0.377098,0.262040,-1.263138,-1.194313,4.741222,42.239807,-7.610021,,,,,,
1478277334.94,2.538008,-1.103109,2.401041,-0.086969,-2.592952,-0.121760,0.255886,0.892613,0.371166,0.239597,-1.259480,-1.188381,3.843744,42.547035,-6.290376,,,,,,
1478277334.96,2.496031,-1.120069,2.385886,1.486892,-0.353621,-0.351050,0.262090,0.900131,0.347957,-0.261083,-2.182250,-0.938304,3.488153,42.590614,-6.202089,,,,,,
1478277334.98,2.468958,-1.172686,2.330651,3.185365,1.755795,-0.983493,0.241542,0.921795,0.303234,-0.512950,-1.698010,-0.931606,2.937768,42.326748,-8.025521,,,,,,
1478277335.00,2.455327,-1.252284,2.265012,3.743037,2.604140,-1.687019,0.198431,0.949702,0.242261,-0.552206,-1.064616,-0.697339,2.937768,42.326748,-8.025521,,,,,,
1478277335.02,2.441918,-1.332244,2.171624,3.397785,4.137467,-1.275706,0.152167,0.971681,0.180779,-0.006553,-0.817796,-0.115883,1.610084,40.548779,-14.757971,,,,,,
1478277335.04,2.548721,-1.353989,2.189691,-1.724168,3.764078,-0.572536,0.120193,0.976589,0.178402,0.519241,0.316197,2.277287,1.610084,40.548779,-14.757971,,,,,,
1478277335.06,2.730011,-1.312185,2.346583,-2.146746,-0.413374,-0.514729,0.102310,0.966746,0.234381,0.686966,2.060201,0.567636,2.532423,40.322594,-15.240360,,,,,,
1478277335.08,2.762847,-1.269214,2.426391,-2.532337,-2.563268,0.162485,0.109829,0.954868,0.275980,-0.249722,-1.919925,0.329321,2.333811,40.916992,-13.599494,,,,,,
1478277335.11,2.828637,-1.210263,2.429040,-2.568613,7.995602,1.505969,0.108609,0.935709,0.335638,-0.248502,-1.900766,0.269663,1.819827,41.834866,-10.541607,,,,,,
1478277335.13,2.911934,-1.199376,2.444789,1.898099,-1.527135,-1.542221,0.082621,0.931813,0.353410,0.211934,0.713603,-3.868104,1.819827,41.834866,-10.541607,,,,,,
1478277335.15,3.009320,-1.269912,2.500654,2.788667,5.352904,-1.530059,0.039087,0.955075,0.293776,-0.563226,-0.173520,-1.386596,2.761831,41.774693,-10.575474,,,,,,
1478277335.17,3.106323,-1.363232,2.497815,4.967105,3.826459,0.805960,0.007267,0.978536,0.205949,0.848233,-0.735067,-1.227830,2.761831,41.774693,-10.575474,,,,,,
1478277335.19,2.713228,-1.446091,2.033709,4.136829,2.465850,3.677556,0.051666,0.992234,0.113144,1.003082,0.025344,-1.073471,4.345345,40.038338,-15.576994,,,,,,
1478277335.21,1.656260,-1.412525,1.032216,5.023219,-8.088675,4.523535,0.157036,0.987501,0.013454,0.544121,3.762804,-2.463481,9.566378,36.657784,-20.719179,,,,,,
1478277335.23,0.929378,-1.332642,0.460101,5.635129,-2.401273,0.477420,0.189022,0.971775,-0.141152,-1.313122,4.355450,3.902657,7.891056,34.061707,-25.340181,,,,,,
1478277335.25,0.674949,-1.269646,0.145729,4.616166,2.182998,-0.768519,0.185345,0.954996,-0.231582,-1.014812,1.573706,2.537658,7.891056,34.061707,-25.340181,,,,,,
1478277335.27,0.551310,-1.220357,-0.004122,2.472410,1.211976,-0.352081,0.179827,0.939222,-0.292445,0.367673,0.407397,1.920664,8.006522,27.723738,-32.122936,,,,,,
1478277335.30,0.552220,-1.163122,-0.096988,3.446307,5.684966,0.163945,0.207982,0.918045,-0.337544,0.541682,-0.388092,1.451527,8.006522,27.723738,-32.122936,,,,,,
1478277335.32,0.621674,-1.122848,-0.150605,1.239759,4.050280,0.185372,0.252246,0.901337,-0.352083,-0.362979,-0.551820,1.093081,12.194987,24.563553,-33.354271,,,,,,
1478277335.34,0.619426,-1.104586,-0.148213,0.833498,-2.603148,0.792443,0.260968,0.893278,-0.365992,-1.178891,-0.978239,1.711268,15.547847,23.107126,-32.998764,,,,,,
1478277335.36,0.598942,-1.104695,-0.121139,-1.416419,0.418807,-0.024309,0.253362,0.893327,-0.371180,-1.297124,-0.568132,2.073756,14.102167,22.615185,-33.974632,,,,,,
1478277335.38,0.648120,-1.147700,-0.124714,-1.737547,2.637989,-1.731738,0.247866,0.911822,-0.327327,-1.291628,-0.586627,2.029902,14.102167,22.615185,-33.974632,,,,,,
1478277335.40,0.722480,-1.221516,-0.059538,-4.551730,-1.473410,-1.030637,0.226293,0.939619,-0.256724,0.486536,-0.168470,0.200206,15.019747,24.493666,-32.234467,,,,,,
1478277335.42,0.870596,-1.308951,0.177927,-5.418311,-4.098993,-0.359084,0.197956,0.965914,-0.166804,0.547115,0.083830,0.926020,13.494555,28.899578,-29.108496,,,,,,
1478277335.44,1.294681,-1.363644,0.652866,-5.856629,-0.465893,0.403874,0.197883,0.978621,-0.056071,0.090294,0.121630,0.137705,11.581726,31.410767,-27.273077,,,,,,
1478277335.47,1.880485,-1.366941,1.313698,-6.267010,-4.049057,-0.882452,0.192815,0.979293,0.061698,-0.913579,2.371430,-0.657050,10.262386,36.030193,-21.473280,,,,,,
1478277335.49,2.341845,-1.326843,1.798383,-4.517626,2.202741,-0.707228,0.173228,0.970391,0.168327,0.665868,3.820579,-0.056022,8.694407,38.075394,-18.419147,,,,,,
1478277335.51,2.658968,-1.257249,2.048969,-4.888812,3.409505,-0.673368,0.143146,0.951245,0.273205,1.143246,2.006594,0.075244,8.694407,38.075394,-18.419147,,,,,,
1478277335.53,2.798175,-1.143335,2.192550,-6.166644,-1.525054,0.603745,0.139586,0.910021,0.390355,-0.710845,1.875806,-0.366338,9.131649,40.510124,-11.837895,,,,,,
1478277335.55,2.812739,-1.032272,2.267391,-4.982387,-2.709553,-0.674349,0.165636,0.858467,0.485386,-0.736894,1.927361,-0.461369,9.274702,41.954674,-4.286991,,,,,,
1478277335.57,2.802949,-0.957958,2.368317,-3.617313,-5.324010,-1.326730,0.191083,0.818019,0.542524,-1.961789,2.105855,-0.816938,8.740030,42.265575,-1.351410,,,,,,
1478277335.59,2.723709,-0.901712,2.432669,-2.750061,-6.016543,-0.517097,0.251722,0.784390,0.566894,0.062243,-1.396374,-1.364822,7.398453,42.487705,2.156618,,,,,,
1478277335.61,2.660554,-0.877905,2.469129,-0.626093,-3.205887,-0.395392,0.295556,0.769402,0.566274,0.602286,-1.741845,-1.481985,7.398453,42.487705,2.156618,,,,,,
1478277335.64,2.617574,-0.889767,2.454719,1.508074,-0.580633,0.405012,0.315026,0.776925,0.545111,0.131965,-1.852975,-1.570135,7.173985,42.465218,3.135698,,,,,,
1478277335.66,2.590547,-0.938204,2.392397,3.628004,2.106757,0.107105,0.309559,0.806498,0.503721,-0.703938,-1.846933,-1.542783,7.367049,42.482872,2.350639,,,,,,
1478277335.68,2.609598,-1.023279,2.329164,4.528816,3.898436,-1.066446,0.264061,0.853819,0.448625,-0.726997,-1.438964,-1.384950,7.545415,42.482971,-1.690258,,,,,,
1478277335.70,2.647295,-1.122527,2.275455,4.785716,3.989148,-1.242227,0.205614,0.901199,0.381529,0.091475,-1.017104,-0.988386,7.034319,42.387470,-4.291142,,,,,,
1478277335.72,2.660259,-1.222911,2.199676,4.652771,3.843069,-0.780929,0.157828,0.940096,0.302176,0.313378,0.046904,0.542597,6.367281,41.552830,-9.869811,,,,,,
1478277335.74,2.645497,-1.282126,2.115743,1.723413,2.455365,0.079535,0.135505,0.958623,0.250359,0.335701,0.028376,0.594413,6.367281,41.552830,-9.869811,,,,,,
1478277335.76,2.681306,-1.267310,2.133720,-1.991693,-0.195218,-0.088564,0.132750,0.954301,0.267746,0.151735,1.203613,1.294815,7.161601,40.534634,-13.047915,,,,,,
1478277335.78,2.728245,-1.225410,2.209432,-1.902645,-0.704778,-0.266053,0.135992,0.940945,0.310047,-1.122244,-0.520290,-0.043247,7.311643,40.769169,-12.206888,,,,,,
1478277335.81,2.868823,-1.214866,2.252157,-0.311204,8.459816,-0.394877,0.093876,0.937323,0.335579,-0.223804,-1.801779,-1.252388,6.887708,41.492561,-9.773431,,,,,,
,,,,,,,,,,,,,,,,37.352983,-122.034790,43.582703,1.840000,353.671875,1478280797.00
1478277335.83,3.032707,-1.197528,2.293726,-0.794686,1.965311,-0.853725,0.039628,0.931141,0.362501,-0.169557,-1.795597,-1.279310,6.887708,41.492561,-9.773431,,,,,,
1478277335.85,2.917192,-1.249807,2.263887,3.702102,-3.400362,0.385531,0.070207,0.948924,0.307595,0.752425,1.107076,-0.031411,7.348673,41.540871,-9.216645,,,,,,
1478277335.87,2.810845,-1.308476,2.118294,2.769213,3.552366,2.001093,0.084215,0.965791,0.245267,0.003065,-0.093492,-0.392133,7.348673,41.540871,-9.216645,,,,,,
1478277335.89,2.520726,-1.323105,1.769904,2.491171,0.419798,3.783444,0.142623,0.969481,0.199412,-0.025741,0.431688,-1.442546,9.451210,40.065495,-13.039326,,,,,,
1478277335.91,2.023912,-1.324821,1.351264,4.906116,-6.759138,2.224394,0.218930,0.969900,0.106598,-0.203320,2.390680,-1.724243,12.086288,38.919243,-14.276112,,,,,,
1478277335.93,1.391051,-1.330508,0.779019,6.229643,0.551474,-0.128472,0.234149,0.971269,-0.042546,-0.731860,3.440825,0.954778,12.121670,35.348122,-21.637203,,,,,,
1478277335.95,1.049454,-1.298813,0.379736,4.377512,0.977581,-0.004934,0.232954,0.963240,-0.133796,-0.777510,1.669863,2.210654,12.121670,35.348122,-21.637203,,,,,,
1478277335.97,0.843837,-1.244981,0.177005,3.550556,-0.358349,0.518803,0.239164,0.947390,-0.212726,0.568896,0.175275,1.445148,12.760390,29.366114,-28.972347,,,,,,
1478277336.00,0.778727,-1.186427,0.063507,2.965521,3.322304,0.900900,0.263372,0.927035,-0.266910,0.243159,-0.118319,1.296969,12.760390,29.366114,-28.972347,,,,,,
1478277336.02,0.804273,-1.135094,0.006855,2.133185,3.173536,0.846753,0.304012,0.906574,-0.292747,0.202519,-0.097858,1.322807,15.230164,25.956667,-30.965897,,,,,,
1478277336.04,0.804503,-1.104527,-0.020244,1.054356,-0.239089,0.614241,0.323900,0.893252,-0.311754,-1.082200,-0.911944,0.056703,18.442839,23.609650,-31.097256,,,,,,
1478277336.06,0.763382,-1.090653,-0.020847,-0.194455,-2.261590,0.148657,0.319348,0.886929,-0.333728,-1.592816,-0.510662,2.456867,18.121998,22.972538,-31.756084,,,,,,
1478277336.08,0.748922,-1.121474,-0.016539,-1.283201,0.089414,-1.462802,0.295730,0.900742,-0.318132,-0.897781,-0.515625,1.225694,18.121998,22.972538,-31.756084,,,,,,
1478277336.10,0.761835,-1.165397,-0.027651,-1.740507,1.446912,-1.302084,0.272224,0.918945,-0.285366,0.196541,-1.102905,0.499294,16.363564,23.980534,-31.964996,,,,,,
1478277336.12,0.857901,-1.220649,0.066571,-3.661306,-0.690327,-0.519310,0.259497,0.939322,-0.224355,0.371530,-1.015936,0.454580,16.338699,26.399797,-30.011513,,,,,,
1478277336.14,1.018289,-1.277773,0.285327,-4.490384,-2.835736,-0.103334,0.245871,0.957375,-0.151594,0.239328,-0.333672,0.594953,15.798026,28.220207,-28.611809,,,,,,
1478277336.17,1.309890,-1.318552,0.640371,-4.984960,-1.739864,0.159143,0.241132,0.968355,-0.064380,-0.079205,0.116393,-0.145413,13.526209,32.197731,-25.395687,,,,,,
1478277336.19,1.681126,-1.321116,1.057223,-4.759984,-1.791149,0.300022,0.245592,0.968992,0.027207,-0.083665,0.115756,-0.237000,13.045776,34.058773,-23.117115,,,,,,
1478277336.21,1.985536,-1.289569,1.417576,-4.715846,-1.683877,-0.082744,0.254006,0.960716,0.111833,-0.428780,1.229485,-0.047746,13.045776,34.058773,-23.117115,,,,,,
1478277336.23,2.318586,-1.254725,1.749868,-4.532368,2.089080,-1.516137,0.227903,0.950464,0.211374,-0.780774,3.093253,0.492590,12.065039,37.075958,-18.558056,,,,,,
1478277336.25,2.585330,-1.211203,1.971389,-3.502725,2.691702,-1.255390,0.185805,0.936040,0.298840,0.822572,2.626948,-0.390576,11.154402,39.775715,-12.572392,,,,,,
1478277336.27,2.712624,-1.140666,2.116593,-4.650888,-3.187923,-0.351593,0.173440,0.908911,0.379208,0.557761,1.716653,-0.398739,10.812853,40.631817,-9.835184,,,,,,
1478277336.29,2.689142,-1.057155,2.224246,-3.982539,-5.176307,-0.701168,0.214805,0.870961,0.441911,-1.615608,0.187541,-0.114534,9.469354,41.835865,-4.968373,,,,,,
1478277336.31,2.669380,-1.015020,2.300104,-2.020603,-4.186853,-0.635220,0.239984,0.849491,0.469864,-1.640787,0.209011,-0.142487,9.469354,41.835865,-4.968373,,,,,,
1478277336.34,2.590423,-0.986257,2.337828,-1.263120,-5.277309,-0.143544,0.288977,0.833966,0.470099,-0.748602,-0.939115,-0.759253,8.067580,42.344872,-2.533598,,,,,,
1478277336.36,2.524783,-0.985779,2.355154,0.395851,-2.732290,-0.391940,0.319420,0.833702,0.450456,0.331153,-1.578286,-1.245775,7.787761,42.417759,-2.162790,,,,,,
1478277336.38,2.473372,-1.016987,2.329319,2.315758,-0.476086,-0.431632,0.325861,0.850527,0.412816,-0.179560,-1.544116,-1.179922,7.063599,42.481857,-3.160803,,,,,,
1478277336.40,2.437635,-1.081891,2.257275,3.993333,2.210905,-0.777888,0.303982,0.882847,0.358016,-0.252423,-1.538273,-1.103224,6.741890,42.383430,-4.773381,,,,,,
1478277336.42,2.422294,-1.168354,2.161407,4.429217,3.888601,-1.380609,0.258052,0.920107,0.294638,-0.260402,-1.158877,-0.905554,6.110157,41.648190,-9.627441,,,,,,
1478277336.44,2.410355,-1.253417,2.051423,3.913537,4.366802,-1.137564,0.208403,0.950056,0.232295,0.175737,-1.053587,-0.577479,6.110157,41.648190,-9.627441,,,,,,
1478277336.46,2.422495,-1.302306,1.981617,0.880535,3.073913,-0.704689,0.174739,0.964172,0.199594,0.228917,-0.353134,0.571326,6.088560,40.316093,-14.217431,,,,,,
1478277336.48,2.568301,-1.288496,2.089588,-1.978217,1.329666,-0.739453,0.151094,0.960417,0.234028,0.111983,1.634599,0.636135,6.423911,39.934586,-15.118057,,,,,,
1478277336.51,2.655768,-1.260693,2.194951,-1.923826,-1.793911,-0.505073,0.142489,0.952302,0.269847,0.120588,1.642714,0.600316,6.168708,40.749504,-12.884797,,,,,,
1478277336.53,2.726705,-1.220787,2.261311,-2.260852,3.805217,0.194606,0.138221,0.939369,0.313815,-0.502494,-0.513588,0.619306,6.168708,40.749504,-12.884797,,,,,,
