timestamp(unix),attitude_roll(radians),attitude_pitch(radians),attitude_yaw(radians),rotation_rate_x(radians/s),rotation_rate_y(radians/s),rotation_rate_z(radians/s),gravity_x(G),gravity_y(G),gravity_z(G),user_acc_x(G),user_acc_y(G),user_acc_z(G),magnetic_field_x(microteslas),magnetic_field_y(microteslas),magnetic_field_z(microteslas),latitude(degree),longitude(degree),altitude(meter),speed(m/s),course(degree),timestamp(unix)
1478209546.13,-0.050487,0.547591,-0.782973,-0.077996,0.009837,-0.005610,-0.043086,-0.520632,-0.852693,-0.009297,-0.023512,-0.038344,-17.656830,-36.537872,-22.648987,,,,,,
,,,,,,,,,,,,,,,,37.322730,-122.016850,59.260529,0.000000,353.320312,1478209508.00
,,,,,,,,,,,,,,,,37.322730,-122.016850,59.260529,0.000000,353.320312,1478209500.00
1478209546.15,-0.050321,0.547428,-0.782796,0.012704,0.053130,-0.005177,-0.042950,-0.520493,-0.852785,-0.017063,-0.014480,-0.030485,-17.582458,-36.687683,-22.798401,,,,,,
,,,,,,,,,,,,,,,,37.322730,-122.016850,59.260529,0.000000,353.320312,1478209508.00
1478209546.17,-0.048850,0.547421,-0.783006,-0.010629,0.071291,-0.011720,-0.041695,-0.520487,-0.852851,-0.019630,-0.019537,-0.016320,-17.656128,-36.312988,-22.574097,,,,,,
1478209546.19,-0.048204,0.547161,-0.783249,-0.038355,0.033133,-0.027791,-0.041151,-0.520265,-0.853013,-0.012911,-0.013991,-0.007247,-17.879730,-35.938202,-22.350952,,,,,,
,,,,,,,,,,,,,,,,37.322681,-122.016753,59.260529,-1.000000,-1.000000,1478209546.19
1478209546.21,-0.047278,0.546481,-0.783989,-0.026703,0.016083,-0.026636,-0.040377,-0.519684,-0.853404,-0.006834,-0.003036,-0.002721,-17.503204,-35.638962,-21.973267,,,,,,
,,,,,,,,,,,,,,,,37.322632,-122.016656,59.260529,-1.000000,-1.000000,1478209546.20
1478209546.23,-0.047331,0.546502,-0.784640,0.020855,-0.078703,-0.018779,-0.040422,-0.519702,-0.853391,0.015214,0.010837,0.010633,-17.503204,-35.638962,-21.973267,,,,,,
1478209546.25,-0.048010,0.546620,-0.785575,-0.011811,-0.031764,-0.049901,-0.040999,-0.519803,-0.853302,0.001036,0.011426,0.019363,-17.656555,-36.312653,-22.799133,,,,,,
1478209546.27,-0.046954,0.545674,-0.786669,-0.048118,0.009753,-0.012907,-0.040120,-0.518995,-0.853835,0.017537,0.018735,0.016540,-17.731995,-36.537704,-22.724609,,,,,,
1478209546.29,-0.047504,0.544638,-0.786407,-0.052651,-0.022172,0.012665,-0.040616,-0.518108,-0.854350,0.034359,0.026287,0.019130,-17.356140,-36.313141,-22.571838,,,,,,
1478209546.31,-0.046480,0.542821,-0.786527,-0.066151,0.062939,0.003945,-0.039784,-0.516553,-0.855330,0.015034,0.023969,-0.004411,-17.280365,-36.013168,-22.571472,,,,,,
1478209546.33,-0.045543,0.541286,-0.786266,-0.079162,0.022558,0.017774,-0.039019,-0.515239,-0.856158,0.012362,0.016383,-0.007032,-17.280365,-36.013168,-22.571472,,,,,,
1478209546.35,-0.046628,0.539660,-0.785936,-0.014629,-0.100981,0.020445,-0.039987,-0.513844,-0.856951,-0.007803,0.003850,-0.040617,-17.581909,-36.462677,-22.798523,,,,,,
1478209546.37,-0.050169,0.540220,-0.785022,0.060365,-0.173628,0.082709,-0.043007,-0.514325,-0.856517,0.011818,-0.038654,-0.048269,-17.506866,-36.312500,-22.947998,,,,,,
1478209546.39,-0.058638,0.540766,-0.779234,0.044625,-0.293069,0.318060,-0.050243,-0.514793,-0.855841,-0.009541,0.022957,-0.031549,-17.431305,-36.162628,-22.872559,,,,,,
1478209546.41,-0.071290,0.539482,-0.768840,-0.112552,-0.373744,0.535542,-0.061114,-0.513691,-0.855796,-0.092832,-0.002666,-0.014276,-18.105560,-36.087753,-22.577576,,,,,,
1478209546.43,-0.086139,0.532596,-0.754550,-0.429323,-0.306980,0.632701,-0.074116,-0.507772,-0.858298,-0.106883,-0.026713,0.056524,-18.105560,-36.087753,-22.577576,,,,,,
1478209546.45,-0.105289,0.521870,-0.739064,-0.439728,-0.853696,0.798473,-0.091106,-0.498502,-0.862088,-0.099294,-0.019564,0.079709,-18.555298,-35.862289,-22.731079,,,,,,
1478209546.47,-0.145357,0.515771,-0.718565,0.004065,-1.854829,0.990852,-0.126003,-0.493206,-0.860739,-0.076420,0.009930,0.075460,-19.154755,-35.411530,-23.035828,,,,,,
1478209546.49,-0.201826,0.520557,-0.692005,0.696946,-2.318803,1.174202,-0.173907,-0.497364,-0.849933,-0.113355,0.032093,0.119663,-21.927246,-34.735794,-22.606934,,,,,,
1478209546.51,-0.261743,0.532255,-0.663410,0.841719,-2.187000,0.924640,-0.222968,-0.507477,-0.832317,-0.202676,0.063462,0.240856,-24.170837,-34.138351,-20.149048,,,,,,
1478209546.53,-0.308705,0.540490,-0.645628,0.464621,-1.725743,0.497130,-0.260517,-0.514556,-0.816923,-0.208722,0.066268,0.350111,-24.170837,-34.138351,-20.149048,,,,,,
1478209546.55,-0.348981,0.542558,-0.630653,0.245198,-1.740195,0.654557,-0.292835,-0.516329,-0.804769,-0.135022,0.156145,0.334600,-25.292938,-34.064804,-18.807556,,,,,,
1478209546.57,-0.403247,0.543517,-0.611140,0.488568,-2.537560,0.813590,-0.335859,-0.517150,-0.787245,-0.063692,0.195143,0.336485,-26.640930,-34.140808,-17.692566,,,,,,
1478209546.59,-0.473448,0.550806,-0.583112,1.015407,-2.877752,1.042676,-0.388523,-0.523374,-0.758373,-0.027676,0.331953,0.452388,-27.312073,-33.617371,-16.422852,,,,,,
1478209546.61,-0.550766,0.554940,-0.546843,0.805178,-2.962745,1.394000,-0.444803,-0.526893,-0.724247,0.005640,0.390540,0.581715,-30.452942,-33.171844,-12.396667,,,,,,
1478209546.63,-0.633445,0.543637,-0.510156,0.161220,-3.403539,1.740288,-0.506589,-0.517252,-0.689795,0.103208,0.493372,0.657142,-30.452942,-33.171844,-12.396667,,,,,,
1478209546.65,-0.728318,0.518990,-0.475272,-0.011176,-4.171266,2.133310,-0.577968,-0.496003,-0.648024,0.203944,0.654344,0.566465,-32.471802,-32.348846,-10.387146,,,,,,
1478209546.67,-0.838402,0.484324,-0.432046,0.149631,-4.646243,2.899227,-0.658057,-0.465610,-0.591750,0.331931,0.807895,0.403548,-34.564331,-31.076050,-8.228577,,,,,,
1478209546.69,-0.948713,0.428011,-0.389197,-0.607132,-4.474114,3.740019,-0.739358,-0.415062,-0.530163,0.404596,0.848976,0.394329,-38.741516,-27.033463,-1.886902,,,,,,
1478209546.71,-1.038929,0.343346,-0.362107,-1.637881,-3.725961,4.594396,-0.811558,-0.336640,-0.477543,0.341648,0.853150,0.288014,-41.054321,-24.110977,0.569275,,,,,,
1478209546.73,-1.107492,0.236736,-0.349554,-2.164536,-3.031124,5.216370,-0.869630,-0.234531,-0.434442,0.211732,0.878620,0.053628,-41.054321,-24.110977,0.569275,,,,,,
1478209546.75,-1.165147,0.121530,-0.343338,-2.127895,-2.810511,5.442975,-0.912069,-0.121231,-0.391705,-0.073328,0.886871,-0.280064,-43.442291,-20.737457,2.349731,,,,,,
1478209546.77,-1.221110,0.005563,-0.337002,-1.624635,-2.788953,5.556415,-0.939466,-0.005563,-0.342598,-0.172580,0.764810,-0.441017,-44.777527,-16.014038,3.837341,,,,,,
1478209546.79,-1.275272,-0.105675,-0.324804,-1.001961,-2.709037,5.516070,-0.951313,0.105478,-0.289617,-0.270580,0.616202,-0.481089,-47.070465,-6.418930,7.865356,,,,,,
1478209546.81,-1.317241,-0.221242,-0.314524,-1.185141,-1.703390,5.899947,-0.944432,0.219442,-0.244733,-0.469570,0.519984,-0.471332,-48.103455,-1.321640,10.030029,,,,,,
1478209546.83,-1.333471,-0.338667,-0.313867,-1.496560,-0.369570,5.508727,-0.916761,0.332230,-0.221750,-0.712222,0.318160,-0.516684,-48.103455,-1.321640,10.030029,,,,,,
1478209546.85,-1.335999,-0.441513,-0.317875,-1.255676,0.014910,4.681285,-0.879299,0.427308,-0.210336,-0.789799,0.214324,-0.570578,-47.188660,3.550964,11.309448,,,,,,
1478209546.87,-1.331240,-0.532514,-0.319384,-1.054145,0.421996,4.367745,-0.836931,0.507701,-0.204418,-0.749144,0.102635,-0.590764,-46.800751,8.425217,11.684937,,,,,,
1478209546.89,-1.317551,-0.617615,-0.318991,-1.048300,0.809630,3.990355,-0.789259,0.579092,-0.204261,-0.794512,-0.019140,-0.542778,-44.757477,15.473724,11.996704,,,,,,
1478209546.91,-1.300037,-0.691297,-0.323758,-1.184129,1.162219,3.250309,-0.742352,0.637537,-0.206059,-0.855137,-0.118372,-0.500530,-44.149567,18.773636,11.849609,,,,,,
1478209546.93,-1.274413,-0.751059,-0.332493,-1.113400,1.870209,2.556632,-0.699095,0.682414,-0.213489,-0.815797,-0.116358,-0.491193,-44.149567,18.773636,11.849609,,,,,,
1478209546.95,-1.233552,-0.800454,-0.340790,-1.023918,2.641442,2.136537,-0.657154,0.717672,-0.230424,-0.713024,-0.098867,-0.462340,-43.169586,21.474487,10.955688,,,,,,
1478209546.97,-1.183416,-0.844015,-0.346980,-0.879931,2.630704,1.932960,-0.615232,0.747317,-0.251012,-0.701342,-0.117815,-0.399165,-42.866364,23.651016,9.831848,,,,,,
1478209546.99,-1.121983,-0.883993,-0.348850,-0.847375,3.513208,1.820024,-0.571272,0.773277,-0.275120,-0.665087,-0.075416,-0.400691,-42.414917,26.580170,6.908752,,,,,,
1478209547.01,-1.047515,-0.918254,-0.349108,-0.702823,3.628559,1.255393,-0.525954,0.794542,-0.303437,-0.618989,-0.104708,-0.226134,-41.440369,28.007736,4.890381,,,,,,
1478209547.03,-0.991696,-0.936454,-0.345824,-0.364829,1.959462,0.615770,-0.496020,0.805462,-0.324339,-0.482466,-0.124493,0.093824,-41.440369,28.007736,4.890381,,,,,,
1478209547.05,-0.958762,-0.953728,-0.346093,-0.565452,1.612107,0.817451,-0.473611,0.815578,-0.332452,-0.341330,0.014210,0.136270,-41.218506,28.911652,2.191589,,,,,,
1478209547.07,-0.909437,-0.973171,-0.336284,-0.162575,2.366304,1.038868,-0.444044,0.826674,-0.345593,-0.241274,0.033327,0.112088,-41.143768,29.588074,1.216858,,,,,,
1478209547.09,-0.845956,-0.993987,-0.318523,-0.411366,2.467846,1.187441,-0.408253,0.838207,-0.361577,-0.204509,0.115742,0.061833,-40.319855,31.016159,-1.102722,,,,,,
1478209547.11,-0.772104,-1.016181,-0.291142,-0.060537,2.416285,1.444927,-0.367391,0.850103,-0.377292,-0.111262,0.234019,-0.002347,-39.569641,32.293015,-2.597717,,,,,,
1478209547.13,-0.688071,-1.033495,-0.244433,0.239768,2.229114,1.528829,-0.325030,0.859093,-0.395367,-0.000074,0.092964,0.158352,-39.569641,32.293015,-2.597717,,,,,,
1478209547.15,-0.587289,-1.050828,-0.181641,0.259883,2.391971,1.981104,-0.275309,0.867835,-0.413603,-0.006765,0.191110,-0.098330,-38.971375,32.970306,-4.318665,,,,,,
1478209547.17,-0.470426,-1.067026,-0.101763,0.355500,2.453189,2.057115,-0.218805,0.875769,-0.430294,0.014872,0.143411,-0.202732,-36.270233,36.123993,-7.674988,,,,,,
1478209547.19,-0.351713,-1.075474,-0.027461,0.185353,2.945414,1.773329,-0.163749,0.879816,-0.446218,-0.091775,0.169989,-0.272394,-34.468750,37.775101,-9.012268,,,,,,
1478209547.21,-0.233477,-1.073405,0.065436,1.081021,0.982595,2.080364,-0.110391,0.878830,-0.464189,-0.137626,0.145660,-0.153182,-33.268555,39.051727,-10.503845,,,,,,
1478209547.23,-0.189568,-1.057200,0.097374,0.575228,0.567935,-0.575581,-0.092580,0.870983,-0.482511,-0.647074,-0.487026,0.076048,-33.268555,39.051727,-10.503845,,,,,,
1478209547.25,-0.216438,-1.044907,0.051865,0.175562,0.884005,-1.223345,-0.107802,0.864878,-0.490270,-0.202761,-0.366099,-0.222666,-31.618500,40.253143,-11.992126,,,,,,
1478209547.27,-0.189293,-1.042963,0.038425,0.065634,1.884346,0.221183,-0.094771,0.863901,-0.494666,0.060454,0.383917,-0.551996,-31.922791,39.805649,-13.569153,,,,,,
1478209547.29,-0.155419,-1.036238,0.074096,0.772942,-0.663465,1.020936,-0.078862,0.860494,-0.503320,0.169529,-0.211415,0.067194,-31.625916,39.807861,-15.141968,,,,,,
1478209547.31,-0.135703,-1.022533,0.116913,0.817171,-0.371377,1.096314,-0.070512,0.853431,-0.516414,0.108766,-0.146857,0.018428,-31.101624,39.958405,-15.663086,,,,,,
1478209547.33,-0.084984,-1.022450,0.166934,-0.318380,0.672709,1.327997,-0.044247,0.853388,-0.519395,-0.000354,-0.079218,0.149446,-31.101624,39.958405,-15.663086,,,,,,
1478209547.35,-0.038251,-1.022003,0.221286,0.620251,-1.130534,1.497704,-0.019949,0.853154,-0.521277,0.202307,-0.084127,0.040045,-31.401428,40.634674,-16.415649,,,,,,
1478209547.37,-0.000216,-1.019263,0.286922,-0.068561,-0.593187,1.897610,-0.000113,0.851722,-0.523993,0.142340,-0.133506,0.192084,-29.148529,42.735306,-17.599792,,,,,,
1478209547.39,0.031743,-1.030421,0.329805,-1.147406,0.089505,0.183186,0.016327,0.857516,-0.514198,-0.451005,-0.711092,0.426430,-28.544586,44.309998,-17.596069,,,,,,
1478209547.41,-0.009636,-1.054599,0.291631,-0.922332,-0.845031,-1.409839,-0.004756,0.869703,-0.493553,-0.148991,-0.246015,0.215904,-28.167542,45.134827,-17.593628,,,,,,
1478209547.43,-0.064565,-1.058401,0.254256,0.066084,-1.054017,-0.472652,-0.031632,0.871573,-0.489245,0.070206,-0.027609,0.053408,-28.167542,45.134827,-17.593628,,,,,,
1478209547.45,-0.072299,-1.055716,0.256808,0.095278,-0.136948,0.312777,-0.035584,0.870253,-0.491318,0.057129,-0.080397,0.078079,-29.290527,44.983582,-16.402039,,,,,,
1478209547.47,-0.045463,-1.059236,0.280446,-0.294806,0.464345,0.678035,-0.022248,0.871982,-0.489033,-0.034087,-0.197208,0.106617,-30.265717,44.683640,-16.109192,,,,,,
1478209547.49,-0.020188,-1.070252,0.302392,-0.634554,-0.053132,0.544958,-0.009688,0.877321,-0.479806,0.030318,-0.244265,0.013253,-29.139740,45.358627,-16.476074,,,,,,
1478209547.51,0.003763,-1.058512,0.346363,0.139256,-0.750579,0.944137,0.001844,0.871627,-0.490166,0.478502,0.049241,-0.641594,-29.136841,45.807266,-15.576294,,,,,,
1478209547.53,0.031174,-1.062950,0.391055,-0.258235,-0.911068,1.045453,0.015157,0.873794,-0.486061,0.041529,0.035233,-0.262154,-29.136841,45.807266,-15.576294,,,,,,
1478209547.55,0.011835,-1.067386,0.416583,-0.362999,-2.979325,0.286909,0.005709,0.875942,-0.482382,-0.398898,-0.033169,0.149908,-28.010376,46.932709,-16.243408,,,,,,
1478209547.57,-0.050840,-1.083372,0.416044,-0.978886,-2.828074,0.052299,-0.023801,0.883542,-0.467746,-0.245838,0.158709,0.450031,-27.403503,48.580383,-14.889648,,,,,,
1478209547.59,-0.090777,-1.100652,0.418967,-0.775492,-1.732835,0.166715,-0.041067,0.891503,-0.451150,0.013906,-0.063073,0.258828,-28.296875,49.327240,-12.496765,,,,,,
1478209547.61,-0.109087,-1.115588,0.426449,-0.739562,-0.980471,0.293507,-0.047865,0.898169,-0.437036,0.145842,-0.269461,0.164072,-28.669617,49.025162,-10.999451,,,,,,
1478209547.63,-0.101512,-1.129200,0.447526,-0.514793,-0.357755,0.644015,-0.043310,0.904071,-0.425183,0.097967,-0.325427,0.185422,-28.669617,49.025162,-10.999451,,,,,,
1478209547.65,-0.081554,-1.138118,0.473921,-0.377914,-0.118779,0.524115,-0.034158,0.907846,-0.417910,-0.103629,-0.240884,0.134875,-28.363037,49.921738,-8.822510,,,,,,
1478209547.67,-0.067824,-1.148533,0.488764,-0.514314,0.060686,0.289967,-0.027775,0.912164,-0.408884,0.008442,-0.200448,0.035593,-27.985779,50.220428,-8.069824,,,,,,
1478209547.69,-0.057409,-1.158219,0.501793,-0.470391,-0.142548,0.307550,-0.023007,0.916090,-0.400311,-0.003650,-0.172209,0.059934,-27.685089,50.069504,-7.542542,,,,,,
1478209547.71,-0.054387,-1.172557,0.512856,-0.900366,-0.515197,0.203562,-0.021081,0.921745,-0.387222,-0.081123,-0.143303,0.076630,-27.683655,49.918137,-6.642395,,,,,,
1478209547.73,-0.074727,-1.199821,0.510966,-1.690957,-1.208645,0.006535,-0.027065,0.931974,-0.361513,-0.057606,-0.319380,0.192323,-27.683655,49.918137,-6.642395,,,,,,
1478209547.75,-0.117822,-1.239696,0.504455,-2.226351,-2.239580,0.208482,-0.038214,0.945685,-0.322830,0.057852,-0.215003,0.089096,-27.827911,49.387924,-3.118225,,,,,,
1478209547.77,-0.168709,-1.290228,0.507719,-2.523915,-3.006749,0.515655,-0.046494,0.960898,-0.272970,-0.014327,0.135095,-0.169077,-27.374847,48.408539,-0.339355,,,,,,
1478209547.79,-0.258565,-1.330901,0.473832,-2.012379,-2.087231,-0.363275,-0.060753,0.971363,-0.229703,-0.104439,-0.187885,-0.288394,-26.093903,47.426575,3.870728,,,,,,
1478209547.81,-0.305554,-1.372819,0.443557,-2.093363,-0.521454,0.516367,-0.059168,0.980466,-0.187577,0.142526,0.170535,-0.227325,-25.114349,46.896683,6.803345,,,,,,
1478209547.83,-0.318955,-1.411205,0.416459,-2.114156,2.144436,0.221586,-0.049832,0.987292,-0.150900,0.046307,-0.000216,-0.136316,-25.114349,46.896683,6.803345,,,,,,
1478209547.85,-0.222005,-1.455512,0.460832,-1.295534,1.055568,1.243274,-0.025328,0.993362,-0.112206,-0.074007,0.283188,0.306741,-24.733307,45.764862,11.231750,,,,,,
1478209547.87,-0.038526,-1.477853,0.654153,-0.883074,-0.867784,1.160115,-0.003575,0.995684,-0.092741,-0.121303,0.361723,0.557997,-25.559204,45.390274,11.225769,,,,,,
1478209547.89,0.230128,-1.494424,0.928424,-0.949120,0.258391,1.108006,0.017404,0.997085,-0.074287,-0.104516,0.260483,0.188972,-24.432098,45.162704,12.584412,,,,,,
1478209547.91,0.663596,-1.502069,1.341871,-1.085981,1.592821,1.253189,0.042299,0.997639,-0.054099,0.031553,0.119426,-0.077477,-23.604675,45.536148,13.340393,,,,,,
1478209547.93,1.280574,-1.503523,1.907311,-2.151953,3.562147,0.585408,0.064412,0.997738,-0.019237,0.127513,0.012562,-0.181782,-23.604675,45.536148,13.340393,,,,,,
1478209547.95,1.827149,-1.500094,2.395328,-1.360513,2.358795,0.266917,0.068335,0.997502,0.017912,0.050485,-0.219593,0.064699,-22.853027,45.158844,14.621155,,,,,,
1478209547.97,2.546774,-1.496335,3.038645,-2.602760,3.761080,-1.661336,0.041686,0.997229,0.061615,0.073945,-0.854193,0.284744,-25.554596,44.485107,14.676270,,,,,,
1478209547.99,2.947986,-1.491128,-2.871868,0.020116,0.707164,-1.336763,0.015312,0.996828,0.078097,0.274102,0.330610,0.429563,-26.757568,43.135376,14.892883,,,,,,
1478209548.01,-2.968370,-1.494172,-2.516931,0.085745,0.696212,-1.275709,-0.013194,0.997066,0.075404,-0.110326,0.088826,0.101827,-28.110016,42.161087,14.883240,,,,,,
1478209548.03,-2.680590,-1.489590,-2.233709,0.283810,-0.026517,-1.155361,-0.036084,0.996705,0.072649,-0.175372,0.389862,-0.076860,-28.110016,42.161087,14.883240,,,,,,
1478209548.05,-2.370621,-1.482701,-1.917522,0.346743,-0.187375,-1.087707,-0.061308,0.996122,0.063103,-0.058611,0.227022,-0.123940,-30.439484,40.737946,14.416504,,,,,,
1478209548.07,-2.319919,-1.478816,-1.861955,0.176442,-0.529523,-0.280167,-0.067261,0.995773,0.062550,-0.310013,-0.022399,-0.180912,-31.415405,40.438538,14.334351,,,,,,
1478209548.09,-2.260703,-1.477635,-1.797343,0.148745,-0.017204,-0.164004,-0.071752,0.995664,0.059208,-0.039652,0.043750,0.119045,-32.241180,40.063858,14.403320,,,,,,
,,,,,,,,,,,,,,,,37.322675,-122.016630,84.282440,2.690000,44.296875,1478209548.00
1478209548.11,-2.247449,-1.477718,-1.777453,-0.041028,-0.509284,0.095441,-0.072466,0.995671,0.058200,-0.039152,0.016475,-0.008762,-31.866730,39.913773,14.331238,,,,,,
1478209548.13,-2.354705,-1.480615,-1.857548,-0.221355,-1.947902,0.529891,-0.063776,0.995936,0.063587,-0.079137,-0.119166,-0.144870,-31.866730,39.913773,14.331238,,,,,,
1478209548.15,-2.591148,-1.491272,-2.044308,0.163616,-2.780641,1.194328,-0.041553,0.996840,0.067706,-0.143979,-0.080763,-0.009662,-31.565857,39.837845,14.858459,,,,,,
1478209548.17,-3.004606,-1.518070,-2.410425,1.072694,-1.886316,1.806856,-0.007197,0.998610,0.052208,-0.053853,-0.142653,0.428764,-30.587677,39.985214,16.290833,,,,,,
1478209548.19,2.264302,-1.524589,2.876846,0.992184,-0.480484,2.351418,0.035522,0.998933,0.029527,-0.211516,-0.115235,0.191847,-28.934875,40.583466,16.902893,,,,,,
1478209548.21,1.767414,-1.474396,2.379603,0.323665,-0.016616,3.383861,0.094397,0.995357,0.018803,-0.274984,-0.198787,-0.060719,-24.655365,43.207855,15.883606,,,,,,
1478209548.23,1.641196,-1.399035,2.268133,0.211890,-1.422727,3.947443,0.170495,0.985285,0.012023,0.043052,-0.039515,-0.324614,-24.655365,43.207855,15.883606,,,,,,
1478209548.25,1.607022,-1.358419,2.272752,-0.383547,-1.391222,1.055072,0.210646,0.977533,0.007634,0.838151,0.183783,0.039393,-21.052063,44.631241,15.759888,,,,,,
1478209548.27,1.654760,-1.345993,2.338676,-0.904141,-0.908167,0.588419,0.222129,0.974838,0.018695,0.130379,-0.114776,-0.084109,-18.199493,45.228989,16.306091,,,,,,
1478209548.29,1.688897,-1.326600,2.392885,-0.481272,-0.735974,1.035442,0.240092,0.970332,0.028488,-0.015941,-0.094249,0.216614,-17.673035,45.152481,17.135071,,,,,,
1478209548.31,1.670090,-1.311770,2.378069,0.390398,-0.026680,0.540966,0.254878,0.966640,0.025391,0.131688,-0.025020,0.151946,-16.248932,44.175629,17.896240,,,,,,
1478209548.33,1.631200,-1.305697,2.339432,0.429669,-0.206040,0.293427,0.261528,0.965066,0.015816,0.041420,-0.023096,0.000251,-16.248932,44.175629,17.896240,,,,,,
1478209548.35,1.605861,-1.300917,2.322606,0.077446,-0.531151,0.218536,0.266451,0.963803,0.009347,0.056989,-0.083203,0.020682,-16.473755,44.851868,17.144226,,,,,,
1478209548.37,1.599695,-1.296397,2.327577,-0.154180,-0.586820,0.259928,0.270856,0.962588,0.007829,0.126163,-0.136615,0.134779,-16.323792,44.776672,17.220337,,,,,,
1478209548.39,1.648255,-1.290628,2.397935,-1.787017,-1.323395,0.142433,0.275688,0.961009,0.021397,0.083961,-0.458110,-0.154927,-13.771393,44.999023,18.139343,,,,,,
1478209548.41,1.775773,-1.282914,2.548315,-2.061450,-0.287768,-0.026713,0.277979,0.958847,0.057791,-0.037882,-0.576462,0.110376,-13.094757,43.795181,20.470093,,,,,,
1478209548.43,1.891848,-1.280585,2.659921,-1.222348,0.647986,-0.467423,0.271534,0.958183,0.090300,0.040066,-0.290855,0.122926,-13.094757,43.795181,20.470093,,,,,,
1478209548.45,1.956509,-1.289142,2.723635,-0.339846,-0.177110,-0.826440,0.257524,0.960597,0.104568,0.102644,-0.021708,0.049622,-12.867126,43.342270,22.346985,,,,,,
1478209548.47,1.955096,-1.312341,2.734272,0.700858,-0.692135,-1.268092,0.236945,0.966786,0.095822,0.092691,-0.309865,0.165546,-13.088867,43.264786,24.070312,,,,,,
1478209548.49,1.912883,-1.344259,2.692412,1.405902,0.277486,-1.376401,0.211591,0.974450,0.075345,-0.098844,-0.179879,0.255863,-12.865906,43.115906,23.247070,,,,,,
1478209548.51,1.854682,-1.389658,2.622167,1.572955,0.623878,-2.173321,0.172939,0.983639,0.050458,0.036152,-0.560620,-0.138028,-15.118286,44.095657,20.829773,,,,,,
1478209548.53,1.752737,-1.436020,2.501498,0.853716,1.158427,-1.338196,0.132151,0.990931,0.024313,-0.570582,0.238881,-0.427526,-15.118286,44.095657,20.829773,,,,,,
1478209548.55,1.784485,-1.447784,2.525761,-0.405003,-0.219431,-0.822475,0.119911,0.992444,0.026021,0.251305,1.272068,-0.223195,-17.672241,44.024780,18.935608,,,,,,
1478209548.57,2.018571,-1.462194,2.761345,-1.181427,0.174890,-1.143498,0.097703,0.994109,0.046928,-0.079652,-0.255568,0.104088,-19.098511,43.951294,18.399902,,,,,,
1478209548.59,2.284486,-1.473582,3.026005,-0.576788,0.177353,-1.239178,0.073373,0.995278,0.063539,-0.041208,0.116218,0.168990,-20.073303,43.500778,19.067810,,,,,,
1478209548.61,2.528701,-1.496904,-3.016985,0.779741,0.248624,-1.942918,0.042467,0.997271,0.060388,0.129942,-0.517779,0.141302,-21.725464,42.225830,19.581055,,,,,,
1478209548.63,2.841330,-1.528820,-2.707232,0.592860,0.237732,-0.853880,0.012412,0.999119,0.040087,0.168374,0.135692,-0.048509,-21.725464,42.225830,19.581055,,,,,,
1478209548.65,3.059346,-1.522248,-2.505186,-0.773556,1.203153,-0.203934,0.003987,0.998822,0.048365,-0.164311,0.561206,-0.079997,-23.453735,41.628067,18.668396,,,,,,
1478209548.67,3.084575,-1.507052,-2.490751,-0.756044,0.117024,0.136327,0.003630,0.997969,0.063598,-0.115874,0.128984,-0.158431,-24.278839,41.778839,18.437195,,,,,,
1478209548.69,3.094716,-1.495263,-2.481939,-0.532603,0.033682,-0.036896,0.003536,0.997149,0.075378,0.049503,0.137678,0.070648,-24.728668,41.027496,19.484131,,,,,,
1478209548.71,3.093248,-1.484971,-2.486110,-0.484640,0.245951,0.078010,0.004143,0.996319,0.085620,0.007241,0.004077,0.111325,-24.803284,40.801834,19.933716,,,,,,
1478209548.73,3.079667,-1.476811,-2.507986,-0.331973,0.450533,0.140279,0.005808,0.995587,0.093667,0.008062,-0.018475,0.036780,-24.803284,40.801834,19.933716,,,,,,
1478209548.75,3.050663,-1.471584,-2.546577,-0.220845,0.454215,0.259043,0.008994,0.995082,0.098641,0.038766,0.052861,-0.027565,-24.427551,40.801102,20.311584,,,,,,
1478209548.77,2.992580,-1.466533,-2.611916,-0.194894,0.270956,0.436172,0.015451,0.994570,0.102921,0.026144,0.043638,-0.032242,-24.877472,40.650986,20.533264,,,,,,
1478209548.79,2.908460,-1.461583,-2.700818,-0.087344,0.125849,0.532789,0.025181,0.994042,0.106047,-0.001789,0.189811,0.045625,-23.975922,40.799622,21.139954,,,,,,
1478209548.81,2.802356,-1.462085,-2.804554,0.312336,-0.090235,0.552346,0.036104,0.994097,0.102314,0.033415,0.255018,0.112774,-23.376709,40.950211,20.544373,,,,,,
1478209548.83,2.698749,-1.455568,-2.927777,-0.203188,1.366365,0.842162,0.049267,0.993369,0.103882,-0.341412,-0.202704,0.098480,-23.376709,40.950211,20.544373,,,,,,
1478209548.85,2.583189,-1.444117,-3.059972,-0.225340,0.148897,0.978021,0.066940,0.991987,0.107150,0.055665,0.094103,-0.272036,-22.924896,41.549759,20.697449,,,,,,
1478209548.87,2.492911,-1.430222,3.133460,-0.214406,-0.059229,0.816594,0.084646,0.990136,0.111652,0.078790,-0.049874,0.000958,-22.924469,41.774872,20.622375,,,,,,
1478209548.89,2.439735,-1.417070,3.080416,-0.328044,0.038191,0.644437,0.098861,0.988207,0.116930,0.099824,-0.161212,-0.011324,-21.345947,42.222275,21.833984,,,,,,
1478209548.91,2.434048,-1.404570,3.070110,-0.486564,0.254971,0.390950,0.107545,0.986216,0.125744,0.095000,-0.081767,-0.023113,-20.821381,41.996887,21.913025,,,,,,
1478209548.93,2.437597,-1.389664,3.078505,-0.556801,-0.161421,0.316683,0.116601,0.983640,0.137316,0.072089,-0.163282,-0.229632,-20.821381,41.996887,21.913025,,,,,,
1478209548.95,2.453409,-1.380764,3.085872,-0.325757,0.578976,0.240182,0.119971,0.981998,0.145899,-0.023413,0.153088,0.101827,-20.445282,41.770462,22.740967,,,,,,
1478209548.97,2.466407,-1.372336,3.088338,-0.348586,0.474836,0.255118,0.123233,0.980371,0.153901,0.011029,-0.041925,-0.049714,-20.368469,41.769073,23.641479,,,,,,
1478209548.99,2.472634,-1.364261,3.088388,-0.296192,0.224828,0.254722,0.127178,0.978747,0.160871,0.033085,0.027020,-0.039548,-20.216827,42.068329,24.092529,,,,,,
1478209549.01,2.472022,-1.357319,3.086020,-0.231784,0.012039,0.227723,0.131490,0.977300,0.166116,0.021891,-0.018850,-0.020899,-19.767334,41.617630,24.396118,,,,,,
1478209549.03,2.468334,-1.352189,3.082672,-0.154799,-0.016807,0.166449,0.135226,0.976201,0.169548,0.045010,-0.009648,-0.004554,-19.767334,41.617630,24.396118,,,,,,
1478209549.05,2.466421,-1.349533,3.080936,-0.068842,0.003302,0.060441,0.137171,0.975621,0.171312,0.025076,-0.035405,-0.025286,-19.466858,41.692261,24.548340,,,,,,
1478209549.07,2.457939,-1.351227,3.073080,-0.033200,-0.021101,-0.029810,0.137575,0.975991,0.168861,0.003706,-0.043405,-0.032387,-19.166992,41.391663,24.850708,,,,,,
1478209549.09,2.461761,-1.352031,3.077914,0.010649,-0.057306,-0.077416,0.136435,0.976166,0.168775,-0.036658,-0.080155,-0.029310,-19.390167,41.766098,25.298889,,,,,,
1478209549.11,2.465697,-1.353458,3.083571,0.029807,-0.099856,-0.098536,0.134898,0.976475,0.168224,-0.051219,-0.109440,-0.035137,-19.164276,42.065872,25.375427,,,,,,
,,,,,,,,,,,,,,,,37.322696,-122.016617,60.332062,2.690000,40.781250,1478209549.00
1478209549.13,2.464885,-1.355801,3.086432,0.100647,-0.252116,-0.097915,0.133602,0.976977,0.166331,-0.046703,-0.086032,-0.063471,-19.164276,42.065872,25.375427,,,,,,
1478209549.15,2.455351,-1.359576,3.085786,0.187997,-0.592571,-0.117142,0.132843,0.977776,0.162195,-0.075074,-0.056343,-0.080880,-19.390900,41.541199,25.223938,,,,,,
1478209549.17,2.429464,-1.366962,3.076642,0.372123,-0.979057,-0.134705,0.132274,0.979298,0.153230,-0.075435,0.000332,-0.094408,-18.865204,41.916168,25.077698,,,,,,
1478209549.19,2.381314,-1.377117,3.050210,0.668753,-1.184109,-0.154060,0.132636,0.981303,0.139473,-0.042273,0.082647,-0.075401,-18.415100,41.840714,25.231140,,,,,,
1478209549.21,2.302000,-1.390572,2.995378,0.924728,-1.322164,-0.108799,0.133429,0.983804,0.119697,0.016382,0.110252,-0.032570,-18.564178,42.215790,25.229858,,,,,,
1478209549.23,2.190496,-1.404523,2.910338,1.054094,-1.447018,-0.082350,0.134733,0.986208,0.096126,0.081118,0.119932,-0.042262,-18.564178,42.215790,25.229858,,,,,,
1478209549.25,2.046619,-1.417295,2.796703,1.156500,-1.674900,-0.061214,0.135915,0.988242,0.070038,0.085750,0.054056,-0.078599,-18.264801,42.441544,24.632019,,,,,,
1478209549.27,1.851195,-1.427279,2.633947,1.399834,-1.743837,-0.000160,0.137440,0.989719,0.039581,0.075665,-0.066852,-0.071502,-18.039917,43.343216,23.433167,,,,,,
1478209549.29,1.587387,-1.431026,2.402407,1.861416,-1.765728,0.109924,0.139297,0.990248,0.002311,-0.018905,-0.141920,-0.104377,-17.140167,43.793777,22.764709,,,,,,
1478209549.31,1.273975,-1.425436,2.115758,2.096403,-1.155769,-0.159031,0.138515,0.989454,-0.042366,-0.096919,-0.056058,0.020134,-17.140259,44.470123,21.864380,,,,,,
1478209549.33,1.027014,-1.416829,1.879819,1.526062,-0.482649,-0.400573,0.131238,0.988171,-0.079344,-0.092069,0.234715,0.178786,-17.140259,44.470123,21.864380,,,,,,
1478209549.35,0.880080,-1.410894,1.736538,0.852836,-0.168961,-0.403686,0.122726,0.987243,-0.101438,-0.073364,0.333558,0.150785,-17.593201,44.923386,19.835693,,,,,,
1478209549.37,0.794789,-1.409549,1.653832,0.394354,-0.252557,-0.386917,0.114586,0.987028,-0.112454,-0.024972,0.280123,-0.011020,-18.271484,45.226776,17.805542,,,,,,
1478209549.39,0.725821,-1.410519,1.593896,0.285595,-0.611520,-0.401871,0.105929,0.987183,-0.119368,-0.093310,0.109436,-0.083132,-19.022919,45.077957,17.274963,,,,,,
1478209549.41,0.640798,-1.410799,1.521791,0.403026,-0.695736,-0.488386,0.095245,0.987228,-0.127710,-0.081603,0.003342,-0.090292,-19.323120,45.078217,17.197693,,,,,,
1478209549.43,0.545375,-1.408607,1.437941,0.473785,-0.572635,-0.491378,0.083765,0.986876,-0.138054,-0.044154,-0.073332,-0.061547,-19.323120,45.078217,17.197693,,,,,,
1478209549.45,0.468253,-1.405833,1.368932,0.329884,-0.387390,-0.374291,0.074115,0.986424,-0.146540,-0.041401,-0.103887,-0.036489,-19.625397,44.704391,16.520630,,,,,,
1478209549.47,0.425988,-1.404896,1.332544,0.080680,-0.305081,-0.170337,0.068239,0.986270,-0.150382,-0.049273,-0.141788,-0.029886,-20.676941,44.555817,15.912781,,,,,,
1478209549.49,0.418836,-1.405728,1.331482,-0.092308,-0.311311,0.061847,0.066828,0.986407,-0.150116,-0.058573,-0.185870,-0.053039,-20.827118,44.556000,15.836670,,,,,,
1478209549.51,0.440789,-1.407108,1.360507,-0.196979,-0.351710,0.252943,0.069527,0.986633,-0.147382,-0.074714,-0.190689,-0.100513,-20.675720,44.855484,16.137634,,,,,,
1478209549.53,0.480699,-1.408138,1.408527,-0.229765,-0.384763,0.366715,0.074882,0.986800,-0.143589,-0.114555,-0.221099,-0.141872,-20.675720,44.855484,16.137634,,,,,,
1478209549.55,0.528453,-1.408042,1.465073,-0.205723,-0.418958,0.421189,0.081699,0.986785,-0.139933,-0.147693,-0.229766,-0.185369,-20.301575,44.705627,15.915527,,,,,,
1478209549.57,0.574226,-1.406930,1.520005,-0.176804,-0.417945,0.396863,0.088612,0.986604,-0.136970,-0.175724,-0.217591,-0.197427,-19.474182,45.003967,16.746643,,,,,,
1478209549.59,0.612172,-1.405642,1.566426,-0.152765,-0.382803,0.320297,0.094475,0.986393,-0.134549,-0.207222,-0.215733,-0.186694,-18.873962,45.078674,16.751099,,,,,,
1478209549.61,0.636294,-1.404777,1.598552,-0.085908,-0.394474,0.184427,0.098199,0.986250,-0.132918,-0.258813,-0.177687,-0.190645,-18.497925,45.077682,17.278870,,,,,,
1478209549.63,0.632369,-1.403591,1.604261,0.095697,-0.570165,0.005792,0.098368,0.986054,-0.134245,-0.304789,-0.096756,-0.243852,-18.497925,45.077682,17.278870,,,,,,
1478209549.65,0.594420,-1.401151,1.582203,0.262361,-0.960658,-0.118309,0.094551,0.985645,-0.139874,-0.276695,-0.016910,-0.372547,-18.572357,45.002151,17.653381,,,,,,
1478209549.67,0.544572,-1.397457,1.553398,0.289387,-1.099008,-0.088143,0.089350,0.985014,-0.147524,-0.277491,0.064317,-0.399396,-18.648773,44.852982,17.127930,,,,,,
1478209549.69,0.513326,-1.393538,1.541425,0.143145,-0.871330,0.086349,0.086592,0.984331,-0.153605,-0.266921,0.173155,-0.369985,-18.273865,44.928024,16.980652,,,,,,
1478209549.71,0.530769,-1.394228,1.571587,-0.378661,-0.452184,0.289356,0.088914,0.984452,-0.151485,-0.208223,0.377288,-0.345326,-17.522736,45.152176,17.286133,,,,,,
1478209549.73,0.595486,-1.401949,1.641443,-0.727769,-0.098049,0.266674,0.094259,0.985779,-0.139122,-0.108862,0.526397,-0.163903,-17.522736,45.152176,17.286133,,,,,,
1478209549.75,0.668096,-1.411326,1.716702,-0.805436,-0.157246,0.217370,0.098372,0.987312,-0.124654,-0.040953,0.610924,0.139623,-16.395966,45.300598,17.969543,,,,,,
1478209549.77,0.708225,-1.419180,1.766753,-0.311551,-0.560132,-0.111426,0.098247,0.988528,-0.114714,0.182377,0.895246,-0.098039,-15.643951,45.148422,19.175232,,,,,,
1478209549.79,0.685345,-1.425266,1.757633,-0.179567,-0.878157,-0.270956,0.091787,0.989429,-0.112272,0.190852,0.266369,-0.080813,-15.343658,44.847473,19.702637,,,,,,
1478209549.81,0.683515,-1.430954,1.780094,-0.472093,-1.304192,0.102789,0.088026,0.990238,-0.108074,0.230196,0.012509,0.107205,-15.343597,44.697144,19.927673,,,,,,
1478209549.83,0.774931,-1.437753,1.894481,-0.919572,-0.928141,0.491493,0.092812,0.991163,-0.094775,0.254555,-0.208341,0.246417,-15.343597,44.697144,19.927673,,,,,,
1478209549.85,0.922601,-1.440861,2.053385,-0.788836,-0.257866,0.573158,0.103290,0.991570,-0.078228,0.323422,-0.175240,0.265209,-13.766113,44.469070,21.439697,,,,,,
1478209549.87,1.073274,-1.439023,2.207253,-0.837492,0.051459,0.690579,0.115463,0.991330,-0.062707,0.101059,-0.153837,0.179055,-12.939117,44.617401,22.270813,,,,,,
1478209549.89,1.222429,-1.429273,2.353949,-0.627003,0.154435,0.989639,0.132579,0.990002,-0.048150,0.012639,-0.305493,-0.027442,-11.738617,44.015335,23.255066,,,,,,
1478209549.91,1.333704,-1.410315,2.466255,-0.525020,-0.057936,1.257712,0.155323,0.987151,-0.037532,0.094967,-0.281599,-0.053929,-10.912384,44.089127,23.786255,,,,,,
1478209549.93,1.434978,-1.386179,2.567050,-0.720823,0.268820,1.406233,0.181879,0.983007,-0.024856,0.143499,-0.228643,0.145812,-10.912384,44.089127,23.786255,,,,,,
1478209549.95,1.542516,-1.358303,2.662041,-0.852023,1.005830,1.504453,0.210813,0.977508,-0.005963,0.087359,-0.180374,0.220624,-9.110077,43.861053,25.224915,,,,,,
1478209549.97,1.640435,-1.330052,2.734810,-0.837297,1.499444,1.299399,0.237847,0.971161,0.016590,0.045035,-0.134872,0.070324,-7.834045,43.483948,26.209656,,,,,,
1478209549.99,1.722522,-1.307785,2.789602,-0.781781,1.373513,0.868774,0.257003,0.965611,0.039296,0.034379,-0.165090,-0.037709,-6.783020,43.106949,27.192688,,,,,,
1478209550.01,1.788289,-1.292104,2.834729,-0.709918,0.968762,0.564273,0.268618,0.961416,0.059361,0.003294,-0.214544,-0.009038,-6.707764,42.731018,27.793457,,,,,,
1478209550.03,1.839772,-1.279788,2.871760,-0.643884,0.731697,0.434064,0.276602,0.957955,0.076247,-0.015021,-0.202508,0.040361,-6.707764,42.731018,27.793457,,,,,,
1478209550.05,1.890844,-1.268607,2.909925,-0.747488,0.766245,0.325928,0.282498,0.954687,0.093632,0.032749,-0.164496,0.029827,-7.454895,42.128143,29.963196,,,,,,
1478209550.08,1.947721,-1.258452,2.951958,-0.769751,0.903660,0.214888,0.285719,0.951616,0.113102,-0.005399,-0.076967,-0.058384,-7.755615,41.602829,30.261169,,,,,,
1478209550.10,2.001563,-1.250441,2.989404,-0.649773,0.900273,0.106974,0.286136,0.949124,0.131494,-0.045047,-0.029080,-0.155236,-8.205688,41.001938,31.008118,,,,,,
1478209550.12,2.048931,-1.243255,3.021159,-0.617003,0.846990,0.117880,0.285637,0.946836,0.148029,-0.040032,0.018496,-0.125522,-8.655212,40.400696,31.980042,,,,,,
,,,,,,,,,,,,,,,,37.322718,-122.016622,60.160736,1.950000,43.945312,1478209550.00
1478209550.14,2.091586,-1.233525,3.049779,-0.735497,0.762036,0.280227,0.287043,0.943661,0.164651,-0.019632,0.005344,-0.122582,-8.655212,40.400696,31.980042,,,,,,
1478209550.16,2.131626,-1.219420,3.076541,-0.732254,0.737309,0.429312,0.291465,0.938900,0.183071,-0.003074,0.011250,-0.169689,-9.777344,39.873138,34.071899,,,,,,
1478209550.18,2.162365,-1.205028,3.091409,-0.594498,0.936630,0.488313,0.296888,0.933849,0.199458,0.077365,0.008427,-0.177058,-10.002686,39.197220,34.745544,,,,,,
1478209550.20,2.190551,-1.190571,3.098652,-0.497979,1.183962,0.524655,0.302108,0.928581,0.215566,0.136277,-0.000404,-0.202611,-10.152191,38.670959,35.644653,,,,,,
1478209550.22,2.217276,-1.176672,3.099833,-0.418542,1.371866,0.533322,0.306512,0.923333,0.231314,0.186896,0.008780,-0.265616,-11.050629,37.693375,37.663452,,,,,,
1478209550.24,2.244062,-1.164753,3.098310,-0.301815,1.426889,0.466816,0.308789,0.918691,0.246285,0.135760,0.042247,-0.317269,-11.050629,37.693375,37.663452,,,,,,
1478209550.26,2.271163,-1.153608,3.097097,-0.388082,1.417616,0.457841,0.309812,0.914232,0.261145,-0.000715,0.097502,-0.242758,-12.024902,37.017075,38.856445,,,,,,
1478209550.28,2.302562,-1.139302,3.098746,-0.545865,1.574221,0.564250,0.311160,0.908342,0.279454,-0.084079,0.169844,-0.175374,-13.150879,36.041534,39.598511,,,,,,
1478209550.30,2.335133,-1.124052,3.097919,-0.455882,1.711080,0.561342,0.311858,0.901859,0.298991,-0.070525,0.296307,-0.235941,-13.750122,35.139572,41.094482,,,,,,
1478209550.32,2.360038,-1.113503,3.090463,-0.113972,1.490105,0.446463,0.311000,0.897251,0.313400,-0.060390,0.231777,-0.397293,-14.726776,32.811920,43.188232,,,,,,
1478209550.34,2.371407,-1.109319,3.072756,0.254292,1.352871,0.423147,0.310028,0.895396,0.319607,-0.056305,0.111929,-0.248456,-14.726776,32.811920,43.188232,,,,,,
1478209550.36,2.376371,-1.109482,3.046887,0.485659,1.427586,0.433886,0.308337,0.895468,0.321037,-0.078738,-0.040427,-0.105705,-14.951141,32.285583,44.161926,,,,,,
1478209550.38,2.372807,-1.111540,3.013634,0.678390,1.200409,0.491709,0.308197,0.896383,0.318611,0.018051,-0.040044,0.097725,-14.725586,32.510452,44.163513,,,,,,
1478209550.40,2.335999,-1.121168,2.961809,1.557667,-0.199420,0.497607,0.313474,0.900609,0.301061,0.156512,-0.142323,0.053690,-14.575012,33.035950,43.789368,,,,,,
1478209550.42,2.216810,-1.143429,2.865971,2.622825,-2.275798,0.383139,0.330955,0.910060,0.249518,0.509865,0.221059,0.418633,-12.246979,36.564133,40.880005,,,,,,
1478209550.44,2.064154,-1.164538,2.759975,2.073604,-3.055124,0.210988,0.348049,0.918606,0.187149,0.425114,0.111545,0.496872,-12.246979,36.564133,40.880005,,,,,,
1478209550.46,1.928013,-1.176509,2.687849,1.315468,-3.805889,-0.097546,0.359901,0.923270,0.134325,0.111687,0.222054,0.098417,-10.519928,39.116531,38.716675,,,,,,
1478209550.48,1.796723,-1.191636,2.628224,1.382408,-3.580848,-0.625512,0.360734,0.928976,0.082915,-0.159837,0.309946,0.246476,-9.244202,40.843567,36.925415,,,,,,
1478209550.50,1.672966,-1.216579,2.548747,1.728491,-1.893756,-1.192492,0.345047,0.937918,0.035376,-0.302033,0.348840,0.501367,-7.444489,42.345703,34.913086,,,,,,
1478209550.52,1.537709,-1.244274,2.438487,1.930114,-1.542174,-1.381400,0.320576,0.947163,-0.010611,-0.277195,0.052959,0.141638,-9.250580,44.229721,29.498657,,,,,,
1478209550.54,1.370501,-1.267702,2.303394,1.942324,-2.305561,-1.375913,0.292508,0.954417,-0.059384,-0.273221,-0.335033,-0.011966,-9.250580,44.229721,29.498657,,,,,,
1478209550.56,1.188643,-1.284127,2.166571,1.504663,-2.573103,-1.384298,0.262362,0.959191,-0.105447,-0.055011,-0.299828,0.256371,-10.979614,44.684448,26.935486,,,,,,
1478209550.58,1.020515,-1.297487,2.039380,1.175916,-2.135095,-1.379319,0.230074,0.962883,-0.141148,0.006850,-0.349861,0.248769,-12.107178,45.513489,24.601624,,,,,,
1478209550.60,0.868640,-1.306071,1.918970,0.970055,-1.637141,-1.230050,0.199752,0.965164,-0.168987,0.101273,-0.309388,0.138759,-12.710907,45.591736,22.647034,,,,,,
1478209550.62,0.737580,-1.309299,1.813507,0.843620,-1.392657,-0.976701,0.173859,0.966004,-0.191336,0.092773,-0.293412,0.028418,-14.739624,45.971252,20.306641,,,,,,
1478209550.64,0.631754,-1.308146,1.728203,0.665434,-1.020428,-0.723832,0.153334,0.965705,-0.209528,0.086397,-0.182044,0.031870,-14.739624,45.971252,20.306641,,,,,,
1478209550.66,0.567033,-1.306122,1.676343,0.328111,-0.577700,-0.366558,0.140511,0.965178,-0.220655,0.028648,-0.106444,0.047574,-15.116791,45.822815,19.403870,,,,,,
1478209550.68,0.549225,-1.306043,1.665639,-0.066397,-0.277312,0.026810,0.136599,0.965157,-0.223187,0.029889,-0.137124,0.021451,-17.443054,45.824905,18.786377,,,,,,
1478209550.70,0.570370,-1.308082,1.691785,-0.369616,-0.192917,0.351817,0.140225,0.965689,-0.218592,0.016666,-0.186789,-0.054662,-15.568970,45.749481,18.425476,,,,,,
1478209550.72,0.614828,-1.310577,1.743488,-0.554637,-0.338331,0.556470,0.148411,0.966334,-0.210175,-0.090397,-0.182108,-0.191589,-15.192871,45.823624,18.878296,,,,,,
1478209550.74,0.676382,-1.314463,1.814802,-0.792904,-0.373869,0.648891,0.158707,0.967326,-0.197718,-0.140381,-0.115809,-0.211935,-15.192871,45.823624,18.878296,,,,,,
1478209550.76,0.744147,-1.319242,1.892099,-0.758719,-0.319485,0.493579,0.168597,0.968527,-0.183114,-0.504337,0.040003,-0.263251,-14.216492,45.822128,19.560608,,,,,,
1478209550.78,0.777832,-1.320503,1.928868,-0.061932,0.034986,0.169003,0.173812,0.968840,-0.176462,-0.684829,0.145952,-0.147756,-13.989594,45.745407,20.612366,,,,,,
1478209550.80,0.759618,-1.315571,1.910283,0.505169,-0.026987,-0.092847,0.173857,0.967607,-0.183061,-0.184081,0.066024,-0.254973,-12.189423,45.744385,20.700867,,,,,,
1478209550.82,0.714832,-1.311949,1.861763,0.433623,0.026904,-0.376478,0.167784,0.966686,-0.193307,-0.075865,0.394093,-0.409324,-12.264435,46.270416,20.025024,,,,,,
1478209550.84,0.714772,-1.316719,1.868393,-0.672493,-0.454064,0.087620,0.164748,0.967896,-0.189832,0.017442,0.358902,-0.071963,-12.264435,46.270416,20.025024,,,,,,
1478209550.86,0.775752,-1.330033,1.933798,-1.185449,0.119451,0.154185,0.166971,0.971156,-0.170224,-0.109476,0.384480,0.101758,-12.265381,46.195984,19.650024,,,,,,
1478209550.88,0.853373,-1.345709,2.017005,-1.143271,-0.525798,0.032982,0.168175,0.974775,-0.146736,-0.133523,0.541674,0.315819,-11.813965,46.044418,20.553589,,,,,,
1478209550.90,0.876984,-1.359198,2.070307,-0.783893,-1.523400,-0.413808,0.161468,0.977697,-0.134304,0.519043,1.523036,0.511409,-10.609100,45.589310,23.562805,,,,,,
1478209550.92,0.837008,-1.384094,2.054349,-0.557317,-1.540015,-1.051237,0.137849,0.982622,-0.124307,0.776809,0.216048,-0.055014,-10.308502,44.987564,24.615356,,,,,,
1478209550.94,0.779045,-1.400300,2.041332,-0.682759,-2.383582,-0.542876,0.119211,0.985501,-0.120736,0.511725,-0.090832,0.160622,-10.308502,44.987564,24.615356,,,,,,
1478209550.96,0.830713,-1.420154,2.134787,-1.376719,-1.708397,0.076080,0.110816,0.988675,-0.101202,0.477853,-0.229169,0.245458,-11.133698,44.537323,25.059448,,,,,,
1478209550.98,0.988215,-1.426830,2.307614,-1.094714,-0.046621,0.713799,0.119803,0.989655,-0.078934,0.355828,-0.324250,0.349991,-10.383636,43.785477,26.040405,,,,,,
1478209551.00,1.201865,-1.422353,2.510296,-1.329030,1.066764,0.987587,0.137947,0.989002,-0.053335,0.550224,-0.181187,0.341177,-10.230682,42.806366,28.742065,,,,,,
1478209551.02,1.449788,-1.401556,2.726042,-1.357364,2.019370,1.622551,0.167202,0.985713,-0.020332,0.105626,-0.250331,0.052726,-8.653839,42.203064,30.404114,,,,,,
1478209551.04,1.636999,-1.368696,2.876744,-1.414479,1.931217,1.677726,0.200287,0.979647,0.013279,0.134399,-0.178546,-0.080311,-8.653839,42.203064,30.404114,,,,,,
1478209551.06,1.778348,-1.331546,2.980646,-1.288259,2.088143,1.683503,0.231888,0.971516,0.048832,0.177856,-0.299244,-0.025410,-7.602661,41.224823,32.212585,,,,,,
1478209551.08,1.872136,-1.295738,3.033321,-1.016576,2.152361,1.544384,0.259365,0.962409,0.080612,0.161671,-0.402305,-0.062240,-7.075897,40.546982,33.941833,,,,,,
1478209551.10,1.944970,-1.264079,3.063137,-0.876964,2.265110,1.257565,0.281040,0.953330,0.110357,0.240109,-0.570227,-0.025548,-8.046844,39.492416,37.310059,,,,,,
,,,,,,,,,,,,,,,,37.322732,-122.016619,60.054413,1.170000,55.546875,1478209551.00
1478209551.12,2.007430,-1.239569,3.081728,-0.680991,2.205589,0.890416,0.294694,0.945644,0.137526,0.161376,-0.582973,-0.031569,-9.022583,38.591766,38.053162,,,,,,
1478209551.14,2.057802,-1.223302,3.091788,-0.407938,1.937454,0.516557,0.300951,0.940229,0.159368,0.055403,-0.394163,-0.087407,-9.022583,38.591766,38.053162,,,,,,
1478209551.16,2.092342,-1.215331,3.094124,-0.125983,1.403273,0.274085,0.301756,0.937485,0.173394,-0.024260,-0.227142,-0.194222,-10.072815,37.841080,38.870667,,,,,,
1478209551.18,2.107046,-1.210879,3.087380,0.029934,0.877600,0.259774,0.302759,0.935926,0.179943,-0.121332,-0.018278,-0.225292,-11.350433,36.566269,39.161743,,,,,,
1478209551.20,2.116525,-1.205622,3.080611,-0.125332,0.798217,0.343133,0.305241,0.934062,0.185356,-0.243565,0.192632,-0.096397,-11.574738,36.490723,39.610107,,,,,,
1478209551.22,2.138358,-1.195194,3.084701,-0.494959,1.002283,0.451498,0.309319,0.930287,0.197201,-0.246285,0.160122,-0.063702,-11.650299,35.890076,40.059875,,,,,,
1478209551.24,2.177437,-1.180503,3.100082,-0.688456,1.405854,0.444498,0.312573,0.924798,0.216904,-0.203336,0.108405,-0.180893,-11.650299,35.890076,40.059875,,,,,,
1478209551.26,2.219884,-1.168702,3.112989,-0.532294,1.590630,0.277947,0.311761,0.920243,0.236554,-0.154305,0.084731,-0.347180,-12.174225,35.138092,41.556335,,,,,,
1478209551.28,2.262083,-1.162496,3.124606,-0.301592,1.561677,-0.003898,0.305898,0.917797,0.253131,-0.128636,0.035114,-0.382617,-12.547791,32.958115,45.004578,,,,,,
1478209551.30,2.304995,-1.162474,3.139322,-0.308904,1.433530,-0.268805,0.294772,0.917788,0.266034,-0.100207,0.033567,-0.347715,-12.471039,31.979919,47.105591,,,,,,
1478209551.32,2.354544,-1.159138,-3.116866,-0.609865,1.167465,-0.160410,0.283401,0.916459,0.282467,-0.099059,-0.027634,-0.344799,-12.772003,30.327698,48.679260,,,,,,
1478209551.34,2.397398,-1.147917,-3.099241,-0.673376,1.517672,0.311346,0.277989,0.911911,0.301895,0.082821,-0.013275,-0.206543,-12.772003,30.327698,48.679260,,,,,,
1478209551.36,2.433098,-1.132657,-3.098243,-0.503241,1.852653,0.549154,0.276059,0.905543,0.322155,0.053653,0.145132,-0.276683,-11.571228,28.523163,51.314148,,,,,,
1478209551.38,2.457686,-1.122383,-3.110040,-0.057238,1.690730,0.516723,0.273919,0.901136,0.336039,-0.101587,0.188692,-0.299021,-8.191711,25.812988,56.965820,,,,,,
1478209551.40,2.466630,-1.117995,-3.135905,0.331357,1.556340,0.651061,0.273371,0.899225,0.341559,0.061635,0.045721,-0.025351,-6.762054,25.508209,59.676697,,,,,,
1478209551.42,2.448143,-1.116586,3.097863,0.848173,1.084056,1.046356,0.280448,0.898608,0.337421,0.089104,0.092512,0.157253,-5.557617,26.556229,60.585205,,,,,,
1478209551.44,2.376179,-1.122018,3.016543,1.700852,-0.758111,1.140070,0.300597,0.900978,0.312858,0.246842,0.103280,0.234322,-5.557617,26.556229,60.585205,,,,,,
1478209551.46,2.243394,-1.139037,2.913494,2.543746,-2.435533,0.675682,0.327329,0.908231,0.260715,0.469393,0.175845,0.536404,-4.797455,30.380417,60.888977,,,,,,
1478209551.48,2.081510,-1.158932,2.795412,2.409261,-2.873813,0.471227,0.349236,0.916376,0.195676,0.453605,-0.134073,0.618625,-4.187103,38.412430,56.014526,,,,,,
1478209551.50,1.928277,-1.170957,2.698180,1.809848,-3.424057,0.105776,0.364661,0.921124,0.136211,0.190408,-0.012753,0.323643,-6.361694,42.019943,51.721497,,,,,,
1478209551.52,1.783599,-1.186035,2.615866,1.715111,-3.296134,-0.516606,0.366871,0.926888,0.079271,-0.025151,0.391456,0.301863,-8.013916,44.802658,47.132629,,,,,,
1478209551.54,1.659101,-1.206302,2.537507,1.461000,-2.084701,-0.941388,0.355088,0.934304,0.031438,-0.284852,0.580970,0.564205,-8.013916,44.802658,47.132629,,,,,,
1478209551.56,1.548318,-1.232346,2.454325,1.589217,-1.653655,-1.442719,0.331942,0.943270,-0.007463,-0.328249,0.411664,0.175004,-9.070831,45.935516,42.249146,,,,,,
1478209551.58,1.379715,-1.256975,2.323385,2.085708,-2.563177,-1.449251,0.303077,0.951161,-0.058628,-0.436561,-0.132176,-0.202679,-12.012756,45.724274,34.052246,,,,,,
1478209551.60,1.184003,-1.274714,2.172681,1.809123,-2.561107,-1.511451,0.270220,0.956487,-0.110064,-0.170153,-0.195943,0.340960,-13.370239,46.031158,29.916870,,,,,,
1478209551.62,1.000007,-1.287195,2.029457,1.360587,-2.212061,-1.480383,0.235457,0.960054,-0.151183,0.042451,-0.269273,0.326384,-14.425812,46.035858,27.133911,,,,,,
1478209551.64,0.836240,-1.294355,1.899701,1.117509,-1.702284,-1.335593,0.202552,0.962033,-0.182936,0.153268,-0.344647,0.198134,-14.425812,46.035858,27.133911,,,,,,
1478209551.66,0.702960,-1.299024,1.787841,0.779838,-1.113544,-1.181863,0.173540,0.963297,-0.204800,0.200133,-0.379236,0.091672,-15.106628,45.815155,24.503967,,,,,,
1478209551.68,0.602440,-1.300741,1.702449,0.541017,-0.808307,-0.810001,0.151175,0.963756,-0.219819,0.100107,-0.427913,0.074723,-16.837524,45.745300,21.641052,,,,,,
1478209551.70,0.544950,-1.300097,1.654243,0.262666,-0.384020,-0.353377,0.138616,0.963584,-0.228672,0.088313,-0.358054,0.073139,-17.139343,45.746811,20.738770,,,,,,
1478209551.72,0.539003,-1.299903,1.650779,-0.097303,-0.037187,0.164657,0.137350,0.963532,-0.229653,0.006373,-0.318910,-0.027030,-17.739075,45.972336,20.584106,,,,,,
1478209551.74,0.577814,-1.299359,1.691823,-0.372235,-0.075460,0.667777,0.146444,0.963387,-0.224590,-0.096730,-0.294792,-0.120243,-17.739075,45.972336,20.584106,,,,,,
1478209551.76,0.648302,-1.298726,1.767831,-0.673634,-0.168528,0.943033,0.162266,0.963217,-0.214204,-0.217167,-0.196142,-0.169036,-16.540527,45.672287,20.218262,,,,,,
1478209551.78,0.732592,-1.298766,1.860073,-0.826338,-0.296650,0.929615,0.179698,0.963227,-0.199754,-0.466869,-0.054322,-0.231886,-14.889648,45.670761,20.680664,,,,,,
1478209551.80,0.794504,-1.296814,1.931182,-0.385449,-0.255033,0.636043,0.193054,0.962701,-0.189570,-0.740128,0.157706,-0.113835,-13.389008,45.669556,20.991882,,,,,,
1478209551.82,0.811937,-1.294462,1.948191,0.023735,0.229494,0.038241,0.197972,0.962062,-0.187733,-0.548970,0.271336,-0.123866,-12.036926,46.193298,21.376770,,,,,,
1478209551.84,0.801677,-1.298901,1.924269,0.140475,0.800081,-0.594298,0.192965,0.963264,-0.186783,0.144193,0.206933,-0.333679,-12.036926,46.193298,21.376770,,,,,,
1478209551.86,0.774378,-1.306715,1.891830,-0.197588,-0.259037,-0.447643,0.182526,0.965333,-0.186594,0.025009,0.362609,-0.517340,-11.814484,46.195084,20.103455,,,,,,
1478209551.88,0.787057,-1.317307,1.920716,-0.810787,-0.796921,0.036283,0.177624,0.968043,-0.177036,-0.140667,0.499974,0.006031,-11.439362,46.420227,19.881104,,,,,,
1478209551.90,0.842935,-1.327307,1.988859,-1.067684,-0.436085,0.263189,0.179998,0.970503,-0.160391,-0.170781,0.525133,0.242407,-11.363190,46.344177,20.556824,,,,,,
1478209551.92,0.895731,-1.338597,2.058389,-0.853884,-0.929378,-0.130879,0.179645,0.973163,-0.143812,0.001782,0.687116,0.334791,-11.135986,45.966721,22.133606,,,,,,
1478209551.94,0.888701,-1.356012,2.063751,-0.680006,-0.423270,-1.078098,0.165448,0.977022,-0.134366,0.633319,1.192350,0.510785,-11.135986,45.966721,22.133606,,,,,,
1478209551.96,0.848334,-1.387715,2.036533,-0.740406,-1.041422,-1.305291,0.136578,0.983287,-0.120384,0.697971,0.283375,0.042839,-9.483765,44.987381,24.471558,,,,,,
1478209551.98,0.840199,-1.413294,2.061265,-1.340368,-1.831840,-0.523913,0.116820,0.987622,-0.104670,0.523027,-0.204144,0.108469,-10.758453,44.461792,25.287231,,,,,,
1478209552.00,0.995732,-1.431798,2.246269,-1.706764,-0.943632,0.473350,0.116266,0.990355,-0.075356,0.574240,-0.312392,0.303201,-10.983185,43.484879,26.635986,,,,,,
1478209552.02,1.254920,-1.429456,2.507459,-1.544090,0.619751,1.058404,0.133901,0.990028,-0.043761,0.472697,-0.280571,0.366439,-10.231506,42.656693,28.517090,,,,,,
1478209552.04,1.508645,-1.405053,2.733427,-1.400042,1.991570,1.789482,0.164667,0.986296,-0.010248,0.549368,-0.246824,0.239786,-10.231506,42.656693,28.517090,,,,,,
1478209552.06,1.677779,-1.366428,2.860684,-1.157088,2.222337,1.908626,0.201789,0.979189,0.021671,0.171456,-0.164400,-0.094837,-8.728058,41.075394,32.204224,,,,,,
1478209552.08,1.799829,-1.327668,2.939143,-1.194638,2.350438,1.681486,0.234454,0.970590,0.054657,0.152112,-0.177331,-0.049179,-7.975159,40.546875,34.310059,,,,,,
1478209552.10,1.895997,-1.293175,2.988877,-1.021971,2.449282,1.382096,0.259704,0.961710,0.087564,0.178300,-0.406946,-0.079569,-7.973724,39.869507,35.885437,,,,,,
,,,,,,,,,,,,,,,,37.322746,-122.016614,59.991913,1.160000,82.265625,1478209552.00
1478209552.12,1.970395,-1.264153,3.017337,-0.831490,2.285345,1.153460,0.278079,0.953352,0.117438,0.154157,-0.571593,-0.103003,-7.897797,39.267670,37.086304,,,,,,
1478209552.14,2.026431,-1.240258,3.032661,-0.657179,2.004578,0.889785,0.291442,0.945868,0.142813,0.023942,-0.537573,-0.015845,-7.897797,39.267670,37.086304,,,,,,
1478209552.16,2.071308,-1.222799,3.042274,-0.469074,1.664273,0.601793,0.299185,0.940058,0.163645,-0.084998,-0.378321,-0.062937,-10.445801,38.365707,39.242615,,,,,,
1478209552.18,2.106006,-1.212371,3.048951,-0.320434,1.264605,0.288127,0.301745,0.936450,0.178915,-0.126040,-0.201023,-0.093787,-10.747498,37.615738,39.315735,,,,,,
1478209552.20,2.136193,-1.206081,3.060522,-0.376463,0.788787,0.123542,0.301175,0.934225,0.191094,-0.150311,-0.009573,-0.120903,-11.198212,37.165634,39.537537,,,,,,
1478209552.22,2.164560,-1.200142,3.077690,-0.442749,0.612628,0.062770,0.300227,0.932090,0.202660,-0.141933,0.179436,-0.115395,-11.198303,36.940292,39.762695,,,,,,
1478209552.24,2.199466,-1.193463,3.096752,-0.518995,1.074253,0.077616,0.298001,0.929650,0.216670,-0.130490,0.224524,-0.046992,-11.198303,36.940292,39.762695,,,,,,
1478209552.26,2.244149,-1.180838,3.117773,-0.799748,1.387253,0.344915,0.297177,0.924925,0.237066,-0.103817,0.182436,-0.134206,-11.721283,35.887070,42.084290,,,,,,
1478209552.28,2.289533,-1.164046,3.133201,-0.771169,1.656879,0.525626,0.297764,0.918411,0.260494,-0.072574,0.015426,-0.255565,-12.020874,34.609528,43.882690,,,,,,
1478209552.30,2.327444,-1.146723,3.138092,-0.577487,1.683808,0.573487,0.299202,0.911420,0.282474,-0.005928,-0.034238,-0.312106,-11.796997,32.656601,45.760315,,,,,,
1478209552.32,2.359239,-1.134638,3.136879,-0.346009,1.651584,0.336360,0.297814,0.906381,0.299633,-0.005043,-0.011423,-0.314449,-10.143036,28.820618,52.524658,,,,,,
1478209552.34,2.396596,-1.128632,-3.139417,-0.331601,1.475691,-0.022029,0.290101,0.903828,0.314543,-0.085023,-0.011707,-0.330457,-10.143036,28.820618,52.524658,,,,,,
1478209552.36,2.431917,-1.123668,-3.130223,-0.289060,1.379643,0.106091,0.281732,0.901692,0.327991,-0.027567,-0.090779,-0.302081,-8.639557,27.164124,56.361755,,,,,,
1478209552.38,2.458172,-1.117300,-3.134659,-0.143914,1.588177,0.351406,0.276645,0.898921,0.339719,0.116559,0.110646,-0.258802,-6.986572,25.583099,59.825012,,,,,,
1478209552.40,2.475604,-1.112417,3.135681,0.093624,1.324763,0.378661,0.273390,0.896771,0.347937,0.069826,0.229618,-0.332037,-4.655243,25.051163,63.667725,,,,,,
1478209552.42,2.477527,-1.111677,3.113341,0.361632,1.016522,0.448731,0.273129,0.896443,0.348984,0.094394,0.235011,-0.248490,-2.244446,25.192169,68.860718,,,,,,
1478209552.44,2.466101,-1.110973,3.080470,0.429599,0.819152,0.713400,0.277493,0.896131,0.346333,0.077945,-0.036893,-0.035344,-2.244446,25.192169,68.860718,,,,,,
1478209552.46,2.432900,-1.107563,3.032660,0.699198,0.244627,1.061719,0.290824,0.894612,0.339249,0.056954,0.017192,0.102233,-1.486694,26.914185,70.590515,,,,,,
1478209552.48,2.366032,-1.108773,2.963593,1.323216,-0.629285,1.125026,0.312084,0.895152,0.318286,0.002552,0.061391,0.407789,-0.202515,30.287964,70.973511,,,,,,
1478209552.50,2.256264,-1.115005,2.871726,1.957503,-1.724253,1.125920,0.340748,0.897913,0.278645,0.091823,0.059652,0.593151,1.232574,34.788147,70.381958,,,,,,
1478209552.52,2.129263,-1.126826,2.767769,2.287033,-1.626603,0.613429,0.364270,0.903053,0.227601,0.406589,0.215248,0.495162,0.723969,44.544373,66.398315,,,,,,
1478209552.54,2.002051,-1.143305,2.671318,2.094871,-2.417051,0.065360,0.376630,0.910009,0.173303,0.270266,0.154826,0.035315,0.723969,44.544373,66.398315,,,,,,
1478209552.56,1.861624,-1.162504,2.588691,1.819458,-3.641971,-0.530409,0.380370,0.917800,0.113850,-0.049193,0.281434,0.105373,-3.778107,47.704102,61.412964,,,,,,
1478209552.58,1.724336,-1.188085,2.515923,1.589389,-3.309397,-1.202814,0.369044,0.927656,0.057112,-0.217097,0.310153,0.350069,-7.463409,49.291672,54.259521,,,,,,
1478209552.60,1.593074,-1.215869,2.440703,1.445195,-2.990868,-1.305218,0.347436,0.937672,0.007741,-0.359780,0.107204,0.136317,-9.427582,49.153046,47.344849,,,,,,
1478209552.62,1.444313,-1.242166,2.341400,1.754139,-2.669450,-1.466878,0.320169,0.946485,-0.040713,-0.378732,-0.101103,0.030398,-12.005432,47.146439,35.926575,,,,,,
1478209552.64,1.268806,-1.263727,2.209582,1.753417,-2.395030,-1.538621,0.288588,0.953224,-0.089900,-0.178801,-0.162071,0.281764,-12.005432,47.146439,35.926575,,,,,,
1478209552.66,1.090527,-1.278651,2.071499,1.471854,-2.297559,-1.432802,0.255425,0.957628,-0.133064,-0.043908,-0.261995,0.229591,-13.816742,46.479568,31.113220,,,,,,
1478209552.68,0.927498,-1.288020,1.947995,1.109127,-2.147840,-1.265768,0.223252,0.960285,-0.167368,0.094696,-0.284778,0.179758,-14.723694,46.410095,27.731445,,,,,,
1478209552.70,0.792732,-1.293643,1.847949,0.751778,-1.828189,-1.011674,0.194891,0.961838,-0.192053,0.164759,-0.294343,0.098990,-15.330566,45.814484,25.027283,,,,,,
1478209552.72,0.688152,-1.294812,1.773697,0.596172,-1.546553,-0.672317,0.173064,0.962158,-0.210480,0.088304,-0.343704,0.044968,-15.936340,45.743942,22.247742,,,,,,
1478209552.74,0.616459,-1.292451,1.725241,0.412472,-1.053280,-0.321728,0.158855,0.961511,-0.224190,0.092915,-0.267557,0.064247,-15.936340,45.743942,22.247742,,,,,,
1478209552.76,0.590628,-1.290009,1.712667,0.051769,-0.500004,0.088473,0.154319,0.960838,-0.230167,0.131738,-0.244407,0.012866,-16.311676,45.894699,21.869873,,,,,,
1478209552.78,0.613118,-1.289357,1.741935,-0.351353,-0.178372,0.508375,0.159817,0.960657,-0.227151,0.112522,-0.225610,-0.086555,-16.387238,45.970306,21.494263,,,,,,
1478209552.80,0.671898,-1.290059,1.805496,-0.673430,-0.109757,0.773690,0.172465,0.960851,-0.216842,-0.039912,-0.212194,-0.166550,-15.262512,45.744492,21.652832,,,,,,
1478209552.82,0.751147,-1.291360,1.889688,-0.902955,-0.082599,0.866063,0.188237,0.961211,-0.201594,-0.179005,-0.120894,-0.158086,-14.136139,45.742905,22.336243,,,,,,
1478209552.84,0.831450,-1.293074,1.975890,-0.846616,-0.126060,0.690797,0.202584,0.961682,-0.184735,-0.426324,0.046802,-0.220173,-14.136139,45.742905,22.336243,,,,,,
1478209552.86,0.882317,-1.292879,2.026425,-0.287945,0.252330,0.319651,0.211860,0.961629,-0.174314,-0.597052,0.221904,-0.099642,-13.158936,45.891068,23.243469,,,,,,
1478209552.88,0.897487,-1.291066,2.036775,0.024874,0.254998,0.041403,0.215841,0.961130,-0.172167,-0.300085,0.018881,-0.166853,-11.808746,45.739914,23.553711,,,,,,
1478209552.90,0.882241,-1.291242,2.019309,0.255203,-0.184328,-0.239819,0.213061,0.961179,-0.175330,-0.045611,0.144840,-0.503976,-11.660065,45.740845,22.879822,,,,,,
1478209552.92,0.855626,-1.293722,2.008379,-0.192233,-1.143155,-0.093917,0.206519,0.961860,-0.179374,-0.182075,0.432763,-0.439736,-10.612030,45.366104,22.362915,,,,,,
1478209552.94,0.865540,-1.298710,2.040105,-0.638212,-0.847704,0.179952,0.204632,0.963212,-0.174206,-0.219051,0.504607,-0.059925,-10.612030,45.366104,22.362915,,,,,,
1478209552.96,0.920831,-1.307794,2.109328,-1.225109,-0.463124,0.210206,0.206972,0.965614,-0.157330,-0.109667,0.618981,0.304501,-10.911560,45.140472,22.885742,,,,,,
1478209552.98,0.986972,-1.326824,2.186168,-1.375389,-0.350692,-0.567875,0.201548,0.970386,-0.133152,0.377340,0.724026,0.531696,-9.560822,44.462982,24.096191,,,,,,
1478209553.00,1.025860,-1.353356,2.219444,-0.801440,0.458501,-1.097138,0.184484,0.976453,-0.111827,0.562113,0.363528,0.127238,-9.031891,43.257538,27.550781,,,,,,
1478209553.02,0.982059,-1.375129,2.187462,-0.076713,-1.305752,-0.941440,0.161689,0.980918,-0.107964,0.634011,0.069604,-0.037971,-10.382385,42.657440,28.066040,,,,,,
1478209553.04,0.945148,-1.387224,2.188383,-0.662487,-2.071692,-0.200473,0.147966,0.983198,-0.106901,0.439284,-0.162855,0.336210,-10.382385,42.657440,28.066040,,,,,,
1478209553.06,1.025994,-1.394255,2.305598,-1.219301,-1.247276,0.546749,0.150200,0.984457,-0.091018,0.492592,-0.115957,0.506789,-11.508118,42.132568,28.357788,,,,,,
1478209553.08,1.174133,-1.392193,2.458088,-1.109618,0.551983,0.708546,0.163861,0.984093,-0.068636,0.373370,-0.064613,0.406923,-10.908356,41.381012,29.187683,,,,,,
1478209553.10,1.363315,-1.381946,2.620274,-1.369529,1.926718,1.132954,0.183703,0.982221,-0.038672,0.420499,-0.145185,0.207586,-9.481598,39.725906,32.124207,,,,,,
,,,,,,,,,,,,,,,,37.322753,-122.016602,59.814240,0.900000,90.351562,1478209553.00
1478209553.12,1.546598,-1.357789,2.760613,-1.212025,2.407289,1.427954,0.211339,0.977400,-0.005115,0.255916,-0.035886,-0.097470,-8.804840,39.047974,33.854553,,,,,,
1478209553.14,1.696427,-1.326459,2.864347,-1.288506,2.473147,1.599883,0.240006,0.970298,0.030312,0.260985,-0.143592,-0.022942,-8.804840,39.047974,33.854553,,,,,,
1478209553.16,1.815953,-1.290117,2.936106,-1.220127,2.559011,1.616095,0.268725,0.960868,0.067232,0.200757,-0.190558,-0.019564,-7.980530,37.620407,35.286438,,,,,,
1478209553.18,1.907149,-1.254755,2.977649,-1.016652,2.593704,1.464937,0.293390,0.950473,0.102581,0.186560,-0.414203,-0.041576,-8.877838,37.092819,37.305054,,,,,,
1478209553.20,1.980670,-1.225631,3.002692,-0.850509,2.443998,1.047727,0.310327,0.941019,0.134831,0.032965,-0.685450,-0.004537,-8.576050,35.889053,39.707947,,,,,,
1478209553.22,2.039483,-1.205194,3.019284,-0.592267,1.926048,0.688005,0.318959,0.933909,0.161494,0.015575,-0.568232,-0.047495,-7.974731,36.038086,40.162354,,,,,,
1478209553.24,2.073643,-1.192914,3.023797,-0.228392,1.289610,0.405687,0.323282,0.929448,0.177806,0.015341,-0.439092,-0.076320,-7.974731,36.038086,40.162354,,,,,,
