timestamp(unix),attitude_roll(radians),attitude_pitch(radians),attitude_yaw(radians),rotation_rate_x(radians/s),rotation_rate_y(radians/s),rotation_rate_z(radians/s),gravity_x(G),gravity_y(G),gravity_z(G),user_acc_x(G),user_acc_y(G),user_acc_z(G),magnetic_field_x(microteslas),magnetic_field_y(microteslas),magnetic_field_z(microteslas),latitude(degree),longitude(degree),altitude(meter),speed(m/s),course(degree),timestamp(unix)
1478209601.47,0.089505,0.344583,0.605647,0.150049,0.134341,0.057192,0.084131,-0.337804,-0.937449,0.018881,-0.026408,0.049082,-24.435852,-2.304779,-42.442017,,,,,,
,,,,,,,,,,,,,,,,37.322730,-122.016464,59.341583,0.380000,63.281250,1478209585.00
,,,,,,,,,,,,,,,,37.322730,-122.016464,59.341583,0.380000,63.281250,1478209577.00
,,,,,,,,,,,,,,,,37.322730,-122.016464,59.341583,0.380000,63.281250,1478209585.00
1478209601.49,0.094461,0.350455,0.607763,0.317302,0.317541,0.160025,0.088588,-0.343326,-0.935029,0.042562,-0.020139,0.015977,-24.435852,-2.304779,-42.442017,,,,,,
1478209601.51,0.098633,0.355786,0.610584,0.172332,0.046856,0.192637,0.092306,-0.348327,-0.932817,0.046747,-0.020829,-0.049284,-24.436218,-2.454788,-42.441956,,,,,,
1478209601.53,0.093763,0.356409,0.614257,-0.071644,-0.306337,0.168415,0.087742,-0.348911,-0.933039,0.042416,-0.000973,-0.050893,-24.286469,-2.379517,-42.665833,,,,,,
1478209601.55,0.084519,0.353860,0.617656,-0.139310,-0.482579,0.157666,0.079188,-0.346521,-0.934694,0.022923,-0.005911,-0.024428,-24.436707,-2.529556,-42.591858,,,,,,
,,,,,,,,,,,,,,,,37.322597,-122.016076,59.341583,-1.000000,-1.000000,1478209601.53
,,,,,,,,,,,,,,,,37.322438,-122.015776,59.341583,-1.000000,-1.000000,1478209601.54
1478209601.57,0.075247,0.352308,0.621259,-0.054682,-0.318097,0.174913,0.070559,-0.345065,-0.935923,0.001432,0.002688,0.036341,-25.260010,-2.229813,-42.148193,,,,,,
1478209601.59,0.069783,0.354072,0.625850,0.053743,-0.034638,0.201690,0.065401,-0.346721,-0.935686,-0.024065,0.000438,0.058168,-25.260010,-2.229813,-42.148193,,,,,,
1478209601.61,0.069733,0.356293,0.629959,0.107570,0.108729,0.192188,0.065301,-0.348803,-0.934918,-0.036935,-0.006666,0.030316,-25.184448,-1.929733,-42.222778,,,,,,
1478209601.63,0.068837,0.357660,0.634054,0.058763,0.094069,0.152558,0.064430,-0.350084,-0.934500,-0.034294,0.013063,-0.008646,-25.710266,-2.079132,-42.451660,,,,,,
1478209601.65,0.068834,0.357688,0.636819,-0.046721,0.025369,0.116955,0.064426,-0.350110,-0.934490,-0.038074,0.012219,-0.010563,-25.109741,-1.929550,-42.372253,,,,,,
1478209601.67,0.066027,0.355479,0.639400,-0.081633,-0.013752,0.056149,0.061854,-0.348039,-0.935437,-0.040507,0.015047,-0.010120,-24.735626,-2.229630,-42.444275,,,,,,
1478209601.69,0.065968,0.354353,0.639831,-0.032135,0.028711,0.001003,0.061824,-0.346984,-0.935831,-0.034892,-0.006867,0.002588,-24.735626,-2.229630,-42.444275,,,,,,
1478209601.71,0.066221,0.355709,0.640331,0.080025,0.120832,0.004674,0.062030,-0.348255,-0.935345,-0.021808,-0.013530,0.002468,-24.734619,-2.004959,-42.219360,,,,,,
1478209601.73,0.069360,0.357752,0.640629,0.103495,0.175994,0.030267,0.064916,-0.350170,-0.934434,-0.006887,-0.011006,-0.001357,-25.185791,-2.229294,-42.522644,,,,,,
1478209601.75,0.071826,0.360099,0.641688,0.071101,0.117560,0.067435,0.067162,-0.352366,-0.933449,0.001457,-0.010869,-0.008156,-25.334381,-1.779449,-42.374023,,,,,,
1478209601.77,0.072290,0.360757,0.643438,0.003514,0.022057,0.089564,0.067578,-0.352982,-0.933186,-0.001492,-0.006866,-0.000117,-24.586304,-2.304367,-42.668091,,,,,,
1478209601.79,0.071271,0.361103,0.645210,0.018508,0.002912,0.066257,0.066618,-0.353306,-0.933133,-0.006270,0.008336,0.021466,-24.586304,-2.304367,-42.668091,,,,,,
1478209601.81,0.071007,0.362041,0.646385,0.087935,0.029291,0.051696,0.066348,-0.354184,-0.932819,-0.004718,0.027020,0.035343,-24.660614,-2.229660,-42.443726,,,,,,
1478209601.83,0.072202,0.364170,0.647125,0.104251,0.100493,0.037839,0.067408,-0.356174,-0.931985,-0.003001,0.011066,0.047815,-24.587067,-2.679474,-42.592896,,,,,,
1478209601.85,0.074263,0.365757,0.648021,-0.015360,0.084867,0.076591,0.069287,-0.357656,-0.931279,0.024829,-0.022730,0.019658,-24.885834,-2.304550,-42.445374,,,,,,
1478209601.87,0.074205,0.364028,0.650641,-0.126694,0.012852,0.122927,0.069278,-0.356041,-0.931899,0.014965,-0.015266,-0.019975,-24.361755,-2.379242,-42.816406,,,,,,
1478209601.89,0.073472,0.362643,0.652432,0.006000,0.016839,0.029974,0.068631,-0.354747,-0.932440,-0.013807,0.001308,-0.049616,-24.361755,-2.379242,-42.816406,,,,,,
1478209601.91,0.073343,0.365712,0.651504,0.221449,-0.063443,-0.056008,0.068431,-0.357614,-0.931359,0.001134,0.032648,-0.082450,-24.135956,-2.004257,-42.889832,,,,,,
1478209601.93,0.071326,0.367987,0.649381,0.213666,-0.215389,-0.089883,0.066494,-0.359738,-0.930681,0.009632,0.029400,-0.075956,-24.660217,-2.004547,-42.518799,,,,,,
1478209601.95,0.066944,0.370792,0.646656,0.112506,-0.285146,-0.136106,0.062348,-0.362354,-0.929953,0.003738,0.018238,-0.039545,-24.961182,-2.379395,-42.520874,,,,,,
1478209601.97,0.063114,0.371493,0.643435,0.069196,-0.200997,-0.148180,0.058770,-0.363007,-0.929931,-0.002571,-0.002914,0.007858,-25.487518,-2.979248,-42.449585,,,,,,
1478209601.99,0.061591,0.372842,0.640530,0.084328,-0.089465,-0.120590,0.057323,-0.364264,-0.929530,-0.003460,-0.013269,0.032847,-25.487518,-2.979248,-42.449585,,,,,,
1478209602.01,0.061511,0.375550,0.638358,0.066261,-0.021421,-0.088858,0.057188,-0.366785,-0.928546,-0.002562,-0.015646,0.039478,-25.186981,-3.130066,-41.997253,,,,,,
1478209602.03,0.061811,0.375941,0.636705,-0.000939,-0.008483,-0.067957,0.057458,-0.367148,-0.928386,0.003593,-0.023233,0.041439,-25.112396,-3.054657,-42.296692,,,,,,
1478209602.05,0.062836,0.376934,0.635442,-0.029752,0.021336,-0.042614,0.058387,-0.368072,-0.927962,0.007379,-0.027802,0.039565,-25.487244,-3.054581,-42.224487,,,,,,
1478209602.07,0.064643,0.377697,0.634500,0.022476,0.054102,-0.028540,0.060045,-0.368781,-0.927575,0.013518,-0.015832,0.016686,-25.412415,-3.129608,-42.223877,,,,,,
1478209602.09,0.065686,0.379082,0.634003,0.100032,0.030425,-0.007852,0.060979,-0.370068,-0.927001,0.017207,-0.013980,0.006423,-25.412415,-3.129608,-42.223877,,,,,,
1478209602.11,0.066144,0.381818,0.634250,0.112325,-0.011174,0.047632,0.061336,-0.372609,-0.925959,0.012379,-0.016491,-0.012487,-25.187927,-3.204529,-42.372192,,,,,,
1478209602.13,0.065234,0.384796,0.635140,0.188951,-0.052865,0.036407,0.060421,-0.375370,-0.924903,0.009327,0.016285,-0.066552,-25.112457,-3.204895,-42.146606,,,,,,
1478209602.15,0.062567,0.388200,0.634862,0.291170,-0.171103,-0.022462,0.057874,-0.378523,-0.923781,-0.002774,0.026137,-0.074358,-25.337738,-3.429993,-41.998230,,,,,,
1478209602.17,0.058595,0.393832,0.633489,0.270859,-0.246466,-0.053329,0.054078,-0.383730,-0.921861,-0.007325,0.016436,-0.037963,-25.414520,-4.029739,-42.148438,,,,,,
1478209602.19,0.053410,0.398088,0.632427,0.168540,-0.248274,-0.046436,0.049210,-0.387657,-0.920489,-0.014252,-0.005700,-0.004620,-25.414520,-4.029739,-42.148438,,,,,,
1478209602.21,0.049256,0.400127,0.631170,0.066422,-0.228783,-0.059801,0.045347,-0.389536,-0.919894,-0.015165,-0.022330,0.003848,-25.714386,-4.029694,-42.075745,,,,,,
1478209602.23,0.044915,0.401918,0.629519,0.035775,-0.231802,-0.100416,0.041322,-0.391185,-0.919384,-0.011537,-0.024846,0.012081,-25.638489,-4.030411,-41.625122,,,,,,
1478209602.25,0.041191,0.402653,0.627149,0.040018,-0.235007,-0.099323,0.037886,-0.391860,-0.919244,-0.007857,-0.020722,0.035272,-26.013916,-4.255325,-41.552795,,,,,,
1478209602.27,0.037697,0.404963,0.625549,0.003452,-0.222234,-0.036745,0.034640,-0.393985,-0.918464,0.011015,-0.025510,0.067664,-26.164490,-4.480255,-41.553833,,,,,,
1478209602.29,0.033821,0.404601,0.625576,-0.033998,-0.176490,0.015140,0.031084,-0.393652,-0.918734,0.015959,-0.027903,0.077410,-26.164490,-4.480255,-41.553833,,,,,,
1478209602.31,0.031356,0.405205,0.625911,-0.115006,-0.149685,0.038071,0.028812,-0.394208,-0.918570,0.022305,-0.031711,0.071646,-26.689545,-4.555099,-41.482727,,,,,,
1478209602.33,0.028477,0.401984,0.626619,-0.181874,-0.114350,0.018489,0.026204,-0.391245,-0.919913,0.024837,-0.024359,0.064048,-26.463959,-4.555664,-41.181030,,,,,,
1478209602.35,0.026820,0.399793,0.626670,-0.117879,-0.120906,0.002882,0.024702,-0.389227,-0.920810,0.016192,-0.002634,0.047641,-27.212860,-4.180389,-41.111816,,,,,,
1478209602.37,0.024813,0.398204,0.626396,-0.066462,-0.091255,-0.025622,0.022869,-0.387763,-0.921475,0.012058,0.001869,0.064954,-26.912384,-4.180878,-40.884583,,,,,,
1478209602.39,0.024646,0.397632,0.624699,-0.061548,-0.040104,-0.101253,0.022721,-0.387236,-0.921701,0.010787,0.019637,0.089044,-26.912384,-4.180878,-40.884583,,,,,,
1478209602.41,0.026226,0.396049,0.621577,-0.082117,0.040890,-0.173875,0.024193,-0.385777,-0.922275,0.004784,0.017292,0.127902,-27.137329,-4.030533,-41.036316,,,,,,
1478209602.43,0.030058,0.394234,0.616465,-0.086392,0.137852,-0.287948,0.027748,-0.384101,-0.922874,0.027076,0.068640,0.214653,-26.912567,-4.255875,-40.884583,,,,,,
1478209602.45,0.042322,0.393706,0.606613,0.044204,0.726911,-0.570219,0.039072,-0.383614,-0.922667,0.006490,0.156227,0.485121,-27.137848,-4.180420,-41.111267,,,,,,
1478209602.47,0.076693,0.395851,0.592193,0.233348,1.884286,-0.697617,0.070693,-0.385593,-0.919957,-0.030776,0.065845,0.762974,-26.088501,-4.330750,-41.253357,,,,,,
1478209602.49,0.132263,0.404375,0.574644,0.716516,2.772762,-0.804893,0.121242,-0.393444,-0.911319,-0.022044,0.073513,0.874209,-26.088501,-4.330750,-41.253357,,,,,,
1478209602.51,0.204406,0.423175,0.554066,1.281008,3.446992,-0.748528,0.185080,-0.410658,-0.892808,0.000375,0.153745,1.186997,-24.217438,-5.005005,-42.364014,,,,,,
1478209602.53,0.291248,0.447123,0.530471,1.469076,4.136445,-0.795382,0.258920,-0.432373,-0.863721,-0.041040,0.354508,1.385862,-21.371735,-5.980011,-43.317139,,,,,,
1478209602.55,0.398558,0.461380,0.502367,0.707370,5.222687,-1.038604,0.347511,-0.445184,-0.825256,-0.030754,0.520044,1.527206,-14.182922,-9.055984,-45.061646,,,,,,
1478209602.57,0.527238,0.445144,0.484264,-1.024474,6.566011,-1.196002,0.454116,-0.430588,-0.779983,-0.022078,0.733979,1.457412,-9.761292,-9.882217,-45.703186,,,,,,
1478209602.59,0.671185,0.398016,0.480022,-2.231357,7.416123,-1.761726,0.573301,-0.387590,-0.721873,0.008914,1.012667,1.100779,-9.761292,-9.882217,-45.703186,,,,,,
1478209602.61,0.819674,0.329980,0.479272,-2.523529,7.383752,-2.758589,0.691489,-0.324024,-0.645640,0.040582,1.239033,0.708186,-3.085876,-9.209641,-46.328430,,,,,,
1478209602.63,0.959753,0.249372,0.472664,-2.091426,6.618437,-3.632196,0.793715,-0.246796,-0.555976,0.078676,1.234284,0.381079,9.903992,-4.192841,-45.183472,,,,,,
1478209602.65,1.079682,0.167654,0.461498,-1.479581,5.520638,-3.792160,0.869444,-0.166870,-0.464997,0.270311,1.058792,0.226654,17.490967,-1.124878,-43.028076,,,,,,
1478209602.67,1.181890,0.090396,0.455972,-1.376182,4.920397,-3.626745,0.921546,-0.090273,-0.377629,0.481179,1.166918,0.285176,22.677795,1.719009,-40.665588,,,,,,
1478209602.69,1.277553,0.003312,0.450132,-1.032263,4.740489,-4.722081,0.957306,-0.003312,-0.289057,0.521164,1.513749,0.211695,22.677795,1.719009,-40.665588,,,,,,
1478209602.71,1.365963,-0.111577,0.439229,-0.833945,4.279237,-6.371326,0.973007,0.111346,-0.202140,0.708604,1.752057,0.093467,25.615204,4.563553,-38.020020,,,,,,
1478209602.73,1.443893,-0.255440,0.436237,-1.232170,3.771227,-7.540497,0.959772,0.252671,-0.122457,1.158759,1.799194,0.099141,31.046417,12.577469,-32.433289,,,,,,
1478209602.75,1.522009,-0.410500,0.456441,-1.862969,3.484342,-7.679783,0.915830,0.399068,-0.044716,1.715624,1.733333,0.055733,30.990112,17.898453,-29.736328,,,,,,
1478209602.77,1.612752,-0.560578,0.500996,-2.020301,3.592978,-7.501976,0.846203,0.531676,0.035523,2.136372,1.604951,-0.026231,29.511536,24.194946,-26.900635,,,,,,
1478209602.79,1.722744,-0.705081,0.562486,-1.631461,3.737226,-7.421286,0.752785,0.648095,0.115272,2.277550,1.112891,-0.243233,29.511536,24.194946,-26.900635,,,,,,
,,,,,,,,,,,,,,,,37.322896,-122.016104,58.768402,0.540000,96.679688,1478209602.22
1478209602.81,1.854194,-0.832793,0.648960,-1.801451,3.354504,-6.515749,0.645974,0.739813,0.188132,2.157660,0.336557,-0.575400,27.279510,29.367264,-24.369934,,,,,,
1478209602.83,2.002144,-0.917923,0.771265,-2.453140,2.219980,-4.638761,0.551829,0.794342,0.253981,1.820867,-0.290588,-0.874067,21.238068,38.136581,-18.569641,,,,,,
1478209602.85,2.125872,-0.951866,0.900506,-2.489045,0.126383,-2.621739,0.493058,0.814500,0.305751,1.373168,-0.414475,-1.120555,17.875732,41.134369,-15.971313,,,,,,
1478209602.87,2.168619,-0.963154,0.983953,-1.120226,-2.028786,-1.424020,0.471913,0.820996,0.321347,0.958324,-0.282834,-1.077695,14.958435,42.858276,-14.269043,,,,,,
1478209602.89,2.136059,-0.980389,1.011150,0.318692,-3.031284,-1.081398,0.470104,0.830714,0.298189,0.700886,-0.073725,-0.698885,14.958435,42.858276,-14.269043,,,,,,
1478209602.91,2.074573,-1.007174,1.007778,0.921974,-2.775820,-1.159374,0.467880,0.845325,0.257903,0.545884,-0.004703,-0.272140,13.310333,43.383667,-13.981689,,,,,,
1478209602.93,2.023557,-1.036728,0.998641,0.826904,-1.745213,-1.223206,0.457750,0.860743,0.222679,0.428297,-0.111201,0.001152,9.706238,43.388550,-16.033752,,,,,,
1478209602.95,2.000163,-1.063478,0.992943,0.648556,-0.439307,-1.103757,0.441736,0.874050,0.202251,0.348639,-0.285412,0.108556,7.906311,43.840256,-16.572449,,,,,,
1478209602.97,2.000209,-1.086928,0.987312,0.577935,0.629139,-0.967386,0.422971,0.885202,0.193683,0.292925,-0.395395,0.020581,7.003906,43.617065,-17.479126,,,,,,
1478209602.99,2.019262,-1.107061,0.985419,0.388665,1.216428,-0.866064,0.403061,0.894388,0.193939,0.334167,-0.381357,-0.099456,7.003906,43.617065,-17.479126,,,,,,
1478209603.01,2.054369,-1.124049,0.995169,0.072865,1.363126,-0.879732,0.382497,0.901857,0.200872,0.417597,-0.311571,-0.208868,5.652557,43.618774,-18.164246,,,,,,
1478209603.03,2.101578,-1.140382,1.017754,-0.046994,1.309495,-0.993146,0.359839,0.908793,0.211214,0.562036,-0.281702,-0.285509,5.127136,43.393921,-18.093079,,,,,,
1478209603.05,2.149931,-1.158673,1.043994,0.096137,1.202930,-1.113550,0.335240,0.916272,0.219224,0.743587,-0.266095,-0.304460,4.604279,43.843414,-17.572205,,,,,,
1478209603.07,2.195177,-1.179470,1.066712,0.300578,1.237289,-1.078415,0.309452,0.924404,0.222973,0.901028,-0.360012,-0.313519,3.778870,43.618713,-17.503296,,,,,,
1478209603.09,2.229474,-1.197626,1.076382,0.430063,1.286048,-0.632816,0.288302,0.931176,0.223143,1.004941,-0.521874,-0.332640,3.778870,43.618713,-17.503296,,,,,,
,,,,,,,,,,,,,,,,37.322848,-122.016132,59.511993,0.830000,306.914062,1478209603.00
1478209603.11,2.240140,-1.204054,1.062943,0.352262,1.044448,0.260239,0.281206,0.933500,0.222487,1.025480,-0.644819,-0.379301,3.028809,43.769424,-17.734009,,,,,,
1478209603.13,2.212922,-1.193724,1.018073,0.353611,0.531245,1.291463,0.294864,0.929746,0.220515,0.948926,-0.672056,-0.399623,4.527252,43.319000,-17.947510,,,,,,
1478209603.15,2.146797,-1.170840,0.943318,0.614662,-0.068291,1.970832,0.326551,0.921078,0.212084,0.827731,-0.521511,-0.347628,5.200623,43.094437,-18.467407,,,,,,
1478209603.17,2.059115,-1.142822,0.855495,0.927246,-0.534215,2.149966,0.366522,0.909808,0.194707,0.692774,-0.395267,-0.243444,6.549896,42.793747,-18.457153,,,,,,
1478209603.19,1.969019,-1.112679,0.771311,0.997770,-0.763034,2.158153,0.407654,0.896887,0.171500,0.577179,-0.330298,-0.119513,6.549896,42.793747,-18.457153,,,,,,
1478209603.21,1.888426,-1.078109,0.697173,0.982341,-0.682411,2.285685,0.449336,0.881065,0.147724,0.505727,-0.332847,0.000927,10.366150,41.070175,-20.677612,,,,,,
1478209603.23,1.820482,-1.037456,0.631911,0.970024,-0.487116,2.490769,0.492647,0.861114,0.125628,0.439604,-0.329894,0.060849,11.863220,40.545654,-21.491150,,,,,,
1478209603.25,1.767479,-0.991264,0.577536,0.830370,-0.250908,2.638672,0.537075,0.836719,0.107017,0.369313,-0.256000,0.091958,13.733856,39.270599,-22.076416,,,,,,
1478209603.27,1.732206,-0.941083,0.536624,0.630597,0.031342,2.714848,0.581258,0.808196,0.094644,0.322962,-0.180816,0.094839,15.681152,38.595383,-22.586548,,,,,,
1478209603.29,1.710564,-0.888627,0.505555,0.519948,0.194240,2.783185,0.624330,0.776207,0.087834,0.300856,-0.108085,0.057002,15.681152,38.595383,-22.586548,,,,,,
1478209603.31,1.694018,-0.833622,0.479064,0.481688,0.142046,2.909729,0.667102,0.740371,0.082620,0.310987,-0.017364,0.024924,19.572693,35.744415,-23.230957,,,,,,
1478209603.33,1.679356,-0.776226,0.457481,0.360373,-0.004395,2.977414,0.709362,0.700591,0.077312,0.339481,0.162476,0.037434,22.118622,34.318558,-23.511108,,,,,,
1478209603.35,1.667748,-0.718127,0.442461,0.182442,-0.088793,2.933985,0.749503,0.657976,0.072894,0.336541,0.334090,0.081265,23.764069,32.668030,-23.722961,,,,,,
1478209603.37,1.659417,-0.662754,0.432629,0.098563,-0.101947,2.711064,0.785207,0.615290,0.069769,0.324961,0.474691,0.113367,26.161346,31.391479,-23.479309,,,,,,
1478209603.39,1.654476,-0.613184,0.426319,0.003914,-0.030893,2.383634,0.814958,0.575474,0.068355,0.365507,0.638027,0.145680,26.161346,31.391479,-23.479309,,,,,,
1478209603.41,1.653634,-0.570310,0.423509,-0.106378,0.075356,2.022001,0.838848,0.539893,0.069648,0.391286,0.756311,0.145211,29.153229,28.315277,-23.680359,,,,,,
1478209603.43,1.656223,-0.534130,0.424456,-0.239543,0.110378,1.700802,0.857573,0.509092,0.073439,0.367494,0.749590,0.110003,30.200348,26.889297,-23.371765,,,,,,
1478209603.45,1.658973,-0.503350,0.427905,-0.314810,0.023936,1.422686,0.872569,0.482363,0.077140,0.322698,0.745436,0.092736,31.472565,25.613312,-23.136597,,,,,,
1478209603.47,1.661893,-0.477969,0.433520,-0.368586,-0.001983,1.148854,0.884249,0.459977,0.080776,0.154401,0.583816,0.051991,32.821442,25.087494,-23.051208,,,,,,
1478209603.49,1.662486,-0.457286,0.438407,-0.279409,-0.132694,0.954739,0.893485,0.441515,0.082154,-0.070182,0.368178,0.005722,32.821442,25.087494,-23.051208,,,,,,
1478209603.51,1.660164,-0.437945,0.440670,-0.115793,-0.183268,0.997231,0.902011,0.424080,0.080826,-0.200595,0.236443,0.001220,33.568451,23.586548,-22.669861,,,,,,
1478209603.53,1.654093,-0.416426,0.437302,0.172777,-0.263135,1.143710,0.911369,0.404495,0.076091,-0.247063,0.250565,0.030233,33.567810,23.136215,-22.444702,,,,,,
1478209603.55,1.645271,-0.392829,0.428318,0.394690,-0.258751,1.264147,0.921269,0.382803,0.068738,-0.293553,0.277566,0.092318,34.616211,22.385452,-22.286438,,,,,,
1478209603.57,1.637217,-0.366977,0.417016,0.440113,-0.155985,1.383464,0.931358,0.358795,0.061952,-0.371315,0.293442,0.133147,34.838043,21.410889,-22.659302,,,,,,
1478209603.59,1.630956,-0.338410,0.407242,0.296603,-0.161046,1.501907,0.941577,0.331988,0.056713,-0.458393,0.342527,0.127598,34.838043,21.410889,-22.659302,,,,,,
1478209603.61,1.624033,-0.308837,0.403363,-0.024548,-0.372563,1.462143,0.951338,0.303951,0.050694,-0.541456,0.425236,0.107631,35.657440,19.160477,-22.651978,,,,,,
1478209603.63,1.615017,-0.283481,0.406494,-0.312801,-0.564502,1.112760,0.959149,0.279699,0.042442,-0.604321,0.501688,0.123863,35.880280,18.485703,-22.875000,,,,,,
1478209603.65,1.605662,-0.267963,0.414625,-0.470207,-0.570448,0.556235,0.963726,0.264768,0.033615,-0.674755,0.501910,0.148636,36.103241,17.660583,-22.872925,,,,,,
1478209603.67,1.598050,-0.263732,0.423824,-0.430110,-0.454774,0.000611,0.965065,0.260685,0.026309,-0.678749,0.465557,0.156217,36.175873,17.061234,-23.322021,,,,,,
1478209603.69,1.593438,-0.268559,0.431959,-0.371491,-0.244820,-0.397509,0.963907,0.265343,0.021829,-0.695444,0.389427,0.167197,36.175873,17.061234,-23.322021,,,,,,
1478209603.71,1.593775,-0.281095,0.440032,-0.397013,-0.009097,-0.784421,0.960499,0.277407,0.022075,-0.680256,0.351301,0.155644,36.026337,17.361542,-23.473328,,,,,,
1478209603.73,1.599638,-0.300987,0.450178,-0.511105,0.232180,-1.144152,0.954647,0.296463,0.027541,-0.633602,0.292252,0.121553,36.024902,17.212311,-23.998291,,,,,,
1478209603.75,1.609756,-0.327213,0.463667,-0.652671,0.317182,-1.456957,0.946223,0.321405,0.036883,-0.556239,0.275610,0.050992,35.801758,17.962433,-24.000366,,,,,,
1478209603.77,1.621422,-0.358779,0.480574,-0.769347,0.292515,-1.722621,0.935127,0.351131,0.047382,-0.506416,0.254902,-0.009586,34.985962,20.886383,-23.032898,,,,,,
1478209603.79,1.633981,-0.395632,0.499578,-0.776141,0.274971,-2.008982,0.920912,0.385392,0.058265,-0.411909,0.277710,-0.040626,34.985962,20.886383,-23.032898,,,,,,
1478209603.81,1.647457,-0.437998,0.518264,-0.657031,0.320801,-2.291554,0.902943,0.424127,0.069356,-0.293629,0.289389,-0.048039,34.165344,22.386368,-22.739807,,,,,,
1478209603.83,1.662477,-0.486175,0.535102,-0.485355,0.433475,-2.595228,0.880414,0.467247,0.080944,-0.183896,0.295372,-0.052440,33.420166,24.036179,-22.371216,,,,,,
1478209603.85,1.679421,-0.538461,0.549384,-0.279788,0.532937,-2.703894,0.853439,0.512815,0.093071,-0.067108,0.161349,-0.064995,32.225464,25.610779,-21.705933,,,,,,
1478209603.87,1.695898,-0.591485,0.560776,-0.120085,0.479289,-2.718902,0.823626,0.557594,0.103578,0.021115,0.129570,-0.095536,30.212219,29.660568,-20.898071,,,,,,
1478209603.89,1.709189,-0.646602,0.572100,-0.091079,0.250915,-2.885521,0.790504,0.602478,0.110104,0.078758,0.123230,-0.114743,30.212219,29.660568,-20.898071,,,,,,
1478209603.91,1.719254,-0.705452,0.585793,-0.128214,-0.034625,-3.069448,0.752944,0.648378,0.112609,0.223847,0.136397,-0.100295,28.641754,31.386169,-20.760681,,,,,,
1478209603.93,1.725740,-0.766366,0.602913,-0.177765,-0.350059,-3.158659,0.711805,0.693522,0.111181,0.402499,0.202291,-0.034857,26.396637,33.111862,-20.478394,,,,,,
1478209603.95,1.733928,-0.829104,0.624222,-0.305994,-0.362199,-3.273246,0.666568,0.737327,0.109713,0.591108,0.272744,0.002240,24.374939,34.312668,-20.344238,,,,,,
1478209603.97,1.751649,-0.891379,0.656297,-0.605351,-0.301754,-3.238790,0.618092,0.777939,0.113019,0.747081,0.256149,0.010959,19.658386,37.539734,-20.156189,,,,,,
1478209603.99,1.780002,-0.951006,0.696160,-0.566768,-0.070277,-3.146319,0.568199,0.814000,0.120636,0.901054,0.216532,0.018799,19.658386,37.539734,-20.156189,,,,,,
1478209604.01,1.811141,-1.009518,0.732003,-0.139303,0.152518,-3.065536,0.516969,0.846575,0.126700,1.013594,0.057569,0.006845,17.562317,38.965485,-19.947632,,,,,,
1478209604.03,1.832348,-1.065837,0.752199,0.375357,0.197012,-2.717878,0.467318,0.875194,0.125093,1.126477,-0.147610,0.011641,14.416595,40.316422,-19.521912,,,,,,
1478209604.05,1.835308,-1.113934,0.752657,0.738789,0.116080,-2.106863,0.425792,0.897441,0.115329,1.226903,-0.280742,0.068707,12.468231,40.691864,-19.161682,,,,,,
1478209604.07,1.825109,-1.150206,0.737209,0.755220,0.272137,-1.409764,0.395167,0.912848,0.102720,1.137350,-0.496878,0.121660,8.492981,41.144897,-19.866699,,,,,,
1478209604.09,1.817654,-1.170371,0.718913,0.520922,0.590335,-0.561001,0.377993,0.920895,0.095253,0.945951,-0.730084,0.113609,8.492981,41.144897,-19.866699,,,,,,
1478209604.11,1.807918,-1.172547,0.692201,0.606466,0.819114,0.368429,0.376954,0.921741,0.091098,0.789153,-0.878010,0.078809,7.892242,41.145767,-20.246216,,,,,,
,,,,,,,,,,,,,,,,37.322844,-122.016132,60.172272,0.820000,126.210938,1478209604.00
1478209604.13,1.784363,-1.158283,0.646926,0.748883,0.960733,1.183338,0.391805,0.916116,0.084972,0.686854,-0.765924,0.080265,8.117126,41.220871,-20.394592,,,,,,
1478209604.15,1.762855,-1.131311,0.599141,0.637914,1.221713,1.698613,0.417651,0.904971,0.081214,0.621290,-0.536013,0.105218,10.362701,40.095963,-21.202209,,,,,,
1478209604.17,1.758799,-1.096038,0.562708,0.351828,1.580398,1.992426,0.449069,0.889403,0.085435,0.582013,-0.328917,0.072966,11.935944,39.570496,-21.415100,,,,,,
1478209604.19,1.769947,-1.055775,0.536196,0.178863,1.793267,2.173181,0.482818,0.870282,0.097445,0.540528,-0.236157,-0.017321,11.935944,39.570496,-21.415100,,,,,,
1478209604.21,1.785392,-1.012125,0.512480,0.143711,1.797329,2.345431,0.517902,0.847960,0.112878,0.469280,-0.235289,-0.108010,14.785004,39.118942,-21.318481,,,,,,
1478209604.23,1.797275,-0.965107,0.486417,0.214300,1.607524,2.535589,0.554790,0.822110,0.127841,0.389332,-0.244915,-0.172534,17.036194,38.741211,-20.251465,,,,,,
1478209604.25,1.802552,-0.915030,0.458408,0.242758,1.241383,2.720461,0.593465,0.792581,0.140055,0.316005,-0.258035,-0.213267,21.832092,36.412506,-19.389282,,,,,,
1478209604.27,1.800606,-0.860619,0.431782,0.143863,0.779906,2.944161,0.634827,0.758247,0.148513,0.241714,-0.249641,-0.213684,24.605072,35.285522,-18.992981,,,,,,
1478209604.29,1.796042,-0.801415,0.411563,-0.106965,0.332839,3.111654,0.678118,0.718341,0.155380,0.211195,-0.158115,-0.202255,24.605072,35.285522,-18.992981,,,,,,
1478209604.31,1.787697,-0.736993,0.399030,-0.373057,-0.110031,3.337605,0.723142,0.672064,0.159357,0.169588,-0.064856,-0.152140,26.402161,33.934265,-18.753845,,,,,,
1478209604.33,1.777556,-0.668323,0.393282,-0.603854,-0.411414,3.449633,0.768145,0.619671,0.161124,0.135877,0.121571,-0.115713,28.800293,32.581924,-17.985107,,,,,,
1478209604.35,1.769048,-0.598938,0.393789,-0.772954,-0.445835,3.384886,0.809757,0.563765,0.162673,0.089871,0.267961,-0.085372,32.166534,28.754639,-17.582947,,,,,,
1478209604.37,1.762957,-0.531640,0.397239,-0.800522,-0.366813,3.237714,0.846111,0.506948,0.164621,0.069431,0.394237,-0.081064,34.486877,26.803329,-17.489563,,,,,,
1478209604.39,1.758367,-0.467901,0.400851,-0.726620,-0.289106,3.047456,0.876862,0.451014,0.166430,0.028243,0.465521,-0.094302,34.486877,26.803329,-17.489563,,,,,,
1478209604.41,1.754432,-0.408734,0.402602,-0.556715,-0.212736,2.836438,0.902196,0.397448,0.167564,-0.032369,0.470030,-0.107810,35.532288,24.852585,-17.330750,,,,,,
1478209604.43,1.749595,-0.354032,0.401255,-0.378779,-0.231058,2.651157,0.923029,0.346682,0.166818,-0.080378,0.483411,-0.110711,37.403839,23.276260,-17.090942,,,,,,
1478209604.45,1.743515,-0.302899,0.398675,-0.308783,-0.279928,2.503650,0.940274,0.298288,0.164038,-0.124112,0.503943,-0.095495,39.119080,19.300278,-17.001099,,,,,,
1478209604.47,1.736625,-0.255051,0.396411,-0.293886,-0.331722,2.306879,0.954376,0.252294,0.159729,-0.149521,0.576990,-0.069901,40.013763,17.350159,-17.218445,,,,,,
1478209604.49,1.730536,-0.212181,0.394376,-0.218454,-0.239019,2.050608,0.965128,0.210593,0.155494,-0.182154,0.650110,-0.021247,40.013763,17.350159,-17.218445,,,,,,
1478209604.51,1.727783,-0.174554,0.392179,-0.172366,-0.029253,1.782288,0.972694,0.173669,0.153967,-0.137397,0.836432,-0.000510,40.009094,15.550278,-17.292480,,,,,,
1478209604.53,1.729001,-0.144255,0.388705,0.016268,0.144183,1.356197,0.977255,0.143755,0.155909,-0.155111,0.957517,0.001852,41.505829,14.049179,-17.055542,,,,,,
1478209604.55,1.732437,-0.126202,0.381710,0.315971,0.253914,0.679591,0.979115,0.125868,0.159658,-0.177983,1.014940,0.017817,42.100555,11.573196,-16.599854,,,,,,
1478209604.57,1.736564,-0.124209,0.371958,0.514960,0.272770,-0.126235,0.978694,0.123890,0.163738,-0.172068,0.979107,0.059315,42.473297,10.898453,-16.896729,,,,,,
1478209604.59,1.741402,-0.137583,0.366391,0.259833,0.268586,-0.898328,0.976170,0.137150,0.168175,-0.204121,0.876263,0.064217,42.473297,10.898453,-16.896729,,,,,,
1478209604.61,1.745363,-0.162899,0.370526,-0.117466,0.078424,-1.487715,0.971764,0.162180,0.171382,-0.271493,0.583258,-0.004084,42.473145,10.673126,-16.671631,,,,,,
1478209604.63,1.744250,-0.194631,0.382644,-0.420784,-0.319856,-1.758094,0.966397,0.193405,0.169326,-0.249493,0.404099,-0.085983,42.629028,12.772583,-16.371521,,,,,,
1478209604.65,1.736529,-0.227737,0.398823,-0.509441,-0.691669,-1.758015,0.960832,0.225773,0.160715,-0.197663,0.315655,-0.122293,41.507629,14.348389,-16.530701,,,,,,
1478209604.67,1.722697,-0.259473,0.412218,-0.287334,-0.933938,-1.636137,0.955396,0.256571,0.146252,-0.161970,0.281500,-0.101376,40.761139,15.924103,-16.762085,,,,,,
1478209604.69,1.705559,-0.290956,0.417383,0.155761,-0.886538,-1.597581,0.949284,0.286868,0.128708,-0.170445,0.289776,-0.023423,40.761139,15.924103,-16.762085,,,,,,
1478209604.71,1.690089,-0.323648,0.412208,0.622488,-0.564838,-1.607216,0.941344,0.318027,0.112831,-0.188643,0.280865,0.065407,40.237549,17.050369,-17.441589,,,,,,
1478209604.73,1.678947,-0.357686,0.398604,0.937238,-0.200059,-1.650750,0.931237,0.350108,0.101109,-0.211983,0.236394,0.107998,38.590149,19.453812,-19.180115,,,,,,
1478209604.75,1.672175,-0.393083,0.380654,1.049353,0.088841,-1.700605,0.918990,0.383038,0.093486,-0.279601,0.121113,0.103474,37.541992,20.504913,-19.563538,,,,,,
1478209604.77,1.668114,-0.429084,0.361064,1.092579,0.230133,-1.719744,0.905045,0.416038,0.088356,-0.311844,0.017312,0.095009,36.717896,21.180908,-19.945007,,,,,,
1478209604.79,1.665220,-0.465422,0.341753,0.993884,0.287913,-1.748051,0.889652,0.448800,0.084254,-0.327823,-0.043954,0.081334,36.717896,21.180908,-19.945007,,,,,,
1478209604.81,1.663545,-0.501203,0.327194,0.684468,0.217620,-1.711322,0.873236,0.480481,0.081225,-0.328863,-0.117764,0.058332,36.269043,22.006805,-20.398804,,,,,,
1478209604.83,1.663097,-0.535120,0.321759,0.197746,0.043684,-1.658378,0.856546,0.509944,0.079285,-0.310907,-0.116191,0.019912,35.522736,23.732651,-20.705261,,,,,,
1478209604.85,1.664520,-0.567271,0.327949,-0.279388,-0.188697,-1.638291,0.839669,0.537332,0.078928,-0.272653,-0.066385,-0.029154,34.776489,25.233032,-20.711609,,,,,,
1478209604.87,1.665965,-0.600439,0.342840,-0.547680,-0.415068,-1.791644,0.821354,0.565005,0.078404,-0.213856,0.013563,-0.051563,33.428192,25.983826,-20.797119,,,,,,
1478209604.89,1.667615,-0.637888,0.361480,-0.557887,-0.469836,-2.064129,0.799593,0.595500,0.077658,-0.114107,0.092870,-0.036368,33.428192,25.983826,-20.797119,,,,,,
1478209604.91,1.668941,-0.682063,0.378411,-0.406565,-0.429349,-2.390160,0.772538,0.630396,0.076065,-0.023637,0.119161,-0.024353,32.530731,27.184616,-21.029480,,,,,,
1478209604.93,1.670740,-0.731477,0.393428,-0.260059,-0.380508,-2.622555,0.740475,0.667969,0.074253,0.087513,0.087493,-0.005543,29.839630,30.335205,-20.526184,,,,,,
1478209604.95,1.670618,-0.786853,0.403855,-0.003517,-0.363797,-2.922424,0.702562,0.708135,0.070365,0.227827,0.037242,0.041406,27.745239,32.285721,-20.167908,,,,,,
1478209604.97,1.666012,-0.846742,0.408842,0.186571,-0.448187,-3.043668,0.659427,0.749126,0.062978,0.360806,-0.116985,0.086406,25.946960,33.712982,-21.082092,,,,,,
1478209604.99,1.656457,-0.906408,0.411004,0.176760,-0.635448,-2.942309,0.614317,0.787294,0.052752,0.526506,-0.217348,0.147032,25.946960,33.712982,-21.082092,,,,,,
1478209605.01,1.645351,-0.961839,0.416488,-0.012119,-0.867066,-2.680063,0.570423,0.820245,0.042607,0.724529,-0.230966,0.217250,23.249634,34.914597,-21.252930,,,,,,
1478209605.03,1.638249,-1.008653,0.427912,-0.262264,-0.799130,-2.163130,0.531789,0.846115,0.035925,0.949260,-0.175079,0.310694,18.304077,37.393372,-22.116211,,,,,,
1478209605.05,1.648412,-1.044929,0.454523,-0.743306,-0.466668,-1.712803,0.500452,0.864889,0.038921,1.097891,-0.067602,0.320423,16.808563,38.593002,-21.378052,,,,,,
1478209605.07,1.682994,-1.072512,0.496715,-0.943026,0.022396,-1.358037,0.474915,0.878404,0.053509,1.089676,-0.173463,0.197910,14.710083,39.344299,-21.544189,,,,,,
1478209605.09,1.722503,-1.089811,0.538682,-0.835739,0.138948,-0.731699,0.457339,0.886540,0.069918,1.090802,-0.281834,0.053235,14.710083,39.344299,-21.544189,,,,,,
1478209605.11,1.751162,-1.092090,0.573297,-0.747253,-0.281594,0.045447,0.453159,0.887592,0.082632,1.053112,-0.340976,-0.056006,12.614807,40.393814,-20.510376,,,,,,
,,,,,,,,,,,,,,,,37.322829,-122.016120,61.125580,0.830000,89.648438,1478209605.00
1478209605.13,1.764562,-1.080376,0.599800,-0.702121,-0.572027,0.673127,0.462183,0.882135,0.090693,0.939993,-0.304269,-0.045313,12.543335,41.142593,-19.686401,,,,,,
1478209605.15,1.774075,-1.060276,0.619346,-0.618785,-0.193364,1.016842,0.478570,0.872490,0.098645,0.729239,-0.312951,0.017428,12.769379,41.141708,-19.159668,,,,,,
1478209605.17,1.785167,-1.034801,0.625255,-0.239900,0.629789,1.365762,0.499008,0.859761,0.108642,0.532212,-0.401890,0.030762,13.070343,41.291092,-18.857483,,,,,,
1478209605.19,1.791507,-1.002592,0.606694,0.337797,1.364792,1.900068,0.525066,0.842868,0.117807,0.566121,-0.293110,-0.023050,13.070343,41.291092,-18.857483,,,,,,
1478209605.21,1.795926,-0.961828,0.570935,0.584768,1.893623,2.395612,0.557587,0.820238,0.127694,0.627868,-0.084963,-0.073953,16.442871,40.089035,-18.606567,,,,,,
1478209605.23,1.804260,-0.914294,0.532303,0.542842,1.987875,2.679460,0.593792,0.792132,0.141204,0.591526,0.048292,-0.161666,18.992126,39.487167,-18.212097,,,,,,
1478209605.25,1.815129,-0.864068,0.497795,0.434403,1.831861,2.727004,0.630063,0.760490,0.157083,0.458850,0.030632,-0.212533,21.841736,38.659470,-17.365356,,,,,,
1478209605.27,1.823913,-0.812922,0.464895,0.436193,1.555316,2.796624,0.665477,0.726299,0.172135,0.336644,-0.063838,-0.244218,24.613495,37.157715,-17.118774,,,,,,
1478209605.29,1.826576,-0.759178,0.433744,0.355372,1.021544,2.986474,0.701802,0.688325,0.183527,0.235439,-0.152803,-0.269556,24.613495,37.157715,-17.118774,,,,,,
1478209605.31,1.818649,-0.698351,0.405259,0.107478,0.375476,3.255417,0.742499,0.642955,0.187894,0.152506,-0.173565,-0.251172,29.256927,33.778976,-16.182312,,,,,,
1478209605.33,1.795086,-0.628021,0.385514,-0.461200,-0.686248,3.483853,0.788924,0.587544,0.179975,0.084062,-0.116505,-0.242597,31.728333,31.901932,-15.637817,,,,,,
1478209605.35,1.770242,-0.553349,0.382184,-0.846009,-1.207468,3.741208,0.833904,0.525539,0.168559,0.017552,-0.010235,-0.135249,34.049286,29.799850,-15.019409,,,,,,
1478209605.38,1.745461,-0.475702,0.387013,-0.973034,-1.391172,3.849368,0.875445,0.457963,0.154484,-0.035312,0.181136,-0.073566,35.616455,27.550720,-16.131531,,,,,,
1478209605.40,1.721626,-0.397179,0.392567,-0.809575,-1.228007,3.865985,0.911686,0.386819,0.138562,-0.089970,0.353721,-0.012494,35.616455,27.550720,-16.131531,,,,,,
1478209605.42,1.703646,-0.320887,0.394043,-0.475617,-0.720660,3.726534,0.940594,0.315408,0.125698,-0.145672,0.539725,0.034961,38.151489,22.526230,-17.309937,,,,,,
1478209605.44,1.695924,-0.251022,0.388999,-0.036454,-0.073990,3.366034,0.961086,0.248394,0.120890,-0.198330,0.694569,0.032491,39.342560,19.226181,-17.674316,,,,,,
1478209605.46,1.698553,-0.191572,0.375879,0.444736,0.450540,2.860113,0.973705,0.190402,0.125079,-0.268643,0.731168,-0.008166,40.611511,16.975876,-17.888733,,,,,,
1478209605.48,1.708138,-0.143090,0.355502,0.788646,0.749028,2.375072,0.980460,0.142602,0.135511,-0.303015,0.721214,-0.050702,41.431183,14.424652,-17.356262,,,,,,
1478209605.50,1.721317,-0.103964,0.332775,0.832948,0.812328,1.969646,0.983355,0.103777,0.149143,-0.343508,0.680815,-0.084705,41.431183,14.424652,-17.356262,,,,,,
1478209605.52,1.734135,-0.071678,0.313732,0.575654,0.646859,1.624650,0.984156,0.071617,0.162196,-0.369303,0.678399,-0.113169,43.221222,9.772507,-16.515564,,,,,,
1478209605.54,1.742383,-0.045570,0.302137,0.222110,0.330780,1.254872,0.984292,0.045554,0.170569,-0.400277,0.676141,-0.131216,43.592651,7.971634,-16.061890,,,,,,
1478209605.56,1.745773,-0.025154,0.298771,-0.145144,0.092318,0.906191,0.984419,0.025152,0.174030,-0.361387,0.788126,-0.121051,43.966309,6.770203,-15.233521,,,,,,
1478209605.58,1.744226,-0.012848,0.302441,-0.333233,-0.170797,0.342438,0.984918,0.012847,0.172547,-0.334100,0.946702,-0.113145,44.338440,5.569901,-15.155090,,,,,,
1478209605.60,1.739590,-0.016065,0.308124,-0.163756,-0.268585,-0.579403,0.985661,0.016064,0.167972,-0.330784,1.048831,-0.072925,44.338440,5.569901,-15.155090,,,,,,
1478209605.62,1.733067,-0.040230,0.311175,0.158823,-0.344349,-1.611144,0.986065,0.040219,0.161428,-0.301525,0.993884,-0.015112,44.488678,5.494492,-14.928955,,,,,,
1478209605.64,1.727263,-0.082208,0.314411,0.126398,-0.284452,-2.355498,0.984448,0.082115,0.155303,-0.179410,0.803688,0.062974,43.964081,6.245895,-15.683289,,,,,,
1478209605.66,1.722469,-0.133891,0.324293,-0.242654,-0.329213,-2.819450,0.979673,0.133491,0.149739,-0.164273,0.646935,0.019374,43.366882,7.671753,-16.063477,,,,,,
1478209605.68,1.717684,-0.192667,0.342109,-0.508177,-0.422349,-3.170988,0.970928,0.191477,0.143652,-0.144725,0.456762,-0.022574,42.703888,12.772644,-16.445984,,,,,,
1478209605.70,1.711530,-0.254952,0.362204,-0.505272,-0.611493,-3.230296,0.958108,0.252199,0.135735,-0.012292,0.411299,-0.029702,42.703888,12.772644,-16.445984,,,,,,
1478209605.72,1.702152,-0.316488,0.377824,-0.187764,-0.711584,-3.123014,0.942147,0.311231,0.124473,0.101722,0.375628,0.032341,41.584900,15.548904,-16.905701,,,,,,
1478209605.74,1.691946,-0.375629,0.384072,0.239751,-0.524126,-2.899534,0.923459,0.366857,0.112427,0.162082,0.338785,0.110610,40.015778,18.400604,-17.518921,,,,,,
1478209605.76,1.684489,-0.430994,0.381092,0.579346,-0.185425,-2.671445,0.902685,0.417774,0.103074,0.228678,0.346936,0.147964,38.520325,20.577042,-17.981201,,,,,,
1478209605.78,1.679818,-0.484561,0.371435,0.809035,0.048737,-2.643927,0.879626,0.465820,0.096280,0.205121,0.301392,0.129626,36.203857,24.479141,-18.600586,,,,,,
1478209605.80,1.674780,-0.539679,0.358718,0.843550,0.031752,-2.721420,0.853240,0.513860,0.089044,0.101838,0.120020,0.092169,36.203857,24.479141,-18.600586,,,,,,
1478209605.82,1.666529,-0.593973,0.347603,0.655535,-0.222990,-2.610292,0.824929,0.559658,0.079215,0.046989,-0.069454,0.060876,34.856415,26.055832,-19.286438,,,,,,
1478209605.84,1.655776,-0.642713,0.342839,0.256322,-0.500791,-2.299100,0.797584,0.599369,0.067942,-0.003624,-0.201343,0.056493,33.585480,27.931946,-19.596924,,,,,,
1478209605.86,1.646537,-0.684065,0.346722,-0.104127,-0.615039,-1.962396,0.772788,0.631949,0.058644,-0.056174,-0.279425,0.049312,31.710297,28.834702,-20.811401,,,,,,
1478209605.88,1.640574,-0.718946,0.355153,-0.220761,-0.547135,-1.671468,0.750669,0.658592,0.052465,-0.081312,-0.296257,0.040842,28.642120,31.536163,-20.760742,,,,,,
1478209605.90,1.636104,-0.749096,0.363077,-0.168494,-0.451999,-1.458425,0.730744,0.680977,0.047791,-0.101685,-0.291512,0.032241,28.642120,31.536163,-20.760742,,,,,,
1478209605.92,1.632515,-0.776680,0.369234,-0.124923,-0.360831,-1.390197,0.711887,0.700915,0.043992,-0.092792,-0.232531,0.024764,27.668549,32.587570,-21.368591,,,,,,
1478209605.94,1.631214,-0.805235,0.376051,-0.182534,-0.271151,-1.497100,0.691678,0.720993,0.041841,-0.084500,-0.179810,0.034453,26.621368,33.412537,-21.001892,,,,,,
1478209605.96,1.634094,-0.836603,0.385810,-0.272810,-0.185512,-1.663788,0.668647,0.742371,0.042381,-0.018439,-0.137223,0.033837,25.872192,33.863144,-21.157715,,,,,,
1478209605.98,1.640754,-0.871814,0.398767,-0.317066,-0.143507,-1.888704,0.641865,0.765498,0.044977,0.058666,-0.106058,0.020804,23.477722,35.964142,-21.026733,,,,,,
1478209606.00,1.648851,-0.911590,0.412640,-0.264525,-0.132658,-2.107719,0.610625,0.790479,0.047759,0.147386,-0.101895,0.018876,23.477722,35.964142,-21.026733,,,,,,
1478209606.02,1.657706,-0.954268,0.426256,-0.217845,-0.067775,-2.210816,0.576024,0.815891,0.050189,0.246928,-0.137561,0.050153,21.905487,37.089951,-21.039124,,,,,,
1478209606.04,1.671386,-0.996901,0.442121,-0.280567,0.069475,-2.154952,0.540163,0.839792,0.054519,0.363508,-0.201853,0.075074,19.882294,37.765869,-20.979614,,,,,,
1478209606.06,1.692631,-1.038634,0.465809,-0.473436,0.044596,-2.161296,0.503637,0.861712,0.061666,0.487528,-0.185976,0.046198,18.309509,38.666672,-20.991821,,,,,,
1478209606.08,1.722538,-1.079026,0.500884,-0.611681,-0.061398,-2.089508,0.466761,0.881498,0.071376,0.684942,-0.117323,0.016973,15.167084,40.691376,-19.741394,,,,,,
1478209606.10,1.758510,-1.116053,0.542522,-0.638286,-0.097717,-1.943762,0.431516,0.898374,0.081967,1.030078,0.046069,-0.005108,15.167084,40.691376,-19.741394,,,,,,
1478209606.12,1.795506,-1.148963,0.586874,-0.541907,-0.170712,-1.723835,0.399140,0.912340,0.091231,1.149505,-0.066957,-0.018951,12.995148,41.516693,-19.233154,,,,,,
,,,,,,,,,,,,,,,,37.322821,-122.016106,61.629425,1.360000,89.648438,1478209606.00
1478209606.14,1.826033,-1.175558,0.625690,-0.371452,-0.324047,-1.298994,0.372554,0.922905,0.097210,1.221516,-0.228767,-0.040554,11.272827,42.417236,-19.021484,,,,,,
1478209606.16,1.838673,-1.189265,0.649644,-0.198807,-0.557933,-0.417348,0.359063,0.928095,0.098553,1.187812,-0.448329,-0.027035,8.425659,43.092789,-18.443237,,,,,,
1478209606.18,1.828498,-1.183579,0.651716,-0.057605,-0.601759,0.658639,0.365143,0.925964,0.096238,1.098419,-0.453536,0.019454,8.800507,43.092712,-18.515442,,,,,,
1478209606.20,1.807020,-1.161605,0.635532,0.108910,-0.123047,1.385878,0.386818,0.917443,0.093114,0.892967,-0.417733,0.060298,8.800507,43.092712,-18.515442,,,,,,
1478209606.22,1.782802,-1.129418,0.602491,0.471042,0.553072,1.946766,0.417622,0.904164,0.089889,0.719646,-0.442387,0.048676,9.251587,43.091705,-17.986938,,,,,,
1478209606.24,1.752998,-1.086688,0.547234,0.992412,1.249758,2.608560,0.457716,0.885090,0.084332,0.664690,-0.349766,0.051792,9.924530,42.792358,-18.656799,,,,,,
1478209606.26,1.722809,-1.030514,0.477060,1.343999,1.661939,3.345433,0.508446,0.857564,0.077891,0.664298,-0.126652,0.034704,14.867096,40.691528,-19.743652,,,,,,
1478209606.28,1.705489,-0.962738,0.409022,1.356600,2.322471,3.743681,0.566101,0.820759,0.076714,0.580353,0.181332,0.083350,18.313873,39.339645,-19.642212,,,,,,
1478209606.30,1.709926,-0.895397,0.347160,1.388893,2.851225,3.474800,0.619168,0.780457,0.086705,0.485355,0.309616,-0.018559,18.313873,39.339645,-19.642212,,,,,,
1478209606.32,1.724078,-0.836142,0.294576,1.128282,2.524296,3.058711,0.662471,0.742062,0.102347,0.378834,0.219379,-0.157386,22.133179,37.087814,-19.687378,,,,,,
1478209606.34,1.736100,-0.779918,0.260315,0.443143,1.408249,2.968291,0.701280,0.703221,0.116992,0.296508,0.085796,-0.253345,25.953369,34.835281,-19.282593,,,,,,
1478209606.36,1.739336,-0.719848,0.248103,-0.348825,0.087940,3.152237,0.741252,0.659270,0.126127,0.214116,-0.011871,-0.252210,31.120239,30.781174,-18.266846,,,,,,
1478209606.38,1.729198,-0.650639,0.251329,-0.893871,-0.922044,3.546774,0.785735,0.605695,0.125514,0.104875,-0.057386,-0.168833,32.917267,29.279694,-17.877563,,,,,,
1478209606.40,1.710444,-0.573734,0.263306,-1.162698,-1.430926,3.832422,0.831704,0.542772,0.116906,0.029609,0.036788,-0.062936,32.917267,29.279694,-17.877563,,,,,,
1478209606.42,1.688931,-0.493033,0.280000,-1.267225,-1.496775,3.986301,0.874762,0.473300,0.103824,-0.052771,0.171064,0.018903,34.637207,27.178711,-17.788635,,,,,,
1478209606.44,1.669910,-0.410947,0.297160,-1.157849,-1.204852,4.035425,0.912244,0.399477,0.090713,-0.097486,0.359663,0.058457,35.979889,24.779022,-18.452393,,,,,,
1478209606.46,1.656068,-0.330219,0.309964,-0.840396,-0.760263,3.944945,0.942534,0.324251,0.080566,-0.136672,0.538848,0.059280,38.441010,19.979233,-19.406555,,,,,,
1478209606.48,1.648262,-0.253957,0.315935,-0.446434,-0.326296,3.709066,0.965023,0.251236,0.074906,-0.150906,0.695968,0.033004,39.182526,16.829300,-19.699402,,,,,,
1478209606.50,1.645409,-0.183940,0.314620,-0.065217,-0.036721,3.386048,0.980395,0.182904,0.073286,-0.156467,0.799563,0.007067,39.182526,16.829300,-19.699402,,,,,,
1478209606.52,1.645481,-0.122883,0.308589,0.123681,0.086871,2.889777,0.989693,0.122574,0.074053,-0.216942,0.856399,-0.017992,40.526154,14.203491,-19.612976,,,,,,
1478209606.54,1.645676,-0.072450,0.302388,0.087193,0.001789,2.373424,0.994582,0.072387,0.074614,-0.303359,0.784730,-0.036543,41.269470,11.653336,-19.756165,,,,,,
1478209606.56,1.644513,-0.030499,0.299644,-0.089612,-0.089427,1.975533,0.996820,0.030494,0.073616,-0.343256,0.747704,-0.025901,41.858459,7.077698,-19.524414,,,,,,
1478209606.58,1.640961,0.005268,0.301434,-0.286458,-0.233927,1.686192,0.997526,-0.005268,0.070106,-0.396879,0.698948,-0.022652,42.078979,5.277588,-19.521851,,,,,,
1478209606.60,1.634653,0.036173,0.306577,-0.404721,-0.335207,1.461087,0.997309,-0.036165,0.063771,-0.425562,0.701693,-0.004597,42.078979,5.277588,-19.521851,,,,,,
1478209606.62,1.627227,0.063537,0.314433,-0.530390,-0.374847,1.262461,0.996394,-0.063494,0.056287,-0.418375,0.866305,0.005450,41.475769,4.002899,-19.525757,,,,,,
1478209606.64,1.618304,0.082978,0.325838,-0.662292,-0.406384,0.701857,0.995435,-0.082883,0.047326,-0.446042,1.049893,0.040824,42.372955,3.102890,-19.818604,,,,,,
1478209606.66,1.610219,0.086891,0.338548,-0.608676,-0.342286,-0.170835,0.995453,-0.086781,0.039264,-0.473755,1.099736,0.063901,41.993317,1.904312,-20.645813,,,,,,
1478209606.68,1.602663,0.070862,0.349760,-0.530476,-0.298123,-1.238165,0.996984,-0.070802,0.031781,-0.420537,1.154817,0.118411,41.843781,2.279724,-20.872131,,,,,,
1478209606.70,1.598336,0.033372,0.363891,-0.742688,-0.093587,-2.282852,0.999064,-0.033366,0.027520,-0.389918,1.007517,0.131278,41.843781,2.279724,-20.872131,,,,,,
1478209606.72,1.599281,-0.020791,0.382796,-0.944302,0.123040,-2.970891,0.999378,0.020789,0.028475,-0.322865,0.777719,0.070616,41.621613,3.404846,-20.874390,,,,,,
1478209606.74,1.603269,-0.083550,0.403983,-0.958249,0.135344,-3.289272,0.995986,0.083453,0.032354,-0.204925,0.649030,-0.011617,41.259430,8.655243,-21.029663,,,,,,
1478209606.76,1.606944,-0.149372,0.423066,-0.729161,0.036903,-3.351733,0.988219,0.148817,0.035738,-0.050642,0.621218,-0.032091,40.817963,11.654694,-20.509521,,,,,,
1478209606.78,1.608858,-0.214467,0.434006,-0.210092,-0.005365,-3.246624,0.976382,0.212827,0.037181,0.079206,0.617999,0.009908,39.849487,14.580750,-20.893250,,,,,,
1478209606.80,1.610696,-0.278337,0.433433,0.362537,0.206420,-3.217187,0.960748,0.274757,0.038354,0.168997,0.626107,0.116828,39.849487,14.580750,-20.893250,,,,,,
1478209606.82,1.615545,-0.344529,0.421909,0.880307,0.553720,-3.368159,0.940292,0.337754,0.042105,0.220490,0.587188,0.176858,38.430786,16.981262,-20.755066,,,,,,
1478209606.84,1.621517,-0.414013,0.401098,1.256586,0.731298,-3.474940,0.914336,0.402287,0.046416,0.217393,0.376644,0.187227,37.243195,21.781525,-20.541443,,,,,,
1478209606.86,1.624769,-0.482379,0.377873,1.139850,0.601625,-3.278452,0.884604,0.463888,0.047790,0.161340,0.091303,0.162201,35.072754,23.732880,-20.708618,,,,,,
1478209606.88,1.626331,-0.542748,0.364480,0.477477,0.261703,-2.827033,0.854972,0.516491,0.047529,0.076683,-0.142880,0.119600,33.952332,25.683655,-20.868042,,,,,,
1478209606.90,1.628606,-0.593175,0.369181,-0.366268,-0.177545,-2.388169,0.827785,0.558996,0.047908,0.002003,-0.243216,0.057119,33.952332,25.683655,-20.868042,,,,,,
1478209606.92,1.633365,-0.635302,0.390797,-0.938398,-0.530290,-2.065039,0.803318,0.593420,0.050328,-0.036792,-0.265189,-0.000355,32.455597,27.184769,-21.104980,,,,,,
1478209606.94,1.637823,-0.672706,0.422112,-1.222833,-0.835854,-1.895817,0.780382,0.623105,0.052385,-0.045153,-0.233624,-0.048982,30.064972,30.485092,-20.524597,,,,,,
1478209606.96,1.642436,-0.706367,0.458877,-1.321267,-0.986774,-1.741775,0.758773,0.649075,0.054451,-0.065750,-0.198345,-0.070320,28.569183,32.361206,-20.761719,,,,,,
1478209606.98,1.645341,-0.738696,0.494723,-1.160782,-1.077678,-1.732239,0.737294,0.673324,0.055064,-0.037526,-0.093353,-0.061640,26.848389,33.561188,-20.175232,,,,,,
1478209607.00,1.645738,-0.773030,0.526513,-0.981610,-1.032231,-1.909094,0.713789,0.698307,0.053593,0.016436,-0.012196,-0.013584,26.848389,33.561188,-20.175232,,,,,,
1478209607.02,1.649495,-0.813264,0.556129,-0.840179,-0.748278,-2.220647,0.685004,0.726534,0.054020,0.088479,0.039518,0.039592,25.425995,34.611923,-20.186462,,,,,,
1478209607.04,1.660292,-0.859925,0.584805,-0.720921,-0.405782,-2.531347,0.649883,0.757794,0.058318,0.218785,0.027393,0.061281,21.684845,37.763046,-19.691101,,,,,,
1478209607.06,1.677975,-0.910164,0.613188,-0.625559,-0.104000,-2.620700,0.610095,0.789604,0.065641,0.353604,-0.054207,0.070010,19.587769,38.588440,-19.257263,,,,,,
1478209607.08,1.705065,-0.960188,0.645427,-0.693999,0.143917,-2.610808,0.568206,0.819299,0.076754,0.496400,-0.086069,0.044919,17.192413,40.088974,-18.825989,,,,,,
1478209607.10,1.746009,-1.009265,0.689053,-0.899061,0.247757,-2.639770,0.524330,0.846441,0.092821,0.632271,-0.094351,-0.023378,17.192413,40.088974,-18.825989,,,,,,
,,,,,,,,,,,,,,,,37.322815,-122.016091,61.685333,1.530000,89.296875,1478209607.00
1478209607.12,1.801126,-1.056595,0.746074,-0.984030,0.342631,-2.627607,0.478851,0.870686,0.112286,0.861985,-0.046101,-0.094067,13.376282,42.338470,-17.205688,,,,,,
1478209607.14,1.867196,-1.100729,0.814887,-0.998154,0.210598,-2.486970,0.433195,0.891538,0.132296,1.155382,-0.082456,-0.181979,10.905914,43.313034,-16.099670,,,,,,
1478209607.16,1.936023,-1.135101,0.889342,-0.986469,-0.000950,-1.918141,0.394204,0.906577,0.150737,1.340735,-0.269400,-0.247493,8.809479,44.213104,-15.440918,,,,,,
1478209607.18,1.991989,-1.152567,0.955978,-0.909600,-0.393051,-0.970782,0.370647,0.913810,0.166051,1.317479,-0.485068,-0.308095,6.637329,44.813217,-14.782532,,,,,,
1478209607.20,2.013411,-1.151668,0.996920,-0.680932,-1.053745,0.083206,0.367747,0.913444,0.174304,1.223577,-0.538291,-0.341678,6.637329,44.813217,-14.782532,,,,,,
1478209607.22,1.994286,-1.136474,1.003725,-0.289654,-1.331816,0.901186,0.383623,0.907155,0.172924,1.095457,-0.408651,-0.242763,4.991272,45.337021,-13.445068,,,,,,
1478209607.24,1.951420,-1.115242,0.981229,0.249343,-0.935593,1.301667,0.408473,0.898017,0.163445,0.955205,-0.282478,-0.110283,5.292450,45.486313,-13.067871,,,,,,
1478209607.26,1.898330,-1.092568,0.931298,0.917626,-0.081316,1.556325,0.435742,0.887811,0.148053,0.773120,-0.315882,-0.025052,6.416382,45.185959,-13.209290,,,,,,
1478209607.28,1.844447,-1.066283,0.857875,1.469441,0.907066,1.941070,0.465396,0.875410,0.130633,0.658384,-0.379240,0.013379,7.389069,44.961807,-14.101929,,,,,,
1478209607.30,1.796693,-1.030436,0.770186,1.785053,1.702389,2.512166,0.501375,0.857524,0.115226,0.665389,-0.305461,0.012475,7.389069,44.961807,-14.101929,,,,,,
1478209607.32,1.761193,-0.982448,0.681073,1.863065,2.123252,3.049526,0.544958,0.831859,0.105030,0.707834,-0.130031,-0.023045,11.803772,42.863373,-16.617737,,,,,,
1478209607.34,1.741281,-0.925613,0.601085,1.704683,2.351912,3.292078,0.592627,0.798990,0.102024,0.677133,0.060248,-0.066731,15.175629,41.887207,-16.966980,,,,,,
1478209607.36,1.734873,-0.864840,0.533242,1.550363,2.326662,3.424331,0.640049,0.760991,0.105970,0.540386,0.081477,-0.134259,18.544159,39.936722,-17.765747,,,,,,
1478209607.38,1.734441,-0.801444,0.472910,1.457417,2.107796,3.514636,0.686376,0.718361,0.113335,0.406336,0.044746,-0.184090,21.689423,38.210449,-17.966248,,,,,,
1478209607.40,1.733796,-0.735237,0.421811,1.126393,1.506901,3.643600,0.731841,0.670763,0.120358,0.292131,0.009626,-0.236630,21.689423,38.210449,-17.966248,,,,,,
1478209607.42,1.730620,-0.664004,0.386647,0.511867,0.663367,3.827795,0.777494,0.616275,0.125331,0.164980,-0.008182,-0.246257,28.127686,33.707611,-18.215698,,,,,,
1478209607.44,1.721754,-0.586750,0.368165,-0.083652,-0.194085,4.031277,0.823274,0.553658,0.125232,0.092620,0.063575,-0.210178,31.120880,30.855850,-18.041870,,,,,,
1478209607.46,1.706397,-0.504497,0.362016,-0.447961,-0.818312,4.188836,0.867382,0.483368,0.118343,0.030995,0.199006,-0.137463,33.515625,28.378952,-17.572632,,,,,,
1478209607.48,1.686574,-0.419439,0.361928,-0.554750,-1.046690,4.272692,0.907203,0.407249,0.105506,-0.017890,0.370721,-0.049796,35.384705,26.053101,-17.632507,,,,,,
1478209607.50,1.667655,-0.334270,0.363444,-0.498572,-0.910703,4.223827,0.940222,0.328080,0.091355,-0.062262,0.566207,0.006484,35.384705,26.053101,-17.632507,,,,,,
1478209607.52,1.654170,-0.252360,0.364438,-0.351088,-0.550395,4.009060,0.964962,0.249690,0.080639,-0.104153,0.733846,0.037052,38.217102,20.128769,-19.033325,,,,,,
1478209607.54,1.647682,-0.177112,0.362607,-0.120400,-0.165596,3.620135,0.981449,0.176187,0.075609,-0.134281,0.856696,0.026076,39.933380,17.053680,-19.543884,,,,,,
1478209607.56,1.647022,-0.112019,0.357174,0.088404,0.088776,3.080130,0.990847,0.111785,0.075675,-0.202959,0.874772,-0.012549,40.675995,13.902969,-19.311768,,,,,,
1478209607.58,1.648688,-0.057985,0.350390,0.132309,0.115093,2.547017,0.995292,0.057952,0.077682,-0.252846,0.849900,-0.042358,41.120117,11.427521,-19.157166,,,,,,
1478209607.60,1.649952,-0.014031,0.345311,0.026946,0.024728,2.138870,0.996771,0.014030,0.079065,-0.289419,0.789132,-0.062479,41.120117,11.427521,-19.157166,,,,,,
1478209607.62,1.646573,0.010902,0.344434,-0.204461,-0.237683,1.857997,0.997071,-0.010902,0.075700,-0.315598,0.750450,-0.066667,42.383392,6.852112,-19.295410,,,,,,
1478209607.64,1.638307,0.041513,0.349087,-0.426039,-0.489438,1.545256,0.996862,-0.041501,0.067401,-0.363897,0.755658,-0.037082,42.454498,5.126724,-19.069031,,,,,,
1478209607.66,1.627115,0.068196,0.356984,-0.500659,-0.535339,1.186180,0.996094,-0.068143,0.056158,-0.382401,0.805493,0.010645,42.450592,3.927399,-19.518433,,,,,,
1478209607.68,1.617372,0.088158,0.365820,-0.475634,-0.391286,0.842265,0.995036,-0.088044,0.046378,-0.379115,0.917390,0.044458,41.845825,2.428497,-20.047241,,,,,,
1478209607.70,1.611033,0.098313,0.373178,-0.327491,-0.225916,0.242450,0.994366,-0.098154,0.040031,-0.395794,1.018091,0.058891,41.845825,2.428497,-20.047241,,,,,,
1478209607.72,1.607189,0.092624,0.376862,-0.082083,-0.161367,-0.635576,0.995054,-0.092492,0.036228,-0.407301,1.027321,0.074429,41.994141,2.053970,-20.420898,,,,,,
1478209607.74,1.604575,0.069198,0.378349,-0.047758,-0.096178,-1.489215,0.997038,-0.069143,0.033692,-0.378019,0.992285,0.121261,42.068237,2.054626,-20.870361,,,,,,
1478209607.76,1.603935,0.031002,0.383209,-0.281657,0.026997,-2.177290,0.998971,-0.030997,0.033117,-0.359444,0.887686,0.130777,42.071045,3.179626,-20.870911,,,,,,
1478209607.78,1.605568,-0.018423,0.393629,-0.510565,0.101966,-2.668331,0.999226,0.018422,0.034758,-0.323826,0.749919,0.076753,41.480896,6.704132,-20.352051,,,,,,
1478209607.80,1.607803,-0.074927,0.406681,-0.552509,0.053737,-2.972935,0.996512,0.074857,0.036894,-0.217474,0.711230,0.021822,41.480896,6.704132,-20.352051,,,,,,
1478209607.82,1.608896,-0.137159,0.417475,-0.302723,-0.014601,-3.262067,0.989890,0.136729,0.037733,-0.096274,0.724736,0.013735,41.486206,9.254929,-20.878296,,,,,,
1478209607.84,1.609918,-0.204796,0.420043,0.209169,0.071288,-3.471220,0.978353,0.203367,0.038294,0.038691,0.703875,0.061468,40.593231,11.955154,-20.736328,,,,,,
1478209607.86,1.611372,-0.275081,0.411396,0.751431,0.259954,-3.538784,0.961611,0.271625,0.039039,0.147169,0.615033,0.131615,39.774780,14.580551,-20.743774,,,,,,
1478209607.88,1.614290,-0.346598,0.395042,0.999562,0.475032,-3.575005,0.939644,0.339700,0.040894,0.177604,0.465948,0.189193,37.462616,19.606522,-20.613708,,,,,,
1478209607.90,1.618279,-0.418415,0.377452,0.944327,0.535796,-3.566885,0.912704,0.406313,0.043370,0.124573,0.273573,0.158244,37.462616,19.606522,-20.613708,,,,,,
1478209607.92,1.621776,-0.489228,0.363764,0.684673,0.431267,-3.500025,0.881549,0.469945,0.044980,0.075803,0.116969,0.119662,36.493225,22.082474,-20.922180,,,,,,
1478209607.94,1.625828,-0.556915,0.357617,0.304763,0.307744,-3.293282,0.847605,0.528570,0.046692,0.041998,-0.047216,0.079758,34.847229,23.883652,-21.160400,,,,,,
1478209607.96,1.632135,-0.617570,0.359327,0.012501,0.257003,-2.922236,0.813754,0.579056,0.049977,0.023877,-0.162628,0.048808,33.503113,26.134125,-21.021667,,,,,,
1478209607.98,1.639429,-0.671867,0.365034,-0.071551,0.108010,-2.681894,0.780818,0.622448,0.053674,0.065419,-0.175564,-0.005181,30.438263,29.734802,-20.446411,,,,,,
1478209608.00,1.643204,-0.723478,0.373913,-0.237178,-0.198843,-2.602498,0.747544,0.661995,0.054223,0.084655,-0.186150,-0.020867,30.438263,29.734802,-20.446411,,,,,,
1478209608.02,1.646303,-0.772048,0.390014,-0.518691,-0.518301,-2.397046,0.714442,0.697604,0.054048,0.124181,-0.198367,-0.003450,28.491730,31.311127,-20.686829,,,,,,
1478209608.04,1.653442,-0.815079,0.415167,-0.809452,-0.528262,-2.243208,0.683470,0.727780,0.056615,0.152833,-0.151837,0.032481,27.144928,32.661926,-20.772583,,,,,,
1478209608.06,1.669119,-0.857760,0.448791,-1.002877,-0.428731,-2.261455,0.650974,0.756379,0.064213,0.246365,-0.036714,0.014767,25.049500,34.312668,-20.564148,,,,,,
1478209608.08,1.693374,-0.902228,0.489341,-1.038557,-0.304958,-2.449191,0.615212,0.784710,0.075791,0.329123,0.033772,-0.011521,21.534180,37.312790,-19.466980,,,,,,
1478209608.10,1.723100,-0.950751,0.532280,-0.888613,-0.187023,-2.681672,0.574345,0.813852,0.088157,0.410274,0.016439,-0.033958,21.534180,37.312790,-19.466980,,,,,,
,,,,,,,,,,,,,,,,37.322807,-122.016076,60.597382,1.530000,92.109375,1478209608.00
1478209608.12,1.758152,-1.003291,0.578283,-0.816905,-0.187921,-2.905885,0.528123,0.843245,0.100121,0.518828,-0.048277,-0.071847,19.214081,38.813080,-18.885193,,,,,,
1478209608.14,1.800204,-1.056466,0.633232,-0.859864,-0.247358,-2.883676,0.479063,0.870623,0.111870,0.622423,-0.183596,-0.078652,17.192352,40.013870,-18.750916,,,,,,
1478209608.16,1.853241,-1.105503,0.700410,-0.947690,-0.384518,-2.714695,0.430907,0.893690,0.125050,0.766985,-0.293608,-0.103383,14.947388,41.438904,-18.018433,,,,,,
1478209608.18,1.915491,-1.147024,0.779171,-0.980910,-0.439236,-2.373090,0.387015,0.911544,0.138949,0.892908,-0.367309,-0.103137,10.007263,43.913620,-16.181763,,,,,,
1478209608.20,1.986244,-1.179176,0.862530,-0.906983,-0.197803,-1.964283,0.349219,0.924292,0.154048,1.102350,-0.311484,-0.096218,10.007263,43.913620,-16.181763,,,,,,
1478209608.22,2.055390,-1.201861,0.938586,-0.690313,-0.026172,-1.422588,0.319102,0.932712,0.167996,1.287511,-0.303592,-0.142086,7.686432,44.813354,-15.224670,,,,,,
1478209608.24,2.102369,-1.213885,0.990333,-0.412973,-0.138934,-0.690646,0.301171,0.936980,0.177098,1.349509,-0.394774,-0.206899,6.112244,45.038910,-15.086548,,,,,,
1478209608.26,2.111626,-1.213977,1.008594,-0.188594,-0.564297,0.158576,0.299444,0.937013,0.179834,1.297800,-0.447480,-0.254159,4.089508,45.413940,-14.426880,,,,,,
1478209608.28,2.078155,-1.202194,0.989101,0.140864,-0.854918,0.974106,0.314924,0.932832,0.175065,1.167391,-0.452012,-0.214524,4.090698,45.713608,-14.201965,,,,,,
1478209608.30,2.015310,-1.182841,0.939266,0.524901,-0.768765,1.449787,0.341534,0.925684,0.162675,1.039753,-0.377787,-0.110215,4.090698,45.713608,-14.201965,,,,,,
1478209608.32,1.941419,-1.158230,0.869753,0.888619,-0.293239,1.815121,0.373737,0.916095,0.145227,0.823284,-0.454639,0.015601,4.765778,45.487823,-13.896790,,,,,,
1478209608.34,1.870415,-1.125093,0.789056,1.136984,0.393931,2.346625,0.411887,0.902308,0.127240,0.704111,-0.515314,0.071811,5.737305,44.813675,-14.789246,,,,,,
1478209608.36,1.812038,-1.078430,0.703559,1.316535,1.199037,3.045762,0.459024,0.881217,0.112935,0.752463,-0.328711,0.082759,10.229279,43.089172,-16.629700,,,,,,
1478209608.38,1.769847,-1.018253,0.618157,1.498394,1.821505,3.614257,0.514490,0.851193,0.103784,0.836691,-0.015911,0.045325,13.599457,41.738586,-17.353699,,,,,,
1478209608.40,1.743213,-0.949697,0.538518,1.555065,2.050491,3.879280,0.573301,0.813239,0.099838,0.832399,0.215051,-0.026794,13.599457,41.738586,-17.353699,,,,,,
1478209608.42,1.729029,-0.876859,0.469334,1.427329,2.011334,4.011700,0.631579,0.768734,0.100779,0.694379,0.254597,-0.078653,17.344757,40.312561,-17.924866,,,,,,
1478209608.44,1.723710,-0.801436,0.414218,1.113680,1.618948,4.033993,0.687558,0.718356,0.105965,0.543567,0.213056,-0.138359,21.013336,38.136459,-18.421326,,,,,,
1478209608.46,1.720379,-0.724719,0.376438,0.520707,0.821386,4.034078,0.740325,0.662925,0.111573,0.369965,0.128670,-0.179582,27.750671,33.258469,-18.668396,,,,,,
1478209608.48,1.714270,-0.643935,0.360033,-0.245285,-0.133232,4.186738,0.791522,0.600347,0.114348,0.239026,0.073359,-0.172759,30.970398,30.781143,-18.192932,,,,,,
1478209608.50,1.699613,-0.557184,0.358934,-0.693991,-0.998649,4.417651,0.841715,0.528798,0.109030,0.144765,0.118846,-0.119666,30.970398,30.781143,-18.192932,,,,,,
1478209608.52,1.678387,-0.465691,0.364946,-0.842137,-1.285556,4.608884,0.888345,0.449041,0.095948,0.069373,0.260951,-0.021867,33.290070,28.454620,-17.949402,,,,,,
1478209608.54,1.656679,-0.371631,0.372566,-0.765701,-1.188166,4.706026,0.928302,0.363136,0.079922,0.019086,0.465066,0.040409,35.231079,25.379639,-18.608337,,,,,,
1478209608.56,1.639202,-0.278567,0.378250,-0.521782,-0.809197,4.583307,0.959202,0.274978,0.065717,-0.043903,0.684571,0.071459,37.763397,19.380356,-19.936279,,,,,,
1478209608.58,1.630786,-0.191097,0.378179,-0.108466,-0.179516,4.257818,0.980030,0.189936,0.058863,-0.117527,0.844976,0.084219,39.254669,15.929703,-19.998413,,,,,,
1478209608.60,1.632772,-0.112804,0.369897,0.331081,0.349370,3.769759,0.991737,0.112565,0.061543,-0.170860,0.941222,0.043041,39.254669,15.929703,-19.998413,,,,,,
1478209608.62,1.644589,-0.045661,0.354390,0.678195,0.821272,3.209957,0.996239,0.045645,0.073649,-0.217415,0.980966,0.007467,40.222137,12.553543,-19.539429,,,,,,
1478209608.64,1.663540,0.009448,0.333195,0.891197,1.021445,2.649832,0.995658,-0.009448,0.092606,-0.254157,0.954989,-0.060868,41.338440,9.253311,-19.754456,,,,,,
