timestamp(unix),attitude_roll(radians),attitude_pitch(radians),attitude_yaw(radians),rotation_rate_x(radians/s),rotation_rate_y(radians/s),rotation_rate_z(radians/s),gravity_x(G),gravity_y(G),gravity_z(G),user_acc_x(G),user_acc_y(G),user_acc_z(G),magnetic_field_x(microteslas),magnetic_field_y(microteslas),magnetic_field_z(microteslas),latitude(degree),longitude(degree),altitude(meter),speed(m/s),course(degree),timestamp(unix)
1478209474.19,0.249915,0.538375,-2.147022,0.026975,-0.046611,0.018387,0.212336,-0.512742,-0.831871,0.010152,0.008775,0.011329,19.993225,-38.360153,-20.340759,,,,,,
,,,,,,,,,,,,,,,,37.322789,-122.017177,58.605743,0.000000,133.945312,1478209414.00
1478209474.21,0.249258,0.538920,-2.146813,0.022743,-0.030657,0.022597,0.211721,-0.513209,-0.831739,0.007899,-0.007024,-0.008745,19.393005,-38.509964,-20.270142,,,,,,
,,,,,,,,,,,,,,,,37.322789,-122.017177,58.605743,0.000000,133.945312,1478209406.00
,,,,,,,,,,,,,,,,37.322789,-122.017177,58.605743,0.000000,133.945312,1478209414.00
1478209474.23,0.248094,0.539561,-2.146176,0.023619,-0.048769,0.042855,0.210672,-0.513759,-0.831666,0.008948,-0.003575,-0.022017,19.394379,-38.135300,-20.045288,,,,,,
1478209474.25,0.246558,0.540163,-2.145251,0.033200,-0.044554,0.046095,0.209318,-0.514276,-0.831689,-0.007292,0.007302,-0.012656,19.394379,-38.135300,-20.045288,,,,,,
1478209474.27,0.245847,0.541031,-2.144646,0.037715,-0.006261,0.026901,0.208619,-0.515020,-0.831404,-0.010178,0.005269,-0.010255,19.245789,-38.061111,-19.446472,,,,,,
,,,,,,,,,,,,,,,,37.320957,-122.013469,58.605743,-1.000000,-1.000000,1478209474.26
,,,,,,,,,,,,,,,,37.319753,-122.011031,58.605743,-1.000000,-1.000000,1478209474.26
1478209474.29,0.245683,0.541315,-2.144274,0.015523,0.018289,0.011839,0.208446,-0.515263,-0.831297,-0.000835,0.001500,-0.013399,19.019836,-38.135437,-19.823120,,,,,,
1478209474.31,0.245639,0.541145,-2.144162,0.001544,-0.022061,0.009694,0.208431,-0.515118,-0.831390,0.010396,-0.004093,-0.019043,19.168823,-38.360168,-20.046875,,,,,,
1478209474.33,0.244751,0.540581,-2.144098,-0.015636,-0.069837,0.004349,0.207763,-0.514634,-0.831857,0.012955,-0.004378,-0.024024,19.393555,-38.585526,-19.895142,,,,,,
1478209474.35,0.242941,0.540277,-2.143809,-0.024179,-0.074064,0.005373,0.206294,-0.514374,-0.832383,-0.003948,-0.009094,-0.008498,19.393555,-38.585526,-19.895142,,,,,,
1478209474.37,0.241437,0.539916,-2.143339,-0.030436,-0.035771,0.005282,0.205087,-0.514064,-0.832873,-0.007012,-0.010228,-0.010190,19.167908,-38.735168,-20.046692,,,,,,
1478209474.39,0.240912,0.539456,-2.143048,-0.036685,-0.002786,0.000940,0.204706,-0.513669,-0.833210,0.001196,-0.013934,-0.010082,19.242889,-38.735214,-20.046143,,,,,,
1478209474.41,0.240833,0.539006,-2.142803,-0.043095,-0.002771,0.004098,0.204695,-0.513283,-0.833451,0.005922,-0.018837,-0.015212,19.541595,-38.959808,-20.418762,,,,,,
1478209474.43,0.240637,0.538399,-2.142556,-0.046359,-0.018710,0.006233,0.204606,-0.512762,-0.833793,0.008818,-0.010446,-0.004677,19.467377,-38.584671,-20.494507,,,,,,
1478209474.45,0.240286,0.537564,-2.142371,-0.054856,-0.025047,-0.001256,0.204415,-0.512045,-0.834281,0.006263,-0.008737,-0.002832,19.467377,-38.584671,-20.494507,,,,,,
1478209474.47,0.240033,0.536645,-2.142343,-0.050435,-0.005898,-0.016163,0.204316,-0.511256,-0.834789,0.000442,-0.004110,0.001995,18.944214,-38.210068,-20.048645,,,,,,
1478209474.49,0.240024,0.535766,-2.142565,-0.041803,0.000477,-0.029964,0.204415,-0.510500,-0.835227,-0.005013,-0.003462,0.000602,18.943512,-38.434952,-20.123535,,,,,,
1478209474.51,0.240036,0.535100,-2.143087,-0.032267,-0.021873,-0.034135,0.204506,-0.509927,-0.835555,-0.000115,-0.006080,0.000701,19.168762,-38.284943,-20.196960,,,,,,
1478209474.53,0.239688,0.534680,-2.143772,-0.023820,-0.047412,-0.036178,0.204266,-0.509565,-0.835834,0.001071,-0.004885,0.005420,19.618591,-38.285080,-20.268555,,,,,,
1478209474.55,0.238965,0.534491,-2.144502,-0.019584,-0.056992,-0.037205,0.203685,-0.509403,-0.836075,-0.003291,-0.002468,0.018189,19.618591,-38.285080,-20.268555,,,,,,
1478209474.57,0.238621,0.534513,-2.145381,-0.009866,-0.033621,-0.044638,0.203394,-0.509422,-0.836134,-0.004786,0.005012,0.031843,18.941986,-38.433823,-20.873535,,,,,,
1478209474.59,0.238479,0.534725,-2.146449,-0.009798,-0.037851,-0.057404,0.203250,-0.509604,-0.836058,-0.009478,-0.000634,0.033827,19.168396,-38.059265,-20.647034,,,,,,
1478209474.61,0.237766,0.534590,-2.148472,-0.010939,-0.156822,-0.111519,0.202670,-0.509488,-0.836270,0.001401,0.019727,0.051846,19.317444,-38.208923,-20.945862,,,,,,
1478209474.63,0.234960,0.533715,-2.152512,0.016648,-0.330061,-0.190943,0.200427,-0.508735,-0.837268,0.023145,0.063468,0.064838,19.242615,-38.133881,-20.946472,,,,,,
1478209474.65,0.228397,0.533600,-2.157358,0.059719,-0.540667,-0.211675,0.194940,-0.508636,-0.838622,0.043799,0.049270,0.073943,19.242615,-38.133881,-20.946472,,,,,,
1478209474.67,0.217827,0.534021,-2.163465,0.076152,-0.813849,-0.266524,0.186019,-0.508998,-0.840427,0.058503,0.030666,0.122226,19.167816,-38.058823,-20.947021,,,,,,
1478209474.69,0.201486,0.533646,-2.170803,0.023289,-1.137803,-0.341901,0.172300,-0.508676,-0.843541,0.070254,0.029565,0.212544,19.542938,-38.059128,-20.869202,,,,,,
1478209474.71,0.177632,0.531803,-2.179075,-0.045208,-1.598919,-0.378832,0.152296,-0.507089,-0.848332,0.075991,0.014016,0.289723,18.941528,-37.907486,-21.773804,,,,,,
1478209474.73,0.143654,0.530603,-2.187371,0.059405,-2.103232,-0.354071,0.123476,-0.506054,-0.853618,0.090651,0.002254,0.353572,18.715607,-37.906677,-22.225586,,,,,,
1478209474.75,0.101168,0.533445,-2.196829,0.269125,-2.575822,-0.424585,0.086963,-0.508503,-0.856658,0.081754,0.024799,0.344435,18.715607,-37.906677,-22.225586,,,,,,
1478209474.77,0.051964,0.540315,-2.209051,0.444592,-2.891919,-0.551944,0.044542,-0.514406,-0.856389,0.051268,0.007952,0.305608,17.889252,-37.830154,-22.981812,,,,,,
1478209474.79,0.001240,0.550378,-2.223718,0.575042,-2.921943,-0.645921,0.001057,-0.523010,-0.852326,-0.001134,-0.033600,0.359070,15.861816,-37.902420,-24.121948,,,,,,
1478209474.81,-0.046115,0.564825,-2.238544,0.813468,-2.673942,-0.644989,-0.038939,-0.535268,-0.843784,-0.029894,-0.024104,0.351337,14.886017,-37.675888,-24.804382,,,,,,
1478209474.83,-0.087460,0.586177,-2.252168,1.164276,-2.321009,-0.669146,-0.072767,-0.553181,-0.829877,-0.032031,0.009281,0.301404,13.685883,-37.900635,-24.588196,,,,,,
1478209474.85,-0.120652,0.614428,-2.266979,1.440312,-1.951658,-0.822544,-0.098346,-0.576491,-0.811163,-0.012097,-0.016023,0.226264,13.685883,-37.900635,-24.588196,,,,,,
1478209474.87,-0.145044,0.646774,-2.284545,1.548885,-1.643425,-0.976769,-0.115344,-0.602615,-0.789653,-0.009854,-0.072175,0.165904,13.233887,-38.575180,-24.741272,,,,,,
1478209474.89,-0.163593,0.680808,-2.304046,1.584991,-1.500952,-1.049173,-0.126556,-0.629421,-0.766689,0.010605,-0.116093,0.138454,12.485565,-39.102036,-23.246643,,,,,,
1478209474.91,-0.180849,0.716184,-2.324222,1.655367,-1.559577,-1.092341,-0.135675,-0.656511,-0.742015,0.050638,-0.117766,0.110224,12.785583,-39.703323,-22.494141,,,,,,
1478209474.93,-0.199911,0.754446,-2.346551,1.777905,-1.825488,-1.245616,-0.144697,-0.684885,-0.714140,0.064008,-0.090094,0.106321,12.710541,-40.379517,-21.669312,,,,,,
1478209474.95,-0.220794,0.795283,-2.372396,1.820701,-2.032682,-1.390901,-0.153321,-0.714062,-0.683087,0.084183,-0.120899,0.104474,12.710541,-40.379517,-21.669312,,,,,,
1478209474.97,-0.241892,0.836314,-2.402761,1.727112,-2.276615,-1.552848,-0.160540,-0.742178,-0.650691,0.062014,-0.165109,0.113917,13.010925,-41.056244,-20.616699,,,,,,
1478209474.99,-0.264423,0.876476,-2.438277,1.636163,-2.620550,-1.681628,-0.167230,-0.768489,-0.617624,0.056924,-0.200246,0.132699,13.613953,-41.584839,-18.437012,,,,,,
1478209475.01,-0.290780,0.916927,-2.476726,1.629939,-2.971274,-1.734354,-0.174388,-0.793736,-0.582727,0.062953,-0.210368,0.121668,14.064484,-41.885971,-17.833374,,,,,,
1478209475.03,-0.322101,0.958984,-2.516005,1.696171,-3.273372,-1.762271,-0.181817,-0.818608,-0.544814,0.069238,-0.189265,0.100539,14.515015,-41.961746,-17.454956,,,,,,
1478209475.05,-0.356442,1.003379,-2.554197,1.776843,-3.323634,-1.743655,-0.187541,-0.843292,-0.503674,0.037013,-0.185410,0.104000,14.515015,-41.961746,-17.454956,,,,,,
1478209475.07,-0.388071,1.049260,-2.592778,1.781981,-3.197014,-1.813012,-0.188525,-0.867055,-0.461166,-0.024548,-0.204723,0.124374,15.190826,-42.488663,-16.399658,,,,,,
1478209475.09,-0.409943,1.096732,-2.636363,1.806101,-2.925763,-1.941032,-0.181944,-0.889720,-0.418681,-0.084902,-0.241551,0.097148,15.416107,-42.789566,-15.872864,,,,,,
1478209475.11,-0.419475,1.146149,-2.686831,1.844959,-2.684353,-2.058284,-0.167799,-0.911184,-0.376280,-0.130174,-0.235666,0.029906,15.943726,-42.641525,-14.744019,,,,,,
1478209475.13,-0.413126,1.196528,-2.747407,1.820886,-2.377970,-2.125946,-0.146775,-0.930776,-0.334834,-0.161666,-0.235225,0.008525,16.768188,-42.866943,-14.737671,,,,,,
1478209475.15,-0.388489,1.245265,-2.819208,1.749246,-2.032332,-2.060867,-0.121142,-0.947481,-0.295981,-0.180295,-0.229704,-0.026468,16.768188,-42.866943,-14.737671,,,,,,
1478209475.17,-0.347459,1.291414,-2.897975,1.741125,-1.542568,-1.850886,-0.093900,-0.961226,-0.259283,-0.238086,-0.235368,-0.050822,18.947083,-42.645538,-13.071411,,,,,,
1478209475.19,-0.290065,1.334191,-2.982758,1.658405,-1.034516,-1.626440,-0.067043,-0.972139,-0.224612,-0.317585,-0.198820,-0.149091,20.525146,-42.197800,-12.084839,,,,,,
1478209475.21,-0.208577,1.370937,-3.079143,1.442887,-0.391044,-1.384833,-0.041110,-0.980094,-0.194229,-0.347532,-0.163689,-0.175613,21.426605,-42.349625,-11.177979,,,,,,
1478209475.23,-0.100974,1.400020,3.092040,1.192554,-0.017435,-1.178136,-0.017131,-0.985453,-0.169082,-0.287328,-0.110006,-0.264512,22.555359,-41.751892,-10.044800,,,,,,
1478209475.25,0.026449,1.422235,2.963753,1.015924,0.048744,-1.004629,0.003914,-0.988985,-0.147964,-0.280968,-0.081739,-0.273591,22.555359,-41.751892,-10.044800,,,,,,
1478209475.27,0.166635,1.438965,2.822399,0.883733,-0.009571,-0.851979,0.021803,-0.991323,-0.129629,-0.290770,-0.060328,-0.241694,24.884155,-41.755875,-8.152344,,,,,,
1478209475.29,0.306723,1.450936,2.679296,0.741386,-0.163602,-0.661981,0.036103,-0.992825,-0.113992,-0.285905,-0.051181,-0.260855,25.411163,-41.607391,-7.323486,,,,,,
1478209475.31,0.425911,1.459207,2.553198,0.599734,-0.388900,-0.452710,0.046008,-0.993780,-0.101410,-0.282336,-0.048410,-0.255920,26.014191,-41.008820,-6.569214,,,,,,
1478209475.33,0.508655,1.465656,2.459606,0.476135,-0.588782,-0.219959,0.051110,-0.994478,-0.091661,-0.285195,-0.054244,-0.234740,25.414032,-41.233856,-6.348633,,,,,,
1478209475.35,0.546423,1.471883,2.408475,0.360303,-0.681332,0.023315,0.051315,-0.995112,-0.084372,-0.289749,-0.019155,-0.215264,25.414032,-41.233856,-6.348633,,,,,,
1478209475.37,0.536801,1.478841,2.405543,0.281470,-0.574107,0.253715,0.046959,-0.995775,-0.078911,-0.303841,0.032915,-0.166527,26.015228,-41.009613,-6.044250,,,,,,
1478209475.39,0.482766,1.486986,2.451684,0.254656,-0.288369,0.442614,0.038862,-0.996490,-0.074145,-0.311292,0.064178,-0.135221,26.165375,-41.009796,-5.968079,,,,,,
1478209475.41,0.393624,1.496123,2.539921,0.276657,0.082426,0.539040,0.028613,-0.997213,-0.068898,-0.303363,0.072103,-0.126383,25.864441,-41.384644,-5.970154,,,,,,
1478209475.43,0.278890,1.505115,2.661207,0.286346,0.451270,0.558757,0.018068,-0.997844,-0.063099,-0.283861,0.058665,-0.129132,25.638672,-41.985107,-5.596558,,,,,,
1478209475.45,0.130734,1.512853,2.822645,0.272424,0.768099,0.577360,0.007549,-0.998322,-0.057416,-0.247555,0.040741,-0.138110,25.638672,-41.985107,-5.596558,,,,,,
1478209475.47,-0.062620,1.518621,3.035731,0.266956,1.099751,0.615147,-0.003264,-0.998639,-0.052049,-0.213884,0.028897,-0.138289,24.964783,-42.135880,-4.851562,,,,,,
1478209475.49,-0.309811,1.520892,-2.976317,0.224352,1.234776,0.689222,-0.015209,-0.998755,-0.047509,-0.164174,0.022162,-0.160362,23.914703,-42.586121,-4.334167,,,,,,
1478209475.51,-0.564023,1.519121,-2.694304,0.225266,1.468692,0.673968,-0.027613,-0.998665,-0.043652,-0.121298,0.055931,-0.136783,24.065094,-43.037338,-3.582825,,,,,,
1478209475.53,-0.767316,1.514579,-2.460136,0.188453,1.510367,0.621542,-0.039006,-0.998420,-0.040442,-0.089947,0.061195,-0.159158,23.090973,-43.338058,-2.765015,,,,,,
1478209475.55,-0.913183,1.507893,-2.283875,0.169728,1.545604,0.569225,-0.049752,-0.998022,-0.038423,-0.056724,0.049689,-0.127089,23.090973,-43.338058,-2.765015,,,,,,
1478209475.57,-1.007126,1.501912,-2.158538,0.167512,1.584124,0.433963,-0.058182,-0.997628,-0.036775,-0.084579,0.026895,-0.121855,22.718445,-43.490021,-1.342712,,,,,,
1478209475.59,-1.066034,1.496855,-2.071217,0.096249,1.213416,0.378782,-0.064661,-0.997268,-0.035725,-0.089651,-0.029710,-0.205180,21.892792,-44.090271,-0.898560,,,,,,
1478209475.61,-1.107312,1.491472,-2.008326,0.097064,1.033849,0.318384,-0.070882,-0.996855,-0.035426,-0.080852,-0.055558,-0.105550,21.895050,-44.091949,0.226440,,,,,,
1478209475.63,-1.133694,1.487665,-1.961589,0.078396,1.009625,0.223577,-0.075229,-0.996547,-0.035151,-0.143795,-0.137181,-0.113943,21.522034,-44.018112,1.123535,,,,,,
1478209475.65,-1.141419,1.484531,-1.933505,0.018048,1.043913,0.182743,-0.078338,-0.996281,-0.035868,-0.187882,-0.199840,-0.086202,21.522034,-44.018112,1.123535,,,,,,
1478209475.67,-1.131769,1.480569,-1.920555,-0.063784,1.186554,0.231043,-0.081560,-0.995932,-0.038300,-0.107451,-0.169626,-0.061050,21.222351,-44.243637,1.571472,,,,,,
1478209475.69,-1.112567,1.474169,-1.915525,-0.150709,1.215332,0.348681,-0.086525,-0.995335,-0.042678,-0.044106,-0.086971,-0.056184,21.072052,-44.619019,1.870483,,,,,,
1478209475.71,-1.091013,1.464638,-1.913520,-0.241205,1.165421,0.482387,-0.093996,-0.994370,-0.048909,0.011034,-0.023574,-0.036311,20.773346,-44.394409,2.243164,,,,,,
1478209475.73,-1.070001,1.452237,-1.912414,-0.314609,1.076171,0.586440,-0.103757,-0.992980,-0.056790,0.059125,0.019134,-0.030277,19.872437,-44.919312,2.461670,,,,,,
1478209475.75,-1.051003,1.437991,-1.912008,-0.365667,0.903998,0.648163,-0.114926,-0.991194,-0.065771,0.088528,0.052031,-0.027262,19.872437,-44.919312,2.461670,,,,,,
1478209475.77,-1.036747,1.422931,-1.911383,-0.379356,0.655256,0.653789,-0.126812,-0.989088,-0.074993,0.100598,0.089567,-0.025990,19.422882,-44.919418,2.683289,,,,,,
1478209475.79,-1.027384,1.408716,-1.911159,-0.358616,0.372513,0.586205,-0.138126,-0.986894,-0.083439,0.083316,0.105149,-0.035778,19.122253,-44.993927,2.456116,,,,,,
1478209475.81,-1.021032,1.396512,-1.913506,-0.311844,0.116369,0.459112,-0.147852,-0.984851,-0.090601,0.061975,0.117908,-0.018454,17.922363,-45.293991,2.897217,,,,,,
1478209475.83,-1.016488,1.387903,-1.918302,-0.238968,-0.073858,0.283096,-0.154642,-0.983322,-0.095731,0.021097,0.119262,-0.008746,17.246277,-45.367966,2.442200,,,,,,
1478209475.85,-1.012213,1.383061,-1.924848,-0.136784,-0.112146,0.104880,-0.158268,-0.982429,-0.098914,-0.024365,0.111153,0.011786,17.246277,-45.367966,2.442200,,,,,,
1478209475.87,-1.008043,1.383280,-1.930598,0.018336,-0.038879,-0.128569,-0.157671,-0.982470,-0.099458,-0.053800,0.094943,0.008302,16.343018,-45.891037,1.460693,,,,,,
1478209475.89,-1.012897,1.385065,-1.924870,0.140340,0.126867,-0.296330,-0.156664,-0.982802,-0.097763,-0.071852,0.032530,0.000747,16.718903,-45.666458,1.613403,,,,,,
1478209475.91,-1.006579,1.392795,-1.926345,0.223377,0.312749,-0.353640,-0.149619,-0.984200,-0.094685,-0.069406,-0.035332,-0.015071,17.168182,-45.816467,1.466858,,,,,,
1478209475.93,-1.001329,1.401791,-1.923607,0.286828,0.440164,-0.377969,-0.141658,-0.985753,-0.090692,-0.052632,-0.072719,-0.018332,17.846313,-45.293152,2.371643,,,,,,
1478209475.95,-0.999559,1.411635,-1.916316,0.336951,0.436831,-0.388333,-0.133327,-0.987361,-0.085691,-0.021062,-0.113149,-0.026278,17.846313,-45.293152,2.371643,,,,,,
,,,,,,,,,,,,,,,,37.322611,-122.016927,47.623810,0.160000,107.226562,1478209475.41
1478209475.97,-1.004018,1.422063,-1.904862,0.368425,0.274091,-0.401751,-0.125015,-0.988960,-0.079563,0.002853,-0.158395,-0.051098,17.847656,-45.068710,2.746582,,,,,,
1478209475.99,-1.015322,1.433332,-1.890800,0.395583,0.044439,-0.443832,-0.116429,-0.990567,-0.072263,0.000569,-0.215259,-0.069827,17.699402,-44.844528,3.345337,,,,,,
1478209476.01,-1.029136,1.445552,-1.879055,0.373824,-0.206272,-0.511697,-0.107036,-0.992167,-0.064402,-0.010487,-0.273794,-0.086614,18.899139,-44.769806,3.129272,,,,,,
1478209476.03,-1.035252,1.458529,-1.880371,0.294572,-0.478029,-0.596879,-0.096346,-0.993705,-0.057171,-0.019560,-0.308831,-0.115467,19.277679,-44.321808,4.331909,,,,,,
,,,,,,,,,,,,,,,,37.322612,-122.016926,47.685150,0.160000,107.226562,1478209476.00
1478209476.05,-1.022319,1.472157,-1.906313,0.206881,-0.752921,-0.697005,-0.084034,-0.995139,-0.051346,-0.028835,-0.321481,-0.135345,19.277679,-44.321808,4.331909,,,,,,
1478209476.07,-0.987633,1.486892,-1.959493,0.198025,-1.011075,-0.788208,-0.069955,-0.996482,-0.046149,-0.049994,-0.335671,-0.140985,19.877869,-43.946548,3.961243,,,,,,
1478209476.09,-0.931266,1.502219,-2.038742,0.171916,-1.198072,-0.806163,-0.054982,-0.997649,-0.040896,-0.080226,-0.360688,-0.192197,20.328247,-43.796783,3.964539,,,,,,
1478209476.11,-0.812624,1.514578,-2.180235,-0.024149,-1.053011,-0.718046,-0.040799,-0.998420,-0.038635,-0.127918,-0.331414,-0.205551,22.577362,-43.571808,3.231323,,,,,,
1478209476.13,-0.613209,1.519995,-2.395703,-0.265487,-0.607075,-0.546537,-0.029223,-0.998710,-0.041527,-0.178205,-0.170724,-0.154655,23.027924,-43.121597,2.934387,,,,,,
1478209476.15,-0.422490,1.515050,-2.591832,-0.524033,-0.045362,-0.284814,-0.022846,-0.998447,-0.050818,-0.137432,-0.066235,-0.106988,23.027924,-43.121597,2.934387,,,,,,
1478209476.17,-0.313863,1.503591,-2.696151,-0.721628,0.341733,0.013699,-0.020733,-0.997743,-0.063874,-0.014301,0.041642,-0.087432,23.403198,-42.821442,2.712097,,,,,,
1478209476.19,-0.281201,1.487438,-2.721569,-0.843237,0.344965,0.212088,-0.023106,-0.996528,-0.079992,0.089344,0.134971,-0.061350,23.251404,-42.820007,1.810974,,,,,,
1478209476.22,-0.281762,1.469104,-2.717032,-0.899056,0.088761,0.306912,-0.028227,-0.994834,-0.097514,0.156156,0.192878,-0.029272,23.099792,-42.743591,0.909790,,,,,,
1478209476.24,-0.296675,1.449967,-2.704243,-0.896221,-0.224969,0.359565,-0.035238,-0.992709,-0.115270,0.109273,0.230960,-0.008921,22.797394,-43.042206,0.082642,,,,,,
1478209476.26,-0.315150,1.431752,-2.692442,-0.816681,-0.379331,0.330431,-0.042959,-0.990349,-0.131771,0.035925,0.230324,0.028179,22.797394,-43.042206,0.082642,,,,,,
1478209476.28,-0.326274,1.415627,-2.688011,-0.734995,-0.290175,0.264746,-0.049535,-0.987985,-0.146394,-0.045649,0.201608,0.056383,22.419952,-43.115326,-1.045105,,,,,,
1478209476.30,-0.329856,1.400437,-2.687815,-0.723532,-0.093496,0.245348,-0.054914,-0.985524,-0.160396,-0.075991,0.212590,0.046413,22.493652,-43.039230,-1.794617,,,,,,
1478209476.32,-0.330636,1.385153,-2.686216,-0.721937,0.120129,0.280161,-0.059923,-0.982818,-0.174582,-0.065413,0.267821,0.045691,21.815094,-43.261627,-3.299622,,,,,,
1478209476.34,-0.333579,1.369571,-2.679151,-0.716608,0.234818,0.343885,-0.065443,-0.979822,-0.188853,-0.019732,0.320673,0.050318,21.214691,-42.810196,-4.054321,,,,,,
1478209476.36,-0.340505,1.354074,-2.667741,-0.678680,0.177223,0.379310,-0.071812,-0.976608,-0.202684,0.056446,0.359267,0.051271,21.214691,-42.810196,-4.054321,,,,,,
1478209476.38,-0.351604,1.340518,-2.655401,-0.532184,-0.039002,0.341058,-0.078610,-0.973603,-0.214284,0.101727,0.395005,0.072271,20.987946,-43.034195,-4.655884,,,,,,
1478209476.40,-0.366215,1.330711,-2.644088,-0.347199,-0.264872,0.275355,-0.085147,-0.971318,-0.222018,0.104160,0.362828,0.082324,20.912598,-43.109024,-4.731445,,,,,,
1478209476.42,-0.384134,1.324507,-2.632673,-0.176810,-0.371650,0.225358,-0.091368,-0.969824,-0.226039,0.055708,0.277014,0.094768,20.383850,-43.331390,-6.310303,,,,,,
1478209476.44,-0.402256,1.321790,-2.621529,-0.012220,-0.355038,0.149593,-0.096481,-0.969158,-0.226770,0.006393,0.201122,0.080286,20.308533,-43.406250,-6.385803,,,,,,
1478209476.46,-0.418495,1.322263,-2.610932,0.123752,-0.265009,0.091656,-0.099964,-0.969274,-0.224755,-0.020214,0.140188,0.048989,20.308533,-43.406250,-6.385803,,,,,,
1478209476.48,-0.433837,1.325368,-2.599492,0.246778,-0.190915,0.050704,-0.102134,-0.970033,-0.220463,-0.012215,0.106386,0.010349,20.308899,-43.256241,-6.385864,,,,,,
1478209476.50,-0.451246,1.330851,-2.585071,0.371630,-0.156211,0.036434,-0.103636,-0.971351,-0.213861,0.004499,0.112068,-0.022421,19.859528,-43.181351,-6.164246,,,,,,
1478209476.52,-0.473295,1.338633,-2.564711,0.513550,-0.084382,0.039234,-0.104877,-0.973171,-0.204791,0.006671,0.143444,-0.068311,19.859253,-43.481689,-5.939148,,,,,,
1478209476.54,-0.497752,1.347130,-2.540121,0.686705,0.000192,-0.006781,-0.105901,-0.975091,-0.194891,-0.019541,0.115624,-0.096902,19.785431,-43.482559,-5.339722,,,,,,
1478209476.56,-0.525042,1.361047,-2.511639,0.792987,0.030880,-0.120145,-0.104367,-0.978083,-0.180169,-0.067325,-0.061391,-0.126930,19.785431,-43.482559,-5.339722,,,,,,
1478209476.58,-0.547901,1.376522,-2.488175,0.786047,-0.018869,-0.230815,-0.100562,-0.981188,-0.164795,-0.084833,-0.367353,-0.135345,19.635864,-43.557938,-5.040771,,,,,,
1478209476.60,-0.573067,1.392253,-2.464390,0.794045,-0.147557,-0.218865,-0.096295,-0.984103,-0.149224,-0.045993,-0.451566,-0.168220,19.638702,-43.560074,-3.615784,,,,,,
1478209476.62,-0.616251,1.407121,-2.427035,0.800850,-0.447575,-0.111921,-0.094179,-0.986635,-0.132972,0.003191,-0.487471,-0.210183,19.639862,-43.636078,-2.940735,,,,,,
1478209476.64,-0.686192,1.419980,-2.371385,0.757929,-0.955806,-0.005998,-0.095195,-0.988649,-0.116240,0.044429,-0.522643,-0.243547,20.165222,-43.786911,-2.561707,,,,,,
1478209476.66,-0.777550,1.429545,-2.304686,0.642918,-1.430779,0.062221,-0.098764,-0.990041,-0.100326,0.045724,-0.538249,-0.249024,20.165222,-43.786911,-2.561707,,,,,,
1478209476.68,-0.872539,1.436382,-2.239006,0.507617,-1.462205,0.045558,-0.102647,-0.990980,-0.086153,-0.074889,-0.521044,-0.221129,19.865387,-44.087433,-2.113770,,,,,,
1478209476.70,-0.933462,1.439331,-2.198459,0.147749,-0.738157,0.076542,-0.105352,-0.991371,-0.078004,-0.230570,-0.289147,-0.175490,19.790283,-43.937057,-2.339478,,,,,,
1478209476.72,-0.936327,1.435577,-2.194696,-0.207706,0.547006,0.226985,-0.108572,-0.990872,-0.079907,-0.286310,-0.146671,-0.006030,19.639374,-44.011429,-2.715515,,,,,,
1478209476.74,-0.899451,1.427134,-2.207398,-0.376090,1.569106,0.297955,-0.112099,-0.989698,-0.089056,-0.195305,-0.228823,0.033804,19.639496,-44.086639,-2.565491,,,,,,
1478209476.76,-0.844005,1.417542,-2.225468,-0.429760,2.011598,0.269309,-0.114081,-0.988279,-0.101436,-0.042276,-0.230745,0.028148,19.639496,-44.086639,-2.565491,,,,,,
1478209476.78,-0.786531,1.406826,-2.244321,-0.527625,1.840657,0.321192,-0.115556,-0.986587,-0.115295,0.118501,-0.124146,-0.040269,19.415161,-43.861649,-2.492249,,,,,,
1478209476.80,-0.740074,1.391509,-2.261258,-0.748096,1.244647,0.491208,-0.120254,-0.983971,-0.131681,0.244674,-0.030845,-0.072390,19.191833,-43.862762,-1.668945,,,,,,
1478209476.82,-0.709294,1.370590,-2.277664,-0.968076,0.422248,0.626443,-0.129525,-0.980026,-0.150908,0.299981,0.060210,-0.039338,19.116211,-43.937393,-1.894470,,,,,,
1478209476.84,-0.697708,1.345731,-2.290210,-1.068256,-0.274014,0.754692,-0.143379,-0.974779,-0.171019,0.263969,0.123003,0.024443,18.214905,-44.161377,-2.276123,,,,,,
1478209476.86,-0.701440,1.319132,-2.296762,-1.076220,-0.604743,0.821151,-0.160695,-0.968499,-0.190227,0.197773,0.206094,0.091808,18.214905,-44.161377,-2.276123,,,,,,
1478209476.88,-0.709482,1.292050,-2.301353,-1.078516,-0.610093,0.844565,-0.179245,-0.961401,-0.208757,0.176864,0.285620,0.137361,17.010162,-44.232376,-4.535156,,,,,,
1478209476.90,-0.715344,1.264591,-2.305830,-1.091874,-0.437852,0.862326,-0.197710,-0.953484,-0.227550,0.154420,0.337044,0.167003,15.957214,-44.455017,-5.742920,,,,,,
1478209476.92,-0.717765,1.237121,-2.310068,-1.075198,-0.265650,0.847253,-0.215409,-0.944845,-0.246712,0.162858,0.367834,0.193245,15.205505,-44.528534,-6.498535,,,,,,
1478209476.94,-0.717529,1.211199,-2.314567,-1.005175,-0.181751,0.769802,-0.231381,-0.936039,-0.265131,0.189099,0.375904,0.218531,14.302673,-44.826477,-7.555176,,,,,,
1478209476.96,-0.717490,1.187487,-2.319069,-0.918644,-0.239316,0.699044,-0.245898,-0.927432,-0.281787,0.202227,0.349078,0.232150,14.302673,-44.826477,-7.555176,,,,,,
1478209476.98,-0.720664,1.166221,-2.322188,-0.796095,-0.346973,0.632818,-0.259749,-0.919270,-0.295760,0.181502,0.304615,0.249190,13.626770,-44.449799,-8.460388,,,,,,
1478209477.00,-0.727242,1.148238,-2.324121,-0.643499,-0.469535,0.523135,-0.272636,-0.912043,-0.306345,0.150597,0.245203,0.242350,12.497253,-44.520966,-10.643921,,,,,,
1478209477.02,-0.736888,1.134941,-2.325766,-0.440587,-0.624053,0.356294,-0.283704,-0.906509,-0.312656,0.086087,0.128280,0.230411,11.971710,-44.370010,-11.097839,,,,,,
1478209477.04,-0.750272,1.128640,-2.327436,-0.138058,-0.835029,0.070863,-0.291751,-0.903831,-0.313003,0.066165,0.064918,0.228393,10.921265,-44.068573,-11.705933,,,,,,
1478209477.06,-0.766639,1.131744,-2.331076,0.170267,-1.080941,-0.309223,-0.294887,-0.905155,-0.306164,0.051906,0.027302,0.202099,10.921265,-44.068573,-11.705933,,,,,,
1478209477.08,-0.784800,1.143562,-2.337590,0.415477,-1.286363,-0.624784,-0.292818,-0.910115,-0.293169,0.013765,-0.022227,0.171739,11.294830,-44.217987,-12.228027,,,,,,
,,,,,,,,,,,,,,,,37.322711,-122.016964,61.224884,0.160000,118.476562,1478209477.00
1478209477.10,-0.805315,1.162117,-2.345455,0.600727,-1.443883,-0.865167,-0.286543,-0.917646,-0.275351,-0.007783,-0.130098,0.154761,10.694763,-44.292786,-12.157532,,,,,,
1478209477.12,-0.826051,1.186413,-2.354403,0.773716,-1.452530,-1.105844,-0.275713,-0.927030,-0.254161,-0.017118,-0.220583,0.135188,11.370148,-44.143127,-12.152527,,,,,,
1478209477.14,-0.843144,1.216540,-2.365745,0.908761,-1.347288,-1.347968,-0.259038,-0.937905,-0.230725,-0.017772,-0.285698,0.082883,11.595947,-44.143814,-11.775818,,,,,,
1478209477.16,-0.854362,1.251113,-2.380033,1.003177,-1.170796,-1.526554,-0.237004,-0.949335,-0.206378,-0.034816,-0.318426,0.027438,11.595947,-44.143814,-11.775818,,,,,,
1478209477.18,-0.857796,1.289255,-2.397780,1.093338,-0.941183,-1.676502,-0.210156,-0.960628,-0.181735,-0.051105,-0.379887,-0.017606,13.699493,-43.922134,-10.260132,,,,,,
1478209477.20,-0.853812,1.330480,-2.418850,1.181997,-0.758422,-1.782743,-0.179410,-0.971263,-0.156400,-0.062030,-0.445409,-0.081683,15.425568,-43.923798,-9.722168,,,,,,
1478209477.22,-0.840540,1.372505,-2.447041,1.140595,-0.694521,-1.770294,-0.146762,-0.980405,-0.131407,-0.059217,-0.458118,-0.146791,16.701538,-43.850021,-9.337646,,,,,,
1478209477.24,-0.815383,1.410996,-2.486583,0.971064,-0.722992,-1.592346,-0.115838,-0.987259,-0.109091,-0.063926,-0.457824,-0.230371,17.754669,-43.251785,-8.505066,,,,,,
1478209477.26,-0.763560,1.440574,-2.553060,0.498268,-0.655096,-1.245892,-0.089794,-0.991533,-0.093804,-0.047047,-0.439955,-0.312369,17.754669,-43.251785,-8.505066,,,,,,
1478209477.28,-0.676377,1.453010,-2.650698,-0.178053,-0.383997,-0.607063,-0.073561,-0.993071,-0.091643,-0.057787,-0.289201,-0.314851,20.308807,-42.579880,-7.286255,,,,,,
1478209477.30,-0.616501,1.447494,-2.716442,-0.580466,-0.247876,0.106926,-0.071111,-0.992408,-0.100348,-0.009700,-0.182382,-0.235711,21.359497,-42.130081,-7.503601,,,,,,
1478209477.32,-0.612099,1.432373,-2.727530,-0.698436,-0.395951,0.490788,-0.079282,-0.990435,-0.112930,0.105756,-0.254270,-0.177750,21.358551,-42.204514,-7.878601,,,,,,
1478209477.34,-0.627238,1.413198,-2.721930,-0.800115,-0.543688,0.654387,-0.092114,-0.987607,-0.127072,0.167294,-0.207492,-0.117328,20.531647,-42.127533,-8.934814,,,,,,
1478209477.36,-0.648308,1.390775,-2.713513,-0.906785,-0.687066,0.766856,-0.108117,-0.983840,-0.142722,0.129556,-0.044068,-0.072961,20.531647,-42.127533,-8.934814,,,,,,
1478209477.38,-0.665026,1.365417,-2.710325,-1.043344,-0.658004,0.815029,-0.125846,-0.978984,-0.160479,0.096686,0.106974,-0.056959,19.253754,-42.124741,-10.369324,,,,,,
1478209477.40,-0.671062,1.337982,-2.715470,-1.162005,-0.480065,0.809848,-0.143464,-0.973021,-0.180688,0.054200,0.227065,-0.023261,18.276093,-42.422775,-11.351624,,,,,,
1478209477.42,-0.669809,1.308676,-2.724003,-1.254293,-0.285293,0.855882,-0.160876,-0.965843,-0.203141,0.040012,0.304496,0.001390,17.749054,-42.195602,-12.630615,,,,,,
1478209477.44,-0.667856,1.277178,-2.730550,-1.321672,-0.190623,0.951173,-0.179237,-0.957203,-0.227236,0.068489,0.363346,0.013934,16.921692,-42.193375,-13.836792,,,,,,
1478209477.46,-0.669937,1.243881,-2.732766,-1.337362,-0.244959,1.044845,-0.199397,-0.947037,-0.251716,0.142329,0.417939,0.035392,16.921692,-42.193375,-13.836792,,,,,,
1478209477.48,-0.677577,1.210378,-2.731811,-1.282649,-0.408891,1.062428,-0.221088,-0.935750,-0.274759,0.187534,0.435734,0.081263,15.043091,-41.814026,-16.101135,,,,,,
1478209477.50,-0.688805,1.179115,-2.731071,-1.159114,-0.608976,0.956961,-0.242641,-0.924269,-0.294708,0.203838,0.440184,0.125747,14.066620,-41.511871,-17.233582,,,,,,
1478209477.52,-0.702750,1.152184,-2.731626,-0.978720,-0.792138,0.797492,-0.262724,-0.913654,-0.310181,0.184843,0.401966,0.159119,12.789917,-41.209412,-18.443359,,,,,,
1478209477.54,-0.719136,1.130363,-2.732850,-0.771543,-0.926489,0.641289,-0.280839,-0.904567,-0.320761,0.155152,0.315486,0.183707,11.363586,-40.831985,-19.579224,,,,,,
1478209477.56,-0.738159,1.113830,-2.733193,-0.537504,-0.987577,0.489381,-0.296914,-0.897395,-0.326380,0.131219,0.219295,0.196360,11.363586,-40.831985,-19.579224,,,,,,
1478209477.58,-0.757594,1.103300,-2.732926,-0.291047,-0.947609,0.282032,-0.309677,-0.892700,-0.327395,0.111618,0.164062,0.188067,9.636414,-40.604065,-20.942261,,,,,,
1478209477.60,-0.776481,1.099856,-2.732233,0.001465,-0.903472,0.037673,-0.317958,-0.891142,-0.323679,0.107921,0.166914,0.150691,8.809845,-40.452194,-21.923523,,,,,,
1478209477.62,-0.796463,1.104688,-2.729552,0.352669,-0.879676,-0.234009,-0.321280,-0.893324,-0.314247,0.100088,0.165053,0.098336,8.510223,-40.302032,-21.925842,,,,,,
1478209477.64,-0.819651,1.118953,-2.722942,0.750861,-0.864497,-0.528839,-0.319132,-0.899644,-0.297986,0.063654,0.104218,0.052960,8.209991,-40.752563,-21.477905,,,,,,
1478209477.66,-0.846866,1.142686,-2.711362,1.122607,-0.822627,-0.838759,-0.311036,-0.909752,-0.274970,0.032029,-0.011559,0.008444,8.209991,-40.752563,-21.477905,,,,,,
1478209477.68,-0.875341,1.176266,-2.696639,1.449497,-0.699623,-1.255498,-0.295108,-0.923177,-0.246282,-0.010281,-0.149195,0.012807,8.284790,-41.203278,-21.027100,,,,,,
1478209477.70,-0.902693,1.220539,-2.680972,1.708286,-0.628419,-1.714048,-0.269364,-0.939285,-0.212574,-0.098282,-0.348328,0.007450,8.885559,-41.655045,-20.047424,,,,,,
1478209477.72,-0.928622,1.272144,-2.667619,1.763362,-0.686499,-2.036200,-0.235620,-0.955734,-0.176227,-0.148093,-0.505493,-0.063535,9.862457,-41.882355,-18.839966,,,,,,
1478209477.74,-0.954012,1.326819,-2.656383,1.711540,-0.791371,-2.155549,-0.197054,-0.970385,-0.139724,-0.114561,-0.622144,-0.143510,12.642151,-42.112701,-16.193970,,,,,,
1478209477.76,-0.986252,1.378291,-2.643472,1.475008,-1.065237,-1.962693,-0.159553,-0.981528,-0.105573,-0.060357,-0.775751,-0.223116,12.642151,-42.112701,-16.193970,,,,,,
1478209477.78,-1.018613,1.417965,-2.635100,0.869815,-1.311979,-1.403587,-0.129611,-0.988344,-0.079855,-0.008023,-0.768049,-0.360880,14.069427,-42.115128,-15.058289,,,,,,
1478209477.80,-1.031268,1.438989,-2.646379,0.285827,-0.966932,-0.667494,-0.112757,-0.991326,-0.067518,-0.005483,-0.450767,-0.308077,15.421509,-41.891937,-14.298218,,,,,,
1478209477.82,-1.025849,1.442340,-2.662083,-0.133791,-0.240737,0.061470,-0.109548,-0.991761,-0.066405,-0.176645,-0.276229,-0.283494,15.195740,-42.191803,-14.299744,,,,,,
1478209477.84,-1.010530,1.434097,-2.675122,-0.389769,0.322913,0.425393,-0.115439,-0.990671,-0.072417,-0.194329,-0.328817,-0.168656,15.871033,-41.891830,-14.519897,,,,,,
1478209477.86,-0.977760,1.419517,-2.694239,-0.594396,0.882512,0.582028,-0.124970,-0.988579,-0.084225,-0.106505,-0.227913,0.006939,15.871033,-41.891830,-14.519897,,,,,,
1478209477.88,-0.929865,1.401714,-2.722868,-0.753896,1.007377,0.604380,-0.134882,-0.985740,-0.100621,-0.068625,-0.098458,0.023503,15.794800,-42.041107,-14.970398,,,,,,
1478209477.90,-0.887005,1.382464,-2.748144,-0.778454,0.757548,0.644012,-0.145131,-0.982318,-0.118274,-0.001125,-0.010129,0.000294,15.419891,-41.815582,-15.198303,,,,,,
1478209477.92,-0.859476,1.362184,-2.764029,-0.759282,0.538393,0.692354,-0.156880,-0.978319,-0.135204,0.030385,0.120653,0.014949,15.419647,-41.740250,-15.423340,,,,,,
1478209477.94,-0.841555,1.341506,-2.774205,-0.783733,0.324704,0.735125,-0.169483,-0.973828,-0.151442,0.063724,0.247418,-0.022478,14.518768,-41.363434,-16.330261,,,,,,
1478209477.96,-0.833320,1.318989,-2.778444,-0.803311,0.129990,0.860925,-0.184416,-0.968464,-0.167537,0.086882,0.351230,-0.044514,14.518768,-41.363434,-16.330261,,,,,,
1478209477.98,-0.835540,1.293935,-2.775482,-0.830367,-0.008416,1.021726,-0.202724,-0.961918,-0.183349,0.117534,0.404087,-0.014542,14.068237,-41.212540,-16.783691,,,,,,
1478209478.00,-0.844142,1.266127,-2.767095,-0.845233,-0.021401,1.177081,-0.224204,-0.953946,-0.199297,0.125494,0.429288,0.044206,13.165924,-41.360596,-17.765442,,,,,,
1478209478.02,-0.854777,1.237011,-2.755093,-0.805861,0.083606,1.243137,-0.247166,-0.944809,-0.215047,0.113896,0.433609,0.120702,12.565002,-41.059052,-18.595093,,,,,,
1478209478.04,-0.862970,1.208816,-2.742519,-0.737807,0.246151,1.183651,-0.269057,-0.935197,-0.230248,0.101943,0.403185,0.172737,10.614136,-40.907166,-19.209839,,,,,,
1478209478.06,-0.865605,1.183266,-2.733299,-0.686447,0.318573,1.017762,-0.287769,-0.925845,-0.244949,0.097339,0.339862,0.202362,10.614136,-40.907166,-19.209839,,,,,,
1478209478.08,-0.862703,1.161786,-2.729605,-0.625349,0.297541,0.775424,-0.302095,-0.917515,-0.258659,0.094713,0.254917,0.220207,9.787415,-40.830276,-20.191040,,,,,,
1478209478.10,-0.856039,1.144783,-2.732578,-0.591249,0.124615,0.506556,-0.312103,-0.910621,-0.270854,0.096390,0.161338,0.226176,8.811981,-40.679214,-20.573425,,,,,,
,,,,,,,,,,,,,,,,37.322699,-122.016980,60.446991,0.670000,62.929688,1478209478.00
1478209478.12,-0.848598,1.132284,-2.741797,-0.540609,-0.164288,0.253927,-0.318595,-0.905384,-0.280671,0.094856,0.058674,0.232560,8.586548,-40.603638,-20.875122,,,,,,
1478209478.14,-0.843759,1.123854,-2.755696,-0.483019,-0.521318,0.044016,-0.322924,-0.901773,-0.287273,0.098193,-0.010733,0.236659,7.985260,-40.226654,-22.004761,,,,,,
1478209478.16,-0.848764,1.123606,-2.767444,-0.406625,-0.860471,-0.093431,-0.324526,-0.901666,-0.285801,0.109408,-0.060447,0.237278,7.985260,-40.226654,-22.004761,,,,,,
1478209478.18,-0.855215,1.121609,-2.783194,-0.259970,-1.131880,-0.188017,-0.327721,-0.900800,-0.284882,0.132027,-0.122332,0.235947,7.459808,-39.925476,-22.608948,,,,,,
1478209478.20,-0.869726,1.125111,-2.794782,0.023887,-1.319590,-0.370329,-0.329408,-0.902315,-0.278060,0.127244,-0.155775,0.217559,7.083862,-39.924622,-23.061768,,,,,,
1478209478.22,-0.890229,1.136984,-2.802958,0.386717,-1.443489,-0.709851,-0.326690,-0.907370,-0.264488,0.081710,-0.184626,0.190620,6.258179,-39.848511,-23.517944,,,,,,
1478209478.24,-0.913787,1.159539,-2.808699,0.731245,-1.439630,-1.117796,-0.316540,-0.916619,-0.244155,0.059933,-0.255760,0.168182,6.333618,-39.848892,-23.292419,,,,,,
1478209478.26,-0.937340,1.191888,-2.813983,0.987365,-1.412115,-1.514553,-0.298140,-0.929069,-0.218960,0.068327,-0.288964,0.131100,6.333618,-39.848892,-23.292419,,,,,,
1478209478.28,-0.957902,1.232781,-2.820520,1.168876,-1.297278,-1.856499,-0.271257,-0.943415,-0.190758,0.061678,-0.309210,0.094017,6.632935,-40.299393,-23.065002,,,,,,
1478209478.30,-0.975018,1.279582,-2.826982,1.311580,-1.079422,-2.067882,-0.237649,-0.957896,-0.161116,0.010369,-0.348272,0.038450,7.384003,-40.601120,-22.159119,,,,,,
1478209478.32,-0.989444,1.329248,-2.829375,1.364111,-0.705341,-2.082001,-0.199910,-0.970969,-0.131361,-0.036571,-0.414560,-0.014070,9.561584,-41.205276,-20.117493,,,,,,
1478209478.34,-0.993712,1.375647,-2.833513,1.136684,-0.207390,-1.891334,-0.162510,-0.981019,-0.105796,-0.055294,-0.407729,-0.091211,11.587585,-41.657898,-19.052124,,,,,,
1478209478.36,-0.978930,1.412657,-2.843947,0.848350,0.455027,-1.408515,-0.130694,-0.987522,-0.087860,-0.017546,-0.111706,-0.157333,11.587585,-41.657898,-19.052124,,,,,,
1478209478.38,-0.958715,1.438517,-2.851847,0.590487,0.644294,-0.952486,-0.107949,-0.991264,-0.075783,0.006616,0.112113,-0.150047,12.714172,-41.809906,-18.068542,,,,,,
1478209478.40,-0.943642,1.456636,-2.856659,0.477287,0.451740,-0.674980,-0.092235,-0.993491,-0.066849,0.024806,0.035590,-0.068237,14.290894,-41.736847,-17.306763,,,,,,
1478209478.42,-0.928931,1.472856,-2.865208,0.435179,0.213810,-0.718494,-0.078323,-0.995208,-0.058542,0.018630,-0.202302,-0.048315,15.794159,-41.514648,-15.945618,,,,,,
1478209478.44,-0.894719,1.489192,-2.900051,0.332618,-0.193023,-0.729083,-0.063583,-0.996672,-0.051006,-0.047256,-0.186525,-0.110355,17.219391,-41.665833,-15.634888,,,,,,
1478209478.46,-0.842249,1.501923,-2.961074,0.192986,-0.525630,-0.562218,-0.051348,-0.997629,-0.045818,-0.107648,0.049280,-0.177601,17.219391,-41.665833,-15.634888,,,,,,
1478209478.48,-0.789905,1.509892,-3.023303,0.086611,-0.423582,-0.359638,-0.043233,-0.998146,-0.042845,-0.188014,0.256111,-0.179765,17.445984,-41.216293,-15.408447,,,,,,
1478209478.50,-0.741169,1.513615,-3.076606,-0.007111,-0.085527,-0.174380,-0.038585,-0.998366,-0.042158,-0.228993,0.365782,-0.161409,17.445892,-41.366501,-15.258301,,,,,,
1478209478.52,-0.705162,1.513557,-3.109677,-0.090963,0.289749,-0.013608,-0.037080,-0.998362,-0.043564,-0.196731,0.407679,-0.130828,17.820160,-41.366135,-15.630493,,,,,,
1478209478.54,-0.686935,1.510920,-3.118918,-0.126076,0.523535,0.110389,-0.037949,-0.998208,-0.046268,-0.147583,0.439507,-0.116238,18.046173,-41.141602,-15.403931,,,,,,
1478209478.56,-0.692909,1.506791,-3.102029,-0.130902,0.535073,0.207215,-0.040857,-0.997952,-0.049211,-0.115210,0.451123,-0.122435,18.046173,-41.141602,-15.403931,,,,,,
1478209478.58,-0.715606,1.501898,-3.068748,-0.101348,0.542334,0.255269,-0.045167,-0.997627,-0.051956,-0.111968,0.430977,-0.099945,18.271423,-41.217041,-15.177185,,,,,,
1478209478.60,-0.740215,1.497440,-3.032155,-0.065688,0.648571,0.234013,-0.049430,-0.997311,-0.054112,-0.138283,0.391079,-0.083660,18.046356,-41.066589,-15.403992,,,,,,
1478209478.62,-0.755637,1.494302,-3.002897,-0.028848,0.696421,0.161757,-0.052405,-0.997076,-0.055621,-0.160165,0.299474,-0.102216,17.896332,-41.066513,-15.405090,,,,,,
1478209478.64,-0.764361,1.492153,-2.980779,-0.011642,0.668797,0.120378,-0.054371,-0.996909,-0.056708,-0.164791,0.177146,-0.113519,17.896759,-41.442520,-14.729919,,,,,,
1478209478.66,-0.768736,1.490499,-2.962734,-0.004963,0.724085,0.105428,-0.055765,-0.996778,-0.057655,-0.170630,0.078870,-0.121956,17.896759,-41.442520,-14.729919,,,,,,
1478209478.68,-0.769631,1.489121,-2.948628,0.001225,0.624171,0.082195,-0.056772,-0.996666,-0.058591,-0.172476,0.032341,-0.179370,18.047913,-40.992599,-14.729065,,,,,,
1478209478.70,-0.777643,1.489034,-2.927268,0.082532,0.679233,0.058075,-0.057301,-0.996659,-0.058197,-0.168544,0.036500,-0.156571,18.123108,-41.067963,-14.503418,,,,,,
1478209478.72,-0.791476,1.489644,-2.902246,0.097812,0.466568,0.051031,-0.057668,-0.996709,-0.056971,-0.174846,-0.008250,-0.242986,18.349060,-41.068756,-14.051636,,,,,,
1478209478.74,-0.812422,1.489442,-2.872622,0.054693,0.460191,0.128512,-0.058995,-0.996693,-0.055889,-0.162990,-0.147076,-0.231907,18.725006,-40.994507,-13.673889,,,,,,
1478209478.76,-0.840579,1.486095,-2.830905,0.016645,0.865057,0.306523,-0.063029,-0.996415,-0.056431,-0.216390,-0.330611,-0.157101,18.725006,-40.994507,-13.673889,,,,,,
1478209478.78,-0.870530,1.481218,-2.779072,-0.019733,1.159631,0.326100,-0.068406,-0.995991,-0.057649,-0.207427,-0.674618,-0.137465,18.500153,-40.994522,-13.600586,,,,,,
1478209478.80,-0.880956,1.473582,-2.747152,-0.202311,0.978187,0.460564,-0.074868,-0.995278,-0.061771,-0.043434,-0.647605,-0.221264,18.725525,-41.445755,-12.848694,,,,,,
1478209478.82,-0.903085,1.460073,-2.707667,-0.284565,0.882198,0.783866,-0.086767,-0.993876,-0.068419,-0.007380,-0.587636,-0.195574,18.501343,-41.295990,-12.625427,,,,,,
1478209478.84,-0.931140,1.442935,-2.652155,-0.264289,1.687810,0.888137,-0.102304,-0.991837,-0.076115,-0.126365,-0.624710,-0.095531,18.125397,-41.595673,-12.703125,,,,,,
1478209478.86,-0.897232,1.424114,-2.651469,-0.786896,1.765342,0.687150,-0.114237,-0.989261,-0.091169,-0.023962,-0.365093,-0.131411,18.125397,-41.595673,-12.703125,,,,,,
1478209478.88,-0.829625,1.399283,-2.683582,-1.100277,1.729893,0.866447,-0.125902,-0.985328,-0.115230,0.013429,-0.171578,-0.085697,18.050629,-41.821198,-12.328552,,,,,,
1478209478.90,-0.786865,1.366629,-2.705025,-1.377506,0.648004,1.152921,-0.143577,-0.979230,-0.143157,0.105080,-0.267154,-0.096406,17.899231,-41.895233,-12.929626,,,,,,
1478209478.92,-0.779412,1.328565,-2.710471,-1.429708,-0.177216,1.373178,-0.168595,-0.970805,-0.170625,0.106552,-0.349873,0.039613,16.847961,-41.743454,-13.762573,,,,,,
1478209478.94,-0.783603,1.288181,-2.715317,-1.513010,-0.571342,1.356288,-0.196835,-0.960329,-0.197543,0.077008,-0.270536,0.142337,15.645630,-41.515701,-15.196716,,,,,,
1478209478.96,-0.786888,1.248399,-2.726686,-1.550495,-0.776260,1.273363,-0.224374,-0.948479,-0.223706,0.099008,-0.172920,0.178098,15.645630,-41.515701,-15.196716,,,,,,
1478209478.98,-0.795802,1.207511,-2.736253,-1.546972,-1.013629,1.429161,-0.253869,-0.934735,-0.248640,0.129052,-0.085987,0.180098,14.067688,-41.437531,-16.783569,,,,,,
1478209479.00,-0.817561,1.164158,-2.737149,-1.503039,-1.189547,1.630860,-0.288527,-0.918455,-0.270540,0.180830,-0.010576,0.227815,11.214508,-40.456909,-19.580505,,,,,,
1478209479.02,-0.843270,1.119119,-2.733382,-1.453570,-1.081544,1.787449,-0.325969,-0.899716,-0.290267,0.198940,0.097165,0.271224,9.711884,-40.379013,-21.016785,,,,,,
1478209479.04,-0.871115,1.072755,-2.724821,-1.324196,-0.955742,1.952966,-0.365468,-0.878520,-0.307630,0.229863,0.191432,0.294477,7.609558,-40.075668,-22.532776,,,,,,
1478209479.06,-0.899651,1.025673,-2.710993,-1.175363,-0.754515,2.115282,-0.406061,-0.855063,-0.322461,0.265192,0.265464,0.296323,7.609558,-40.075668,-22.532776,,,,,,
1478209479.08,-0.925839,0.977882,-2.693795,-1.052548,-0.473373,2.224108,-0.446536,-0.829315,-0.335919,0.307772,0.293412,0.294888,5.658844,-39.397873,-23.747742,,,,,,
,,,,,,,,,,,,,,,,37.322709,-122.016987,60.263031,1.010000,83.671875,1478209479.00
1478209479.10,-0.947613,0.930323,-2.674750,-0.916615,-0.219792,2.263855,-0.485246,-0.801813,-0.348759,0.337022,0.284571,0.299473,1.232910,-38.418137,-25.431335,,,,,,
1478209479.12,-0.963921,0.884877,-2.655210,-0.770173,0.058429,2.170567,-0.520283,-0.773837,-0.361221,0.342763,0.264499,0.312592,-0.717194,-37.740799,-26.346375,,,,,,
1478209479.14,-0.973407,0.843790,-2.637271,-0.636919,0.286976,1.943148,-0.549525,-0.747168,-0.373848,0.337550,0.223242,0.326805,-2.217377,-37.439346,-26.807800,,,,,,
1478209479.16,-0.976815,0.809040,-2.622451,-0.521311,0.420123,1.588038,-0.571976,-0.723625,-0.386277,0.332368,0.170753,0.334534,-2.217377,-37.439346,-26.807800,,,,,,
1478209479.18,-0.975134,0.782344,-2.612711,-0.438527,0.418548,1.125438,-0.587112,-0.704944,-0.397937,0.325973,0.132068,0.335452,-3.492188,-36.988037,-27.267578,,,,,,
1478209479.20,-0.971173,0.765150,-2.608690,-0.318500,0.281955,0.594056,-0.595450,-0.692645,-0.407040,0.325278,0.101612,0.338909,-5.441223,-35.935791,-28.107666,,,,,,
1478209479.22,-0.967829,0.758248,-2.609860,-0.171217,0.027257,0.067262,-0.598009,-0.687650,-0.411731,0.320986,0.078992,0.317843,-5.742645,-36.084839,-28.634888,,,,,,
1478209479.24,-0.967407,0.761555,-2.614607,0.033252,-0.252151,-0.418730,-0.595959,-0.690048,-0.410690,0.280118,0.075897,0.301651,-5.891907,-35.784760,-28.636108,,,,,,
1478209479.26,-0.970245,0.774581,-2.621834,0.225784,-0.466795,-0.833564,-0.589657,-0.699417,-0.403883,0.245586,0.027999,0.276060,-5.891907,-35.784760,-28.636108,,,,,,
1478209479.28,-0.974904,0.796246,-2.630046,0.473989,-0.553028,-1.220611,-0.578853,-0.714735,-0.392534,0.247951,-0.006242,0.237703,-5.442902,-36.009659,-28.857605,,,,,,
1478209479.30,-0.980032,0.828911,-2.639172,0.764680,-0.623201,-1.749027,-0.561162,-0.737196,-0.376350,0.199284,-0.065492,0.185234,-4.842590,-36.310745,-28.328003,,,,,,
1478209479.32,-0.983900,0.873959,-2.652132,0.971634,-0.709977,-2.354522,-0.534400,-0.766876,-0.355413,0.131995,-0.210861,0.129705,-4.242554,-36.761948,-27.723267,,,,,,
1478209479.34,-0.983208,0.930328,-2.672407,1.072725,-0.824137,-2.911591,-0.497347,-0.801816,-0.331267,0.122789,-0.369662,0.052260,-3.118500,-37.513214,-27.264526,,,,,,
1478209479.36,-0.980699,0.994175,-2.701165,1.117870,-1.245819,-3.211954,-0.452995,-0.838309,-0.303369,0.086021,-0.470712,0.033777,-3.118500,-37.513214,-27.264526,,,,,,
1478209479.38,-0.984736,1.060222,-2.731493,1.248489,-1.588654,-3.167069,-0.407131,-0.872464,-0.270280,0.042415,-0.652087,0.016862,1.080566,-39.242844,-25.582092,,,,,,
1478209479.40,-0.994635,1.123061,-2.759466,1.093472,-1.822570,-2.869505,-0.363034,-0.901430,-0.235862,0.007397,-0.856978,-0.111963,2.731476,-39.544907,-24.744568,,,,,,
1478209479.42,-0.999214,1.174494,-2.791377,0.702963,-1.582048,-2.297188,-0.324652,-0.922495,-0.208817,0.016211,-0.602926,-0.170730,3.932129,-40.071991,-23.760315,,,,,,
1478209479.44,-0.997589,1.213719,-2.823400,0.533699,-1.316547,-1.826949,-0.293670,-0.936922,-0.189565,-0.079744,-0.251386,-0.098888,5.582092,-40.448517,-23.297791,,,,,,
1478209479.46,-0.995822,1.247180,-2.848106,0.584349,-0.917503,-1.526025,-0.266866,-0.948092,-0.172931,-0.179881,-0.375776,0.003544,5.582092,-40.448517,-23.297791,,,,,,
1478209479.48,-0.992941,1.274010,-2.863576,0.486343,-0.453353,-1.096147,-0.244965,-0.956281,-0.159744,-0.170959,-0.506029,-0.014725,7.082733,-40.750305,-22.611389,,,,,,
1478209479.50,-0.993476,1.292683,-2.873722,0.348281,-0.614065,-0.743248,-0.230046,-0.961575,-0.149840,-0.049754,-0.253208,-0.101168,8.359314,-40.601852,-22.001770,,,,,,
1478209479.52,-1.004742,1.306108,-2.877681,0.326997,-0.839756,-0.532250,-0.220804,-0.965174,-0.140302,-0.007117,0.065607,-0.099764,7.984100,-40.751770,-21.929565,,,,,,
1478209479.54,-1.023488,1.316949,-2.874898,0.325629,-0.696455,-0.403671,-0.214447,-0.967953,-0.130686,-0.046433,0.242139,-0.042837,8.959503,-40.827728,-21.622192,,,,,,
1478209479.56,-1.040909,1.326047,-2.870640,0.242081,-0.716493,-0.342359,-0.209083,-0.970198,-0.122474,-0.083123,0.318770,-0.074136,8.959503,-40.827728,-21.622192,,,,,,
1478209479.58,-1.056022,1.333676,-2.869117,0.195256,-0.655788,-0.316096,-0.204462,-0.972019,-0.115652,-0.040366,0.365329,-0.044306,8.509064,-41.052597,-21.550476,,,,,,
1478209479.60,-1.067800,1.340508,-2.867243,0.190417,-0.429409,-0.267500,-0.199987,-0.973601,-0.110033,-0.035716,0.420088,0.000963,9.034302,-40.977859,-21.546631,,,,,,
1478209479.62,-1.079748,1.346084,-2.864767,0.128114,-0.506886,-0.228338,-0.196497,-0.974858,-0.105074,-0.007773,0.443364,-0.063277,8.660065,-41.203690,-20.874268,,,,,,
1478209479.64,-1.087473,1.352146,-2.868406,0.107075,-0.629945,-0.340039,-0.192066,-0.976191,-0.100804,0.012882,0.443415,-0.070002,8.733490,-41.352814,-21.473633,,,,,,
1478209479.66,-1.092517,1.360813,-2.877845,0.116954,-0.800891,-0.482367,-0.185054,-0.978034,-0.095937,-0.029790,0.404167,-0.062114,8.733490,-41.352814,-21.473633,,,,,,
1478209479.68,-1.097275,1.371404,-2.891578,0.125605,-0.927271,-0.573674,-0.176279,-0.980187,-0.090326,-0.132803,0.313164,-0.088278,8.735382,-41.128845,-20.798767,,,,,,
1478209479.70,-1.098111,1.383288,-2.908036,0.127510,-0.765602,-0.617554,-0.165971,-0.982472,-0.084869,-0.219802,0.261433,-0.084687,8.434418,-41.353348,-21.025879,,,,,,
1478209479.72,-1.090709,1.395712,-2.925994,0.154618,-0.365907,-0.640368,-0.154500,-0.984712,-0.080452,-0.286586,0.212266,-0.081261,8.885193,-41.203918,-20.797607,,,,,,
1478209479.74,-1.077044,1.408847,-2.942539,0.203879,-0.005644,-0.650226,-0.141984,-0.986915,-0.076418,-0.314544,0.124427,-0.088911,8.810059,-40.978317,-21.173279,,,,,,
1478209479.76,-1.065558,1.415062,-2.951640,0.227725,0.180270,-0.615238,-0.135727,-0.987898,-0.075074,-0.307144,0.046522,-0.127029,8.810059,-40.978317,-21.173279,,,,,,
1478209479.78,-1.051201,1.426680,-2.962156,0.201421,0.193954,-0.489792,-0.124664,-0.989633,-0.071311,-0.301286,-0.042593,-0.173929,10.309753,-41.279419,-20.936890,,,,,,
1478209479.80,-1.044829,1.434605,-2.965163,0.179920,0.211722,-0.278102,-0.117420,-0.990740,-0.068163,-0.322095,-0.147626,-0.134366,10.836151,-41.205597,-20.333008,,,,,,
1478209479.82,-1.055718,1.439817,-2.948902,0.258959,0.263265,-0.111684,-0.113660,-0.991434,-0.064337,-0.354434,-0.289327,-0.103678,11.437347,-40.906235,-20.103577,,,,,,
1478209479.84,-1.085585,1.441137,-2.915976,0.168978,-0.000585,0.160735,-0.114372,-0.991606,-0.060303,-0.312187,-0.474443,-0.183517,11.737946,-40.981949,-19.726318,,,,,,
1478209479.86,-1.128112,1.434874,-2.880619,0.031530,-0.572758,0.525974,-0.122442,-0.990777,-0.058045,-0.239512,-0.540015,-0.242828,11.737946,-40.981949,-19.726318,,,,,,
1478209479.88,-1.178325,1.423398,-2.839332,0.052000,-0.236077,0.677797,-0.135698,-0.989157,-0.056172,-0.313063,-0.599665,-0.121364,11.286896,-41.206390,-19.954590,,,,,,
1478209479.90,-1.207362,1.411469,-2.798217,0.045033,1.147071,0.691621,-0.148291,-0.987334,-0.056400,-0.499170,-0.689393,-0.007092,10.612030,-41.206146,-19.884644,,,,,,
1478209479.92,-1.179669,1.393242,-2.789749,-0.453967,2.183642,1.000264,-0.163284,-0.984279,-0.067334,-0.520248,-0.417241,-0.087832,10.161957,-41.431259,-19.662964,,,,,,
1478209479.94,-1.120704,1.369399,-2.792249,-0.512121,3.131942,1.119854,-0.180116,-0.979788,-0.087026,-0.253936,-0.230661,0.100622,10.161987,-41.356140,-19.737915,,,,,,
1478209479.96,-1.060197,1.342504,-2.789972,-0.702138,3.006818,1.282933,-0.197449,-0.974054,-0.110600,-0.076279,-0.318625,0.040959,10.161987,-41.356140,-19.737915,,,,,,
1478209479.98,-1.006913,1.311562,-2.787690,-0.794251,2.693358,1.357419,-0.216655,-0.966587,-0.137007,0.020916,-0.415845,0.133452,10.387329,-41.206253,-19.736328,,,,,,
1478209480.00,-0.960366,1.280150,-2.787544,-0.937629,2.092200,1.291548,-0.234817,-0.958059,-0.164268,0.029709,-0.417536,0.111092,10.012085,-41.055618,-20.039246,,,,,,
1478209480.02,-0.921989,1.247916,-2.792131,-1.048326,1.474908,1.271654,-0.252826,-0.948325,-0.191724,0.104877,-0.233300,0.128339,10.312805,-40.905991,-19.887024,,,,,,
1478209480.04,-0.899530,1.213594,-2.794427,-1.112354,0.749833,1.394823,-0.273791,-0.936879,-0.217478,0.187991,-0.079524,0.091684,9.862000,-40.379196,-20.940674,,,,,,
1478209480.06,-0.897752,1.175850,-2.789600,-1.118588,0.017973,1.641802,-0.300853,-0.923017,-0.239847,0.255626,0.056303,0.095621,9.862000,-40.379196,-20.940674,,,,,,
1478209480.08,-0.914958,1.134018,-2.776841,-1.082447,-0.411094,1.925811,-0.335261,-0.906119,-0.257969,0.331080,0.185340,0.148335,8.435577,-40.227112,-21.851440,,,,,,
,,,,,,,,,,,,,,,,37.322708,-122.016988,59.927887,1.230000,100.195312,1478209480.00
1478209480.10,-0.942451,1.088043,-2.758216,-1.020929,-0.602087,2.203210,-0.375554,-0.885720,-0.272872,0.356328,0.292565,0.190199,6.709534,-39.849762,-22.839600,,,,,,
1478209480.12,-0.975921,1.038820,-2.735268,-0.931054,-0.699538,2.428469,-0.420103,-0.861806,-0.284259,0.361250,0.385091,0.239535,5.210022,-39.398544,-23.151062,,,,,,
1478209480.14,-1.009770,0.987651,-2.710017,-0.796287,-0.590728,2.573817,-0.466242,-0.834735,-0.292977,0.359812,0.346530,0.262124,-0.041534,-38.493057,-25.065857,,,,,,
1478209480.16,-1.040062,0.936619,-2.684393,-0.654817,-0.379590,2.556176,-0.511006,-0.805560,-0.299911,0.339482,0.255373,0.297729,-0.041534,-38.493057,-25.065857,,,,,,
1478209480.18,-1.062621,0.888834,-2.661402,-0.535425,-0.124450,2.345673,-0.550667,-0.776337,-0.306702,0.324501,0.173829,0.320573,-1.842712,-38.341003,-25.829468,,,,,,
1478209480.20,-1.076053,0.847344,-2.643097,-0.459798,0.105619,1.964648,-0.582599,-0.749525,-0.314310,0.309879,0.094084,0.320673,-3.867706,-37.738846,-26.594971,,,,,,
1478209480.22,-1.081481,0.813982,-2.631019,-0.412826,0.205175,1.493181,-0.606039,-0.727027,-0.322721,0.311056,0.008170,0.306547,-5.817444,-37.512619,-26.759766,,,,,,
1478209480.24,-1.082402,0.789975,-2.624795,-0.347988,0.144227,0.970961,-0.621573,-0.710336,-0.330259,0.313513,-0.032600,0.295621,-7.990997,-36.310394,-27.526611,,,,,,
1478209480.26,-1.082286,0.776409,-2.623771,-0.248117,-0.027325,0.406522,-0.629987,-0.700722,-0.334822,0.307584,-0.011162,0.272643,-7.990997,-36.310394,-27.526611,,,,,,
1478209480.28,-1.082988,0.774023,-2.627023,-0.097154,-0.216049,-0.160803,-0.631696,-0.699018,-0.335163,0.293149,0.024900,0.254444,-8.366852,-36.159286,-28.129517,,,,,,
1478209480.30,-1.084613,0.782871,-2.633179,0.081461,-0.340088,-0.684431,-0.626747,-0.705318,-0.331233,0.269844,0.006938,0.238612,-8.366638,-36.009171,-28.204590,,,,,,
1478209480.32,-1.086680,0.801512,-2.640627,0.282098,-0.379329,-1.104810,-0.615685,-0.718409,-0.323760,0.298928,-0.037115,0.210159,-7.991272,-36.235046,-27.751648,,,,,,
1478209480.34,-1.089267,0.829678,-2.647578,0.555378,-0.391135,-1.541864,-0.598345,-0.737714,-0.312669,0.308473,-0.043475,0.169053,-7.466339,-36.460648,-27.522644,,,,,,
1478209480.36,-1.091718,0.870571,-2.655087,0.821529,-0.420578,-2.212056,-0.571845,-0.764697,-0.297039,0.247412,-0.145947,0.139446,-7.466339,-36.460648,-27.522644,,,,,,
1478209480.38,-1.088755,0.926525,-2.669509,0.932974,-0.406802,-2.990678,-0.532176,-0.799538,-0.278439,0.186000,-0.360787,0.110928,-6.867615,-37.136292,-27.292847,,,,,,
1478209480.40,-1.076514,0.993940,-2.694442,0.961468,-0.463418,-3.490750,-0.480114,-0.838181,-0.258734,0.112499,-0.575576,0.046744,-4.767792,-37.813507,-26.526733,,,,,,
1478209480.42,-1.060106,1.064998,-2.727261,0.988636,-0.675012,-3.524342,-0.422686,-0.874788,-0.236817,0.034930,-0.773512,0.010498,0.106842,-39.318466,-24.839355,,,,,,
1478209480.44,-1.042331,1.133488,-2.765328,0.906646,-0.890944,-3.310500,-0.365729,-0.905895,-0.213534,0.045203,-0.788579,-0.100874,2.282684,-39.846146,-23.772827,,,,,,
1478209480.46,-1.019586,1.190382,-2.810944,0.543120,-1.026993,-2.664010,-0.316311,-0.928511,-0.194459,0.163876,-0.479143,-0.198226,2.282684,-39.846146,-23.772827,,,,,,
1478209480.48,-0.991030,1.231187,-2.864185,0.188108,-1.114217,-1.988806,-0.278684,-0.942885,-0.182492,0.103208,-0.256624,-0.203388,4.307739,-40.072647,-23.457520,,,,,,
1478209480.50,-0.969601,1.260279,-2.906171,0.358342,-0.670417,-1.364750,-0.251976,-0.952176,-0.172829,0.013115,-0.325931,0.015144,5.958527,-39.998932,-23.145142,,,,,,
1478209480.52,-0.962190,1.281482,-2.922290,0.366773,-0.355633,-0.832933,-0.234069,-0.958440,-0.163110,-0.032029,-0.556987,0.029840,8.284576,-39.850571,-22.827820,,,,,,
1478209480.54,-0.962346,1.295694,-2.933977,0.217932,-0.796738,-0.616986,-0.222894,-0.962398,-0.155271,0.086313,-0.335179,-0.100359,8.584503,-40.226395,-22.375366,,,,,,
1478209480.56,-0.973372,1.305852,-2.948808,0.075013,-1.525821,-0.486792,-0.216499,-0.965107,-0.147297,0.078956,0.096714,-0.158412,8.584503,-40.226395,-22.375366,,,,,,
1478209480.58,-0.992237,1.313028,-2.965118,-0.001251,-1.819191,-0.380315,-0.213435,-0.966961,-0.139397,-0.015646,0.269131,-0.099159,8.508026,-40.450699,-22.825806,,,,,,
1478209480.60,-1.009766,1.318546,-2.982638,-0.054012,-1.626639,-0.353221,-0.211325,-0.968353,-0.132793,-0.091517,0.398849,-0.023548,7.909485,-40.301163,-22.305420,,,,,,
1478209480.62,-1.014905,1.324129,-3.006053,-0.109852,-1.263807,-0.420079,-0.207409,-0.969731,-0.128851,-0.123325,0.482976,0.009863,7.458893,-40.300476,-22.608765,,,,,,
1478209480.64,-1.009001,1.330751,-3.033189,-0.096540,-0.902289,-0.472716,-0.201205,-0.971327,-0.126649,-0.117566,0.524443,0.015428,7.308167,-40.224731,-23.059937,,,,,,
1478209480.66,-0.995933,1.338510,-3.060716,-0.045974,-0.556831,-0.529383,-0.193202,-0.973143,-0.125166,-0.117864,0.492704,0.022062,7.308167,-40.224731,-23.059937,,,,,,
1478209480.68,-0.975232,1.347973,-3.089835,0.008768,-0.288943,-0.615714,-0.182938,-0.975277,-0.123967,-0.142258,0.421231,0.019948,7.233734,-39.699142,-23.435791,,,,,,
1478209480.70,-0.943796,1.359590,-3.124090,0.037242,0.014182,-0.740565,-0.169764,-0.977779,-0.122999,-0.188970,0.350017,0.016645,6.783600,-39.623688,-23.589172,,,,,,
1478209480.72,-0.895367,1.373371,3.113589,0.065811,0.299278,-0.890937,-0.153079,-0.980575,-0.122636,-0.226041,0.291320,0.011766,8.132446,-40.149475,-23.503784,,,,,,
1478209480.74,-0.828167,1.389554,3.053685,0.121739,0.480105,-1.045257,-0.132790,-0.983621,-0.121891,-0.251716,0.222192,0.003574,9.184509,-39.625580,-23.121155,,,,,,
1478209480.76,-0.740009,1.407300,2.974506,0.167476,0.512101,-1.186631,-0.109754,-0.986664,-0.120199,-0.269427,0.143494,-0.020289,9.184509,-39.625580,-23.121155,,,,,,
1478209480.78,-0.622422,1.425748,2.865588,0.207227,0.486577,-1.254502,-0.084268,-0.989499,-0.117435,-0.300513,0.082303,-0.043378,10.160522,-39.476532,-22.813904,,,,,,
1478209480.80,-0.484209,1.441885,2.735044,0.239699,0.424715,-1.201002,-0.059843,-0.991702,-0.113776,-0.343416,0.048725,-0.075295,11.285675,-39.477219,-22.730469,,,,,,
1478209480.82,-0.329113,1.455168,2.586947,0.254421,0.392449,-1.017778,-0.037288,-0.993323,-0.109178,-0.373692,-0.005655,-0.104872,13.838318,-39.104752,-21.886475,,,,,,
1478209480.84,-0.189927,1.463958,2.454162,0.229954,0.340954,-0.711259,-0.020131,-0.994298,-0.104718,-0.383677,-0.062831,-0.117023,14.965118,-38.806122,-21.353210,,,,,,
1478209480.86,-0.090133,1.471121,2.360449,0.337873,0.332658,-0.426431,-0.008957,-0.995037,-0.099106,-0.389267,-0.215901,-0.051544,14.965118,-38.806122,-21.353210,,,,,,
1478209480.88,-0.054256,1.479137,2.328493,0.418612,0.090333,-0.014722,-0.004964,-0.995802,-0.091396,-0.403941,-0.479295,-0.070408,15.715790,-38.656738,-21.197632,,,,,,
1478209480.90,-0.131762,1.486892,2.404234,0.404860,-0.177386,0.501892,-0.011011,-0.996482,-0.083079,-0.390845,-0.597481,-0.150731,15.640106,-39.107025,-20.972961,,,,,,
1478209480.92,-0.362726,1.489397,2.633962,0.317546,0.003620,1.107901,-0.028851,-0.996689,-0.076019,-0.423557,-0.676666,-0.162186,15.640442,-39.332703,-20.522888,,,,,,
1478209480.94,-0.649405,1.479626,2.926428,0.100672,0.421549,1.440326,-0.055055,-0.995847,-0.072511,-0.470412,-0.695712,-0.161147,14.591248,-39.483063,-19.930664,,,,,,
1478209480.96,-0.855860,1.457113,-3.127803,-0.124369,1.508264,1.749334,-0.085661,-0.993545,-0.074367,-0.479112,-0.639252,-0.090382,14.591248,-39.483063,-19.930664,,,,,,
1478209480.98,-0.953094,1.424997,-2.978389,-0.245999,3.271059,1.913109,-0.118437,-0.989390,-0.084143,-0.406252,-0.318914,0.080023,13.913574,-40.081833,-20.535461,,,,,,
1478209481.00,-0.975790,1.389089,-2.874001,-0.367418,4.372690,2.014021,-0.149653,-0.983537,-0.101290,-0.234700,-0.348510,0.138781,13.163788,-40.833008,-19.490723,,,,,,
1478209481.02,-0.961578,1.349670,-2.798375,-0.603435,4.335053,2.086232,-0.179870,-0.975651,-0.125506,0.011047,-0.421642,0.102358,12.939178,-41.208923,-18.817261,,,,,,
1478209481.04,-0.933915,1.306495,-2.749252,-0.891940,3.243007,2.125695,-0.210021,-0.965275,-0.155354,0.232649,-0.360637,-0.057277,13.090179,-41.284897,-18.215942,,,,,,
1478209481.06,-0.911744,1.260926,-2.715790,-1.067461,2.353774,2.098408,-0.241073,-0.952373,-0.186732,0.295639,-0.210591,-0.000783,13.090179,-41.284897,-18.215942,,,,,,
1478209481.08,-0.907214,1.213499,-2.689323,-1.141663,1.087661,2.182958,-0.275524,-0.936846,-0.215422,0.297314,-0.043715,0.062437,12.715424,-41.059464,-18.368958,,,,,,
,,,,,,,,,,,,,,,,37.322705,-122.016983,59.549408,1.280000,97.031250,1478209481.00
1478209481.10,-0.920139,1.164343,-2.664012,-1.135865,0.198661,2.291858,-0.314578,-0.918529,-0.239470,0.321093,0.097881,0.078093,10.088654,-41.282227,-18.988525,,,,,,
1478209481.12,-0.946618,1.113724,-2.639903,-1.096034,-0.435279,2.383534,-0.358109,-0.897348,-0.257923,0.380768,0.203317,0.152210,8.587189,-41.130112,-19.899902,,,,,,
1478209481.14,-0.980579,1.061504,-2.616914,-1.028929,-0.798275,2.522840,-0.405074,-0.873090,-0.271347,0.423140,0.255521,0.196442,6.185577,-40.751984,-21.193115,,,,,,
1478209481.16,-1.019434,1.007458,-2.592998,-0.903732,-0.980744,2.672836,-0.454877,-0.845477,-0.279741,0.413770,0.279452,0.231645,6.185577,-40.751984,-21.193115,,,,,,
1478209481.18,-1.057082,0.952633,-2.570049,-0.814131,-0.886476,2.707249,-0.504735,-0.814945,-0.284794,0.375112,0.265857,0.289021,4.159576,-40.599930,-21.883362,,,,,,
