timestamp(unix),attitude_roll(radians),attitude_pitch(radians),attitude_yaw(radians),rotation_rate_x(radians/s),rotation_rate_y(radians/s),rotation_rate_z(radians/s),gravity_x(G),gravity_y(G),gravity_z(G),user_acc_x(G),user_acc_y(G),user_acc_z(G),magnetic_field_x(microteslas),magnetic_field_y(microteslas),magnetic_field_z(microteslas),latitude(degree),longitude(degree),altitude(meter),speed(m/s),course(degree),timestamp(unix)
1478502860.43,0.086046,1.487725,-2.840599,0.029824,0.026793,0.018536,0.007131,-0.996552,-0.082669,0.003108,0.000839,-0.006961,-1.646606,-34.605225,-23.499634,,,,,,
,,,,,,,,,,,,,,,,37.391856,-122.011729,10.837952,-1.000000,-1.000000,1478502568.23
1478502860.45,0.080647,1.487860,-2.834612,0.013709,0.023614,0.036500,0.006674,-0.996563,-0.082572,0.001856,-0.002430,-0.009653,-2.170532,-34.305237,-23.353760,,,,,,
,,,,,,,,,,,,,,,,37.391855,-122.011740,10.837952,-1.000000,-1.000000,1478502565.94
,,,,,,,,,,,,,,,,37.391856,-122.011729,10.837952,-1.000000,-1.000000,1478502568.23
1478502860.47,0.071282,1.487847,-2.825128,-0.007664,-0.012446,0.026858,0.005901,-0.996562,-0.082644,-0.004177,-0.019475,-0.001294,-2.246216,-34.454956,-23.504272,,,,,,
1478502860.49,0.063185,1.487748,-2.817674,-0.021450,-0.027253,0.008710,0.005238,-0.996553,-0.082787,-0.014103,-0.022261,0.008202,-2.842651,-33.555664,-22.834106,,,,,,
,,,,,,,,,,,,,,,,37.392600,-122.003822,10.837952,-1.000000,-1.000000,1478502860.48
,,,,,,,,,,,,,,,,37.392599,-122.003832,10.837952,-1.000000,-1.000000,1478502860.49
1478502860.51,0.056681,1.487607,-2.811371,-0.012851,-0.001770,0.010849,0.004707,-0.996542,-0.082959,-0.006584,0.012792,0.003980,-2.169189,-34.005676,-23.053833,,,,,,
1478502860.53,0.054411,1.487516,-2.809104,-0.008555,0.000350,0.006612,0.004524,-0.996534,-0.083061,-0.000007,0.005857,0.004127,-2.169189,-34.005676,-23.053833,,,,,,
1478502860.55,0.053260,1.487626,-2.807842,-0.005339,0.007780,0.007683,0.004422,-0.996543,-0.082957,0.002200,-0.005547,0.008021,-2.169128,-33.855408,-23.203979,,,,,,
1478502860.57,0.050718,1.487823,-2.805119,-0.004279,0.007775,0.008753,0.004202,-0.996560,-0.082772,-0.002126,-0.005714,0.007042,-2.319031,-34.005676,-22.979980,,,,,,
1478502860.59,0.048427,1.488116,-2.802907,-0.001158,-0.010316,0.011955,0.003998,-0.996584,-0.082489,0.003036,-0.005552,0.007142,-2.471313,-34.454712,-23.580933,,,,,,
1478502860.61,0.048495,1.488363,-2.803269,0.006298,-0.016713,0.008811,0.003992,-0.996604,-0.082243,0.004355,0.004814,0.002043,-2.394592,-33.930115,-23.355591,,,,,,
1478502860.63,0.048316,1.488554,-2.803355,0.006323,-0.011395,0.007738,0.003968,-0.996620,-0.082054,0.002914,-0.003624,0.002479,-2.394592,-33.930115,-23.355591,,,,,,
1478502860.65,0.046171,1.488687,-2.801439,0.006333,-0.012455,0.005611,0.003785,-0.996631,-0.081930,-0.000978,-0.003659,-0.000727,-2.170349,-34.230225,-23.353760,,,,,,
1478502860.67,0.043782,1.488782,-2.799184,0.003164,-0.002878,0.006644,0.003586,-0.996639,-0.081844,-0.001480,-0.005726,0.000454,-2.696167,-34.454712,-23.507690,,,,,,
1478502860.69,0.040267,1.488750,-2.795465,-0.004230,0.015219,0.006577,0.003299,-0.996636,-0.081888,-0.006000,-0.005454,-0.001563,-2.621338,-34.454651,-23.582031,,,,,,
1478502860.71,0.036127,1.488361,-2.791024,-0.009557,0.015237,0.006549,0.002974,-0.996604,-0.082288,-0.004866,-0.004510,-0.009417,-2.319946,-34.155212,-23.280029,,,,,,
1478502860.73,0.031316,1.487677,-2.785907,-0.012772,0.016304,0.009724,0.002600,-0.996548,-0.082983,-0.006750,-0.004734,-0.014688,-2.319946,-34.155212,-23.280029,,,,,,
1478502860.75,0.027305,1.486926,-2.781508,-0.011666,0.021623,0.008625,0.002287,-0.996485,-0.083741,-0.004164,-0.007742,-0.015365,-2.245483,-34.154907,-23.504395,,,,,,
1478502860.77,0.023270,1.486329,-2.777054,-0.005285,0.019476,0.008664,0.001963,-0.996435,-0.084344,-0.003626,-0.001917,-0.015204,-2.694214,-33.855042,-23.282959,,,,,,
1478502860.79,0.020513,1.485821,-2.773837,-0.005238,0.025862,0.004397,0.001741,-0.996392,-0.084856,-0.003602,0.000313,-0.011916,-2.319885,-34.305542,-23.054810,,,,,,
1478502860.81,0.019011,1.485215,-2.771617,-0.014721,0.042916,-0.003131,0.001625,-0.996340,-0.085461,-0.004753,-0.004224,-0.012332,-2.545166,-34.230103,-23.281616,,,,,,
1478502860.83,0.019589,1.484547,-2.771203,-0.028531,0.052531,-0.004285,0.001687,-0.996283,-0.086126,-0.008737,-0.014230,-0.015772,-2.545166,-34.230103,-23.281616,,,,,,
1478502860.85,0.017744,1.483323,-2.768210,-0.030627,0.063169,-0.004311,0.001550,-0.996177,-0.087348,-0.008905,-0.009927,-0.019265,-2.846069,-34.154175,-23.808838,,,,,,
1478502860.87,0.017775,1.482277,-2.766965,-0.023149,0.064214,-0.007464,0.001571,-0.996085,-0.088390,-0.005249,0.003439,-0.011921,-2.470215,-33.929565,-23.656250,,,,,,
1478502860.89,0.018762,1.481609,-2.766847,-0.015784,0.046109,-0.003138,0.001671,-0.996025,-0.089053,-0.001991,0.003868,-0.006635,-2.770325,-34.305054,-23.283325,,,,,,
1478502860.91,0.019279,1.481440,-2.766725,-0.014824,0.025899,0.006449,0.001720,-0.996010,-0.089221,0.002491,-0.005104,0.006061,-2.320557,-34.154724,-23.579956,,,,,,
1478502860.93,0.018537,1.481527,-2.765547,-0.013774,0.017394,0.004339,0.001652,-0.996018,-0.089136,-0.000172,-0.006271,0.012689,-2.320557,-34.154724,-23.579956,,,,,,
1478502860.95,0.017333,1.481668,-2.764201,-0.017024,-0.000667,0.003284,0.001543,-0.996031,-0.088997,-0.001634,-0.003161,0.013390,-2.094727,-33.854980,-23.503418,,,,,,
1478502860.97,0.018504,1.481940,-2.765612,-0.006426,-0.018773,0.002304,0.001642,-0.996055,-0.088725,0.007803,0.000373,0.013590,-2.395752,-34.154602,-23.655518,,,,,,
1478502860.99,0.021485,1.482498,-2.769178,0.009509,-0.035831,0.000287,0.001895,-0.996104,-0.088163,0.010023,0.000911,0.013563,-2.845398,-34.079529,-23.583862,,,,,,
1478502861.01,0.024419,1.483496,-2.772988,0.029745,-0.047582,-0.004907,0.002129,-0.996192,-0.087164,0.006187,-0.002420,0.016836,-2.320618,-34.229858,-23.504883,,,,,,
1478502861.03,0.028129,1.484874,-2.777730,0.043631,-0.052928,-0.013340,0.002414,-0.996311,-0.085783,0.005155,0.003803,0.018461,-2.320618,-34.229858,-23.504883,,,,,,
1478502861.05,0.034296,1.486844,-2.784990,0.056431,-0.057214,-0.017522,0.002875,-0.996478,-0.083804,0.004205,0.002170,0.017093,-2.395813,-34.304871,-23.505493,,,,,,
1478502861.07,0.042776,1.488675,-2.794673,0.072575,-0.056163,-0.035562,0.003508,-0.996630,-0.081954,0.008272,-0.007826,0.015471,-2.470825,-34.304810,-23.505981,,,,,,
1478502861.09,0.050550,1.490551,-2.804244,0.087342,-0.121040,-0.048155,0.004050,-0.996782,-0.080057,-0.017295,0.012880,0.008630,-2.621033,-34.379761,-23.507080,,,,,,
1478502861.11,0.056124,1.493200,-2.812608,0.090553,-0.085999,-0.030093,0.004348,-0.996991,-0.077396,0.011429,-0.013416,0.035831,-2.920715,-34.454956,-23.284302,,,,,,
1478502861.13,0.070624,1.495043,-2.827673,0.081280,-0.028527,-0.048329,0.005340,-0.997132,-0.075492,-0.003830,-0.006576,-0.001702,-2.920715,-34.454956,-23.284302,,,,,,
1478502861.15,0.077470,1.496493,-2.835451,0.053432,-0.035914,-0.028244,0.005745,-0.997241,-0.074012,-0.003579,-0.001951,0.008079,-2.469910,-34.305481,-23.055908,,,,,,
1478502861.17,0.087182,1.497239,-2.845377,0.046130,-0.002922,-0.034721,0.006399,-0.997296,-0.073212,-0.001623,-0.007419,-0.011352,-2.921448,-34.604675,-23.434204,,,,,,
1478502861.19,0.093856,1.497510,-2.852582,0.047099,-0.036938,-0.038921,0.006862,-0.997316,-0.072898,-0.009395,-0.011672,-0.020821,-2.770691,-34.605347,-23.058105,,,,,,
1478502861.21,0.098896,1.497656,-2.858571,0.049109,-0.055033,-0.030364,0.007215,-0.997326,-0.072718,-0.009702,-0.003528,-0.026570,-2.994629,-34.230347,-22.984985,,,,,,
1478502861.23,0.102258,1.497854,-2.863317,0.039495,-0.069882,-0.027235,0.007439,-0.997341,-0.072497,-0.005990,0.001110,-0.017561,-2.994629,-34.230347,-22.984985,,,,,,
1478502861.25,0.103743,1.497777,-2.866294,0.023525,-0.071951,-0.030511,0.007555,-0.997335,-0.072562,-0.014559,-0.006556,-0.024667,-2.394409,-34.230774,-22.905518,,,,,,
1478502861.27,0.107179,1.497920,-2.871060,0.025695,-0.060264,-0.030516,0.007789,-0.997346,-0.072394,-0.006934,-0.008666,-0.011820,-2.470825,-34.830872,-22.830688,,,,,,
1478502861.29,0.105130,1.498024,-2.869903,0.008770,-0.014505,-0.024288,0.007630,-0.997353,-0.072307,-0.013459,0.005562,-0.000676,-2.695007,-34.530701,-22.832520,,,,,,
1478502861.31,0.104780,1.498076,-2.869375,-0.000744,0.012099,-0.021185,0.007599,-0.997357,-0.072257,-0.018280,-0.013599,-0.003228,-2.846252,-34.830322,-23.058472,,,,,,
1478502861.33,0.105202,1.498123,-2.869598,0.002422,0.013142,-0.015845,0.007625,-0.997360,-0.072208,-0.005595,-0.002105,0.001850,-2.846252,-34.830322,-23.058472,,,,,,
1478502861.35,0.115016,1.498432,-2.879025,0.003574,0.018473,-0.026493,0.008297,-0.997383,-0.071823,0.008411,-0.003853,0.008987,-2.544678,-34.380798,-22.831543,,,,,,
1478502861.37,0.127221,1.498967,-2.891178,0.019576,0.013117,-0.032785,0.009106,-0.997421,-0.071187,0.010303,0.001602,0.008306,-2.845276,-34.455322,-23.058716,,,,,,
1478502861.39,0.145055,1.500038,-2.908772,0.031403,0.007790,-0.044464,0.010219,-0.997498,-0.069957,0.008518,-0.000473,0.017009,-2.920776,-34.529968,-23.209229,,,,,,
1478502861.41,0.163497,1.501032,-2.927291,0.032422,-0.008158,-0.045500,0.011346,-0.997567,-0.068778,0.006095,-0.012274,0.014121,-2.696045,-34.755371,-23.057373,,,,,,
1478502861.43,0.181412,1.501838,-2.945519,0.032384,-0.017728,-0.044422,0.012431,-0.997623,-0.067773,0.005498,-0.001980,0.010277,-2.696045,-34.755371,-23.057373,,,,,,
1478502861.45,0.198496,1.502531,-2.963201,0.025931,-0.033656,-0.043370,0.013451,-0.997671,-0.066873,0.005287,-0.003046,0.011499,-2.019836,-34.456116,-22.827515,,,,,,
1478502861.47,0.213736,1.503311,-2.979133,0.023781,-0.030469,-0.038064,0.014304,-0.997724,-0.065900,0.001520,-0.000613,0.017392,-2.170593,-34.680908,-22.903564,,,,,,
1478502861.49,0.231072,1.504460,-2.996877,0.025960,-0.012409,-0.034887,0.015181,-0.997801,-0.064526,0.002610,0.000639,0.017056,-2.395447,-34.755981,-22.755249,,,,,,
1478502861.51,0.244744,1.505113,-3.010857,0.031272,-0.018803,-0.035913,0.015904,-0.997844,-0.063680,0.000926,-0.003972,0.005040,-2.921326,-34.905334,-22.984131,,,,,,
1478502861.53,0.258464,1.505392,-3.025078,0.033403,-0.031554,-0.043333,0.016705,-0.997862,-0.063186,0.000324,-0.007143,-0.008988,-2.921326,-34.905334,-22.984131,,,,,,
1478502861.55,0.273989,1.505577,-3.041289,0.024968,-0.032588,-0.048745,0.017634,-0.997874,-0.062742,0.001409,-0.007726,-0.002856,-2.170471,-34.681030,-22.828491,,,,,,
1478502861.57,0.288455,1.505693,-3.056354,0.015364,-0.024065,-0.041359,0.018507,-0.997882,-0.062369,-0.000349,0.002810,0.001777,-3.145325,-34.530212,-22.985962,,,,,,
1478502861.59,0.300649,1.505854,-3.068864,0.019615,-0.015585,-0.034962,0.019218,-0.997892,-0.061985,-0.000420,-0.004076,-0.001293,-2.170349,-34.756226,-22.678467,,,,,,
1478502861.61,0.312117,1.505910,-3.080760,0.028133,-0.024110,-0.039160,0.019911,-0.997896,-0.061708,-0.000685,-0.006774,-0.008101,-2.470642,-34.755859,-22.830811,,,,,,
1478502861.63,0.325952,1.505949,-3.095439,0.034500,-0.049627,-0.049731,0.020750,-0.997898,-0.061390,-0.000807,-0.002560,-0.009579,-2.470642,-34.755859,-22.830811,,,,,,
1478502861.65,0.340959,1.505977,-3.111536,0.038781,-0.052821,-0.055025,0.021660,-0.997900,-0.061045,-0.002296,0.003042,-0.012807,-2.395447,-34.755981,-22.755249,,,,,,
1478502861.67,0.358205,1.506005,-3.129956,0.051599,-0.059225,-0.064524,0.022700,-0.997902,-0.060636,-0.003611,0.000694,-0.015871,-2.170227,-34.906555,-22.453491,,,,,,
1478502861.69,0.376522,1.506079,3.133787,0.058007,-0.051805,-0.063435,0.023779,-0.997907,-0.060142,-0.007071,-0.005679,-0.018228,-2.621216,-34.980774,-22.831787,,,,,,
1478502861.71,0.390084,1.506259,3.119269,0.050539,-0.041186,-0.047566,0.024524,-0.997918,-0.059648,-0.008640,-0.009925,-0.019194,-2.321472,-35.055786,-22.904541,,,,,,
1478502861.73,0.397721,1.506130,3.110704,0.038767,-0.042224,-0.040176,0.025029,-0.997910,-0.059578,-0.007375,-0.005859,-0.026085,-2.321472,-35.055786,-22.904541,,,,,,
1478502861.75,0.402714,1.505716,3.104766,0.030213,-0.044328,-0.037025,0.025488,-0.997883,-0.059832,-0.007300,-0.005413,-0.025450,-2.620850,-34.905823,-22.756836,,,,,,
1478502861.77,0.407484,1.505311,3.099052,0.038716,-0.046484,-0.035910,0.025933,-0.997857,-0.060081,-0.006021,-0.005058,-0.029855,-2.245728,-34.981262,-22.604004,,,,,,
1478502861.79,0.415033,1.505025,3.090515,0.052579,-0.046524,-0.039026,0.026501,-0.997838,-0.060144,-0.002743,0.002675,-0.032492,-2.470886,-35.056152,-22.605591,,,,,,
1478502861.81,0.422460,1.504898,3.082034,0.055717,-0.056108,-0.035800,0.026999,-0.997829,-0.060062,-0.006522,-0.001850,-0.030865,-2.396057,-35.131226,-22.604980,,,,,,
1478502861.83,0.429280,1.504815,3.073903,0.047142,-0.067777,-0.034764,0.027443,-0.997824,-0.059951,-0.006218,-0.008096,-0.028458,-2.396057,-35.131226,-22.604980,,,,,,
1478502861.85,0.430689,1.504597,3.071070,0.033152,-0.070956,-0.014609,0.027618,-0.997810,-0.060110,-0.004989,-0.017464,-0.027247,-2.621765,-35.280823,-22.756714,,,,,,
1478502861.87,0.429867,1.504278,3.070496,0.044893,-0.068856,-0.013510,0.027701,-0.997788,-0.060422,-0.000968,-0.010543,-0.035480,-2.395020,-35.132019,-22.079956,,,,,,
1478502861.89,0.432321,1.504003,3.066495,0.072579,-0.081692,-0.019725,0.027964,-0.997770,-0.060603,-0.002009,0.005735,-0.044958,-2.245850,-35.206665,-22.378906,,,,,,
1478502861.91,0.435076,1.504036,3.061656,0.087406,-0.113626,-0.024917,0.028117,-0.997772,-0.060496,-0.007869,0.002258,-0.044546,-2.846069,-35.431519,-22.233276,,,,,,
1478502861.93,0.433589,1.503908,3.060624,0.087337,-0.123201,-0.020643,0.028081,-0.997764,-0.060653,-0.006505,-0.004662,-0.031830,-2.846069,-35.431519,-22.233276,,,,,,
1478502861.95,0.438011,1.504500,3.053888,0.098030,-0.106230,-0.018480,0.028099,-0.997803,-0.059994,-0.007118,0.004807,-0.035373,-2.545227,-35.131775,-22.156250,,,,,,
1478502861.97,0.440806,1.505156,3.049150,0.109765,-0.088206,-0.012055,0.027986,-0.997846,-0.059323,-0.009340,0.000013,-0.045383,-2.544556,-35.057129,-21.931152,,,,,,
1478502861.99,0.442903,1.505816,3.045286,0.130050,-0.086133,-0.019396,0.027828,-0.997890,-0.058669,-0.011120,0.000880,-0.052781,-2.395203,-35.207031,-22.079956,,,,,,
1478502862.01,0.450931,1.506803,3.035584,0.145128,-0.071264,-0.038494,0.027869,-0.997953,-0.057557,-0.017188,0.004682,-0.048217,-2.770508,-35.507202,-21.857666,,,,,,
1478502862.03,0.462604,1.507930,3.022749,0.142152,-0.043543,-0.058777,0.028037,-0.998025,-0.056221,-0.025825,-0.001670,-0.045997,-2.770508,-35.507202,-21.857666,,,,,,
1478502862.05,0.473822,1.508849,3.010817,0.127426,-0.020076,-0.076985,0.028248,-0.998082,-0.055087,-0.034946,0.005849,-0.046674,-2.769714,-35.432617,-21.557617,,,,,,
1478502862.07,0.484821,1.509247,2.999577,0.100992,0.004495,-0.096322,0.028667,-0.998106,-0.054422,-0.040538,0.010603,-0.047751,-2.920166,-35.657593,-21.483765,,,,,,
1478502862.09,0.493688,1.508726,2.990865,0.061704,0.018467,-0.110392,0.029395,-0.998074,-0.054624,-0.041312,0.001919,-0.055484,-2.544434,-35.357788,-21.481079,,,,,,
1478502862.11,0.498547,1.507073,2.986391,0.005380,0.031435,-0.126682,0.030449,-0.997970,-0.055929,-0.039253,0.002105,-0.056681,-2.394226,-35.658569,-21.029785,,,,,,
1478502862.13,0.501256,1.504107,2.984442,-0.049813,0.059287,-0.145119,0.032022,-0.997777,-0.058442,-0.034830,-0.013118,-0.058059,-2.394226,-35.658569,-21.029785,,,,,,
1478502862.15,0.500501,1.500093,2.986880,-0.099554,0.113709,-0.168888,0.033900,-0.997502,-0.061979,-0.045435,-0.005596,-0.061266,-2.619812,-35.507812,-21.481567,,,,,,
1478502862.17,0.493779,1.495122,2.996474,-0.137528,0.176603,-0.195796,0.035832,-0.997138,-0.066572,-0.064916,-0.015878,-0.073992,-2.243469,-35.283508,-21.103882,,,,,,
1478502862.20,0.500285,1.489603,2.994022,-0.202261,0.228988,-0.211104,0.038904,-0.996706,-0.071165,-0.098047,-0.023024,-0.080996,-2.168945,-35.358337,-21.253296,,,,,,
1478502862.22,0.512931,1.482857,2.986108,-0.333447,0.241052,-0.179909,0.043099,-0.996136,-0.076524,-0.109551,-0.028522,-0.082824,-2.019348,-35.282959,-21.552124,,,,,,
1478502862.24,0.484564,1.473552,3.019826,-0.488945,0.293608,-0.157418,0.045227,-0.995276,-0.085913,-0.085052,-0.051325,-0.077874,-2.019348,-35.282959,-21.552124,,,,,,
1478502862.26,0.469544,1.462105,3.041150,-0.611343,0.313154,-0.164507,0.049084,-0.994099,-0.096738,-0.119473,-0.101421,-0.074985,-1.868774,-35.283447,-21.251099,,,,,,
1478502862.28,0.440151,1.448555,3.076518,-0.751508,0.290069,-0.080082,0.051955,-0.992538,-0.110315,-0.134291,-0.075288,-0.043081,-1.718689,-34.832764,-21.775146,,,,,,
1478502862.30,0.394179,1.433656,3.130308,-0.872364,0.445391,0.082951,0.052504,-0.990611,-0.126227,-0.086317,-0.080861,-0.001214,-1.119080,-34.381958,-22.520874,,,,,,
1478502862.32,0.336899,1.417590,-3.082369,-0.976746,0.739933,0.244797,0.050446,-0.988287,-0.144029,-0.032014,-0.118128,0.017136,-0.895203,-33.704956,-23.944458,,,,,,
1478502862.34,0.284826,1.399775,-3.012348,-1.055084,0.912385,0.262201,0.047822,-0.985411,-0.163332,-0.004410,-0.099611,-0.001295,-0.895203,-33.704956,-23.944458,,,,,,
1478502862.36,0.250142,1.379848,-2.956882,-1.128666,1.057348,0.184932,0.046981,-0.981825,-0.183884,0.057588,-0.046328,-0.000046,-1.494141,-33.029175,-24.249268,,,,,,
1478502862.38,0.235404,1.358265,-2.919235,-1.146771,1.133119,0.055913,0.049198,-0.977500,-0.205118,0.122113,0.009025,0.037195,-1.119690,-32.502991,-25.146729,,,,,,
1478502862.40,0.236544,1.335946,-2.898963,-1.128148,1.019560,-0.089648,0.054531,-0.972549,-0.226218,0.134296,0.002105,0.108298,-0.968262,-31.602417,-25.596069,,,,,,
1478502862.42,0.246199,1.315509,-2.889543,-0.956709,0.872415,-0.159803,0.061545,-0.967591,-0.244909,0.110803,0.022858,0.075307,0.755981,-30.701050,-27.083618,,,,,,
1478502862.44,0.257473,1.298130,-2.886011,-0.812511,0.671019,-0.162962,0.068574,-0.963056,-0.260423,0.071578,0.009641,0.058732,0.755981,-30.701050,-27.083618,,,,,,
1478502862.46,0.262169,1.283066,-2.878271,-0.729503,0.579185,-0.036709,0.073548,-0.958890,-0.274080,0.023559,-0.005785,0.071382,0.905701,-30.250000,-27.832764,,,,,,
1478502862.48,0.257849,1.270407,-2.862513,-0.640049,0.528666,0.110761,0.075453,-0.955221,-0.286110,-0.015105,0.010977,0.088158,1.506409,-29.649719,-28.203491,,,,,,
1478502862.50,0.249940,1.260042,-2.842792,-0.544448,0.564389,0.175102,0.075633,-0.952103,-0.296275,-0.012278,0.033112,0.096111,1.882507,-28.899414,-28.576050,,,,,,
1478502862.52,0.243554,1.251674,-2.823720,-0.447482,0.600192,0.191547,0.075658,-0.949511,-0.304475,0.000148,0.044558,0.090028,2.032532,-28.674011,-28.875122,,,,,,
1478502862.54,0.237624,1.245349,-2.805176,-0.341283,0.568954,0.227307,0.075263,-0.947508,-0.310749,0.017708,0.064726,0.068317,2.032532,-28.674011,-28.875122,,,,,,
1478502862.56,0.230831,1.240946,-2.787096,-0.255467,0.478265,0.252399,0.074104,-0.946091,-0.315310,0.044472,0.076645,0.033465,2.330872,-28.898315,-29.397705,,,,,,
1478502862.58,0.221139,1.238187,-2.768864,-0.173032,0.310001,0.263754,0.071617,-0.945194,-0.318559,0.067467,0.080707,-0.000624,2.406189,-28.898621,-29.247192,,,,,,
1478502862.60,0.213598,1.235186,-2.756556,-0.120649,0.092920,0.282461,0.069814,-0.944210,-0.321861,0.081355,0.090251,-0.011910,2.556274,-28.447937,-29.771240,,,,,,
1478502862.62,0.195749,1.234893,-2.737579,-0.053224,-0.047708,0.324561,0.064112,-0.944113,-0.323327,0.094076,0.106833,-0.027915,2.256104,-28.673157,-29.548340,,,,,,
1478502862.64,0.179108,1.233379,-2.721929,0.027128,-0.170275,0.351796,0.058977,-0.943613,-0.325755,0.072157,0.114404,-0.055470,2.256104,-28.673157,-29.548340,,,,,,
1478502862.66,0.155273,1.236022,-2.701252,0.098086,-0.247094,0.375722,0.050811,-0.944485,-0.324603,0.056992,0.116039,-0.055234,1.655640,-28.822754,-29.627808,,,,,,
1478502862.68,0.128733,1.239992,-2.678357,0.169199,-0.247398,0.417629,0.041698,-0.945781,-0.322116,0.069295,0.136699,-0.034069,1.431091,-28.898010,-29.329468,,,,,,
1478502862.70,0.100501,1.244048,-2.654303,0.237646,-0.338121,0.493719,0.032203,-0.947091,-0.319346,0.099511,0.116586,-0.047811,0.381226,-28.747375,-29.412354,,,,,,
1478502862.72,0.063515,1.250968,-2.624150,0.343663,-0.462874,0.506201,0.019956,-0.949289,-0.313770,0.121462,0.107935,-0.065075,-0.143982,-28.972351,-29.266235,,,,,,
1478502862.74,0.025916,1.258958,-2.595259,0.415050,-0.538510,0.461999,0.007950,-0.951771,-0.306706,0.097305,0.079441,-0.073345,-0.143982,-28.972351,-29.266235,,,,,,
1478502862.76,-0.011198,1.268096,-2.567250,0.481586,-0.503539,0.403764,-0.003338,-0.954535,-0.298080,0.032101,0.015631,-0.087586,-0.518555,-29.047546,-28.968994,,,,,,
1478502862.78,-0.042573,1.278325,-2.543260,0.573288,-0.367562,0.295482,-0.012271,-0.957534,-0.288058,-0.013852,-0.000687,-0.077527,-1.493652,-29.122192,-28.901367,,,,,,
1478502862.80,-0.067665,1.290429,-2.522447,0.648712,-0.199754,0.253061,-0.018709,-0.960954,-0.276075,-0.105497,0.057191,-0.097017,-2.018555,-29.422607,-28.455078,,,,,,
1478502862.82,-0.091020,1.303778,-2.499506,0.745336,0.023183,0.258576,-0.023983,-0.964562,-0.262764,-0.146000,0.148217,-0.122398,-2.618408,-29.722961,-28.009521,,,,,,
1478502862.84,-0.116148,1.320762,-2.471426,0.991715,0.146733,0.281031,-0.028675,-0.968904,-0.245770,-0.106808,0.268525,-0.108295,-2.618408,-29.722961,-28.009521,,,,,,
1478502862.86,-0.153170,1.343642,-2.427317,1.375115,0.414168,0.448793,-0.034360,-0.974311,-0.222569,-0.123294,0.070930,-0.037349,-3.067932,-29.723083,-27.787842,,,,,,
1478502862.88,-0.205562,1.373066,-2.356370,1.561154,1.141892,0.407192,-0.040098,-0.980515,-0.192309,-0.272357,-1.090927,0.088213,-3.593323,-30.248535,-27.341431,,,,,,
1478502862.90,-0.246007,1.387281,-2.284476,0.302703,1.790867,0.650511,-0.044442,-0.983208,-0.176992,-0.295326,-1.624503,-0.119074,-3.443298,-31.676270,-25.539673,,,,,,
1478502862.92,-0.278216,1.378442,-2.215429,-0.353520,1.642938,0.736548,-0.052503,-0.981557,-0.183819,0.249616,-0.336009,-0.018146,-2.695190,-32.201233,-25.833618,,,,,,
1478502862.94,-0.308997,1.378902,-2.161937,0.562735,0.705357,0.197987,-0.057998,-0.981645,-0.181687,0.696792,0.975694,0.323822,-2.695190,-32.201233,-25.833618,,,,,,
1478502862.96,-0.290171,1.404323,-2.178602,1.500987,-0.085688,-0.880378,-0.047411,-0.986175,-0.158778,1.126772,1.554733,0.419718,-2.770325,-32.125977,-25.984253,,,,,,
1478502862.98,-0.259394,1.442010,-2.219865,1.816423,-0.809046,-0.619934,-0.032942,-0.991718,-0.124134,0.397200,0.617542,0.334614,-1.797058,-33.177124,-25.526489,,,,,,
1478502863.00,-0.368665,1.476030,-2.137327,1.689654,-1.660622,0.259992,-0.034100,-0.995513,-0.088267,-0.411792,-0.584443,0.257746,-2.396484,-33.853516,-24.405640,,,,,,
1478502863.02,-0.660787,1.494574,-1.872599,1.149792,-1.144752,0.508527,-0.046735,-0.997097,-0.060120,-0.686053,-0.914723,0.221329,-2.996338,-34.379333,-23.659912,,,,,,
1478502863.04,-0.903282,1.504133,-1.643778,0.820995,-0.504056,0.123590,-0.052316,-0.997779,-0.041237,-0.402762,-0.073770,0.057426,-2.996338,-34.379333,-23.659912,,,,,,
1478502863.06,-1.125102,1.511509,-1.425740,0.782710,-0.039176,0.032189,-0.053464,-0.998243,-0.025543,-0.149706,0.296125,0.089477,-3.970520,-34.830322,-22.691895,,,,,,
1478502863.08,-1.407151,1.515294,-1.140343,0.881109,0.186841,0.096256,-0.054733,-0.998460,-0.009038,-0.058853,0.253877,0.111500,-4.795532,-35.581238,-21.797852,,,,,,
1478502863.10,-1.734727,1.512377,-0.811739,0.967013,-0.114420,0.159992,-0.057603,-0.998294,0.009528,0.047960,0.066104,0.072457,-4.571655,-36.256836,-21.495850,,,,,,
1478502863.12,-2.039689,1.503696,-0.514044,1.060653,-0.574940,0.089887,-0.059813,-0.997750,0.030300,0.090468,-0.028434,0.053761,-5.246094,-36.557434,-20.825684,,,,,,
1478502863.14,-2.289947,1.490033,-0.280120,1.122104,-0.987627,0.083401,-0.060698,-0.996740,0.053145,0.064192,0.037252,0.012804,-5.246094,-36.557434,-20.825684,,,,,,
1478502863.16,-2.468480,1.472544,-0.122348,1.113133,-1.083313,0.101594,-0.061155,-0.995177,0.076699,-0.012057,0.080336,0.030097,-4.946472,-37.158325,-20.298218,,,,,,
1478502863.18,-2.586348,1.454175,-0.023079,1.026647,-0.868244,0.082695,-0.061338,-0.993207,0.098877,-0.028307,0.030668,0.083404,-6.220581,-37.834839,-18.957397,,,,,,
1478502863.20,-2.667758,1.437265,0.045218,0.911922,-0.574341,0.024134,-0.060749,-0.991098,0.118466,-0.000240,0.020074,0.117328,-6.594543,-38.135986,-18.060059,,,,,,
1478502863.22,-2.726989,1.422176,0.095209,0.795353,-0.456960,-0.008620,-0.059648,-0.988976,0.135529,0.014238,-0.039436,0.096878,-7.344421,-38.586426,-17.465332,,,,,,
1478502863.24,-2.772697,1.408584,0.133347,0.715788,-0.375889,-0.016632,-0.058235,-0.986872,0.150637,0.016808,0.003764,0.042768,-7.344421,-38.586426,-17.465332,,,,,,
1478502863.26,-2.808287,1.396002,0.161817,0.660214,-0.394877,0.001188,-0.056896,-0.984762,0.164335,0.027172,-0.007929,0.013964,-6.519348,-38.737183,-17.234131,,,,,,
1478502863.28,-2.842190,1.382689,0.186665,0.744901,-0.558866,-0.004484,-0.055156,-0.982360,0.178681,0.032862,0.003432,-0.008392,-7.344238,-39.413086,-16.339966,,,,,,
1478502863.30,-2.878225,1.366991,0.210050,0.870062,-0.711304,-0.002499,-0.052691,-0.979303,0.195419,0.045672,0.026514,-0.000121,-7.193726,-39.639038,-15.813843,,,,,,
1478502863.32,-2.913801,1.349530,0.229836,0.905549,-0.878375,0.021369,-0.049561,-0.975620,0.213796,0.065232,-0.051937,-0.036885,-7.119019,-40.089722,-15.362915,,,,,,
1478502863.34,-2.945113,1.332311,0.242594,0.853820,-0.995206,0.051069,-0.046116,-0.971697,0.231686,0.063985,-0.075651,-0.106625,-7.119019,-40.089722,-15.362915,,,,,,
1478502863.36,-2.971782,1.316476,0.248861,0.766071,-1.058758,0.078361,-0.042517,-0.967834,0.247969,0.078940,-0.083313,-0.164031,-6.968384,-40.315674,-14.761719,,,,,,
1478502863.38,-2.996642,1.302493,0.251642,0.662421,-1.155162,0.074744,-0.038291,-0.964222,0.262316,0.056754,-0.049526,-0.220248,-7.791748,-40.617065,-13.567871,,,,,,
1478502863.40,-3.019637,1.290629,0.250637,0.551123,-1.237788,0.109387,-0.033639,-0.961009,0.274463,0.011865,-0.068959,-0.277225,-8.241089,-40.917847,-12.895996,,,,,,
1478502863.42,-3.040515,1.281112,0.245455,0.404707,-1.333035,0.131082,-0.028824,-0.958334,0.284191,-0.099487,-0.125192,-0.294888,-8.465637,-40.918030,-12.672729,,,,,,
1478502863.44,-3.061243,1.275506,0.239618,0.190915,-1.305695,0.092608,-0.023358,-0.956718,0.290078,-0.135196,-0.090890,-0.242120,-8.465637,-40.918030,-12.672729,,,,,,
1478502863.46,-3.082025,1.274289,0.235415,-0.022743,-1.223089,0.063632,-0.017394,-0.956363,0.291663,-0.044343,-0.042508,-0.242698,-9.216309,-41.292908,-12.528198,,,,,,
1478502863.48,-3.099229,1.276765,0.228218,-0.177504,-1.199305,0.123422,-0.012274,-0.957083,0.289553,0.033926,0.020255,-0.349825,-9.591431,-41.217468,-12.681030,,,,,,
1478502863.50,-3.121611,1.282145,0.225430,-0.377959,-1.302489,-0.076584,-0.005688,-0.958629,0.284603,-0.177433,-0.236684,-0.247539,-10.266357,-40.991821,-12.911133,,,,,,
1478502863.52,3.125325,1.297119,0.236828,-0.974511,-1.132439,-0.155700,0.004397,-0.962784,0.270238,-0.294497,-0.480744,0.013240,-10.044250,-41.590942,-13.584229,,,,,,
1478502863.54,3.099023,1.322284,0.249847,-1.439920,-0.453740,-0.138001,0.010467,-0.969279,0.245739,-0.123611,-0.349721,0.019855,-10.044250,-41.590942,-13.584229,,,,,,
1478502863.56,3.074536,1.355928,0.269755,-1.857695,-0.189799,-0.133247,0.014287,-0.977004,0.212740,-0.026601,-0.365342,-0.031023,-9.373291,-41.062195,-16.279419,,,,,,
1478502863.58,3.038006,1.397083,0.302931,-2.218853,-0.232180,-0.154328,0.017872,-0.984950,0.171915,0.133556,-0.210943,-0.172098,-9.300232,-40.609863,-17.854004,,,,,,
1478502863.60,2.971454,1.442256,0.364737,-2.329832,-0.280730,-0.151670,0.021705,-0.991750,0.126336,0.239831,-0.097026,-0.098245,-8.853149,-40.082031,-19.951050,,,,,,
1478502863.62,2.838889,1.484751,0.492445,-2.158176,-0.286556,-0.177330,0.025619,-0.996300,0.082032,0.199876,-0.082725,0.093139,-8.407227,-39.703369,-22.497803,,,,,,
1478502863.64,2.542459,1.520480,0.783344,-1.987563,-0.318164,-0.050734,0.028363,-0.998734,0.041535,0.050586,-0.126418,0.172760,-8.407227,-39.703369,-22.497803,,,,,,
1478502863.66,1.612348,1.545380,1.709388,-2.081704,-0.130283,0.288038,0.025392,-0.999677,0.001056,-0.121537,-0.209719,0.159040,-6.910400,-37.222107,-27.137939,,,,,,
1478502863.68,0.359033,1.525739,2.965951,-2.241987,0.277941,0.594177,0.015826,-0.998985,-0.042170,-0.192859,-0.219032,0.102397,-6.685974,-35.944458,-29.011841,,,,,,
1478502863.70,0.039935,1.482372,-2.987109,-2.370910,0.667379,0.645036,0.003526,-0.996093,-0.088239,-0.117005,-0.071976,0.194532,-6.461731,-34.891968,-30.735596,,,,,,
1478502863.72,-0.033880,1.434975,-2.895858,-2.380158,0.943190,0.403989,-0.004587,-0.990790,-0.135326,-0.064978,0.061530,0.247433,-5.411499,-33.089233,-32.903687,,,,,,
1478502863.74,-0.030762,1.388102,-2.878223,-2.337430,1.070077,0.115551,-0.005588,-0.983358,-0.181593,-0.051968,0.098089,0.212386,-5.411499,-33.089233,-32.903687,,,,,,
1478502863.76,-0.006701,1.342604,-2.880784,-2.253421,1.087057,-0.021334,-0.001516,-0.974077,-0.226212,-0.045237,0.062013,0.169327,-2.033752,-29.110596,-36.480347,,,,,,
1478502863.78,0.014954,1.299891,-2.880788,-2.074652,1.099166,0.017952,0.004002,-0.963529,-0.267574,-0.017628,0.004514,0.177670,-0.381775,-27.234436,-37.818848,,,,,,
1478502863.80,0.027699,1.262026,-2.870645,-1.805947,1.137361,0.170530,0.008416,-0.952708,-0.303771,0.006781,0.021342,0.188430,1.647522,-25.284973,-38.104614,,,,,,
1478502863.82,0.029377,1.229825,-2.849265,-1.525137,1.065930,0.370179,0.009822,-0.942430,-0.334258,0.018208,0.094866,0.186340,3.375549,-23.559875,-38.767456,,,,,,
1478502863.84,0.022304,1.203288,-2.821656,-1.239937,0.866009,0.477436,0.008013,-0.933225,-0.359202,0.032575,0.181700,0.192393,3.375549,-23.559875,-38.767456,,,,,,
1478502863.86,0.011174,1.182780,-2.795269,-0.915978,0.551371,0.455211,0.004228,-0.925662,-0.378329,0.045836,0.254275,0.231814,6.980957,-21.461792,-38.666504,,,,,,
1478502863.88,-0.001233,1.168964,-2.773993,-0.560680,0.263310,0.376700,-0.000482,-0.920346,-0.391105,0.058359,0.311597,0.295463,8.183655,-20.938416,-37.982788,,,,,,
1478502863.90,-0.013227,1.162381,-2.757325,-0.193202,0.135716,0.313980,-0.005253,-0.917751,-0.397121,0.055882,0.334393,0.342693,8.336487,-20.414673,-37.231812,,,,,,
1478502863.92,-0.024233,1.162647,-2.741947,0.147920,0.181407,0.304075,-0.009617,-0.917857,-0.396795,0.029622,0.310145,0.340398,9.162842,-20.340881,-36.625732,,,,,,
1478502863.94,-0.035549,1.170006,-2.725720,0.515237,0.155729,0.324229,-0.013866,-0.920753,-0.389900,-0.014149,0.240760,0.282997,9.162842,-20.340881,-36.625732,,,,,,
1478502863.96,-0.055159,1.183189,-2.702121,0.770574,0.089717,0.512020,-0.020838,-0.925816,-0.377400,-0.047186,0.146153,0.143955,9.990295,-20.869141,-34.744263,,,,,,
1478502863.98,-0.088992,1.200450,-2.661461,1.009388,0.351031,0.799285,-0.032167,-0.932202,-0.360506,-0.054442,0.063779,0.022356,10.215332,-21.695862,-33.692139,,,,,,
1478502864.00,-0.124230,1.219999,-2.604805,1.100446,1.283022,0.893154,-0.042582,-0.939099,-0.340999,-0.092367,0.006039,-0.024678,10.141602,-22.072571,-32.567505,,,,,,
1478502864.02,-0.139813,1.237381,-2.554025,0.846908,1.698966,0.613294,-0.045608,-0.944930,-0.324078,-0.106965,-0.122620,-0.359210,10.367432,-24.402588,-29.264648,,,,,,
1478502864.04,-0.139629,1.244340,-2.520360,0.154124,1.579276,0.428705,-0.044632,-0.947185,-0.317568,-0.094070,-0.464375,-0.730040,10.367432,-24.402588,-29.264648,,,,,,
1478502864.06,-0.123761,1.242471,-2.505435,-0.105719,1.432815,0.161375,-0.039806,-0.946584,-0.319992,-0.024952,-0.297176,-0.482925,10.369934,-24.479614,-27.914673,,,,,,
1478502864.08,-0.125784,1.244585,-2.487226,0.363755,0.295381,0.429682,-0.040202,-0.947263,-0.317925,0.161799,-0.054248,-0.237693,10.820679,-24.856079,-27.086060,,,,,,
1478502864.10,-0.163814,1.264689,-2.444963,1.561818,0.185177,0.434305,-0.049145,-0.953514,-0.297315,0.202831,0.043037,0.201612,10.372131,-25.082458,-26.039307,,,,,,
1478502864.12,-0.196115,1.295046,-2.397885,1.314996,1.000234,0.496642,-0.053054,-0.962221,-0.267050,-0.414704,-0.808576,0.113531,8.347656,-26.734924,-23.728638,,,,,,
1478502864.14,-0.223378,1.296394,-2.331203,-0.200436,2.217429,0.926100,-0.060027,-0.962587,-0.264240,-0.417146,-1.320646,0.166782,8.347656,-26.734924,-23.728638,,,,,,
1478502864.16,-0.207844,1.299756,-2.305268,0.747419,1.920531,-0.048643,-0.055247,-0.963493,-0.261972,0.097529,0.404823,0.774469,7.972778,-27.335938,-22.906128,,,,,,
1478502864.18,-0.156214,1.329405,-2.326054,1.716200,1.388133,-0.753595,-0.037192,-0.971006,-0.236143,0.556418,1.181410,0.826963,7.898560,-27.336487,-22.531738,,,,,,
1478502864.20,-0.083796,1.369200,-2.374352,1.970509,1.202119,-0.639077,-0.016759,-0.979748,-0.199531,0.596792,1.021817,0.417762,8.124207,-27.637634,-21.854858,,,,,,
1478502864.22,-0.072850,1.408438,-2.367641,1.997750,0.783751,0.222890,-0.011766,-0.986849,-0.161217,0.084535,0.044283,0.354256,8.574646,-29.216064,-19.675781,,,,,,
1478502864.24,-0.137139,1.446112,-2.292529,1.824882,0.202663,0.284565,-0.017001,-0.992237,-0.123194,-0.167569,-0.895855,0.172449,8.574646,-29.216064,-19.675781,,,,,,
1478502864.26,-0.209528,1.474815,-2.223747,1.327829,-0.372618,0.061294,-0.019933,-0.995397,-0.093738,-0.154047,-0.389338,0.024967,8.275146,-29.817505,-18.627563,,,,,,
1478502864.28,-0.313296,1.500172,-2.130323,1.366235,-0.647047,0.069374,-0.021748,-0.997507,-0.067131,-0.052760,0.283335,-0.007179,8.350708,-30.268799,-17.801880,,,,,,
1478502864.30,-0.568535,1.524543,-1.886127,1.422660,-0.482616,0.167368,-0.024894,-0.998931,-0.038963,0.047156,0.380980,0.070473,7.974915,-30.944214,-17.354248,,,,,,
1478502864.32,-1.232524,1.538860,-1.227709,1.410853,-0.250006,0.311721,-0.030121,-0.999490,-0.010596,0.031327,0.116952,0.048591,6.324158,-32.370544,-15.941040,,,,,,
1478502864.34,-2.013255,1.531521,-0.454172,1.340369,-0.504728,0.196756,-0.035484,-0.999229,0.016812,-0.019798,-0.088906,0.059802,6.324158,-32.370544,-15.941040,,,,,,
1478502864.36,-2.437055,1.515177,-0.042515,1.205834,-0.670825,-0.017695,-0.036005,-0.998454,0.042355,-0.061423,-0.096609,0.096348,6.325012,-32.671814,-15.115845,,,,,,
1478502864.38,-2.652406,1.496601,0.159838,1.125857,-0.676961,-0.008544,-0.034833,-0.997249,0.065433,-0.108004,0.039241,0.055065,6.400696,-33.048035,-14.290161,,,,,,
1478502864.40,-2.772819,1.474450,0.267198,1.269172,-0.676505,0.072080,-0.034676,-0.995362,0.089730,-0.113868,0.120606,0.065009,6.400269,-33.348328,-14.139893,,,,,,
1478502864.42,-2.853047,1.448666,0.334293,1.374763,-0.668315,0.056680,-0.034667,-0.992551,0.116790,-0.076127,0.095060,0.084290,5.574768,-34.549622,-12.945557,,,,,,
1478502864.44,-2.915282,1.422370,0.385148,1.350179,-0.541568,-0.029872,-0.033182,-0.989005,0.144111,-0.045004,0.032309,0.107765,5.574768,-34.549622,-12.945557,,,,,,
1478502864.46,-2.964815,1.398008,0.426183,1.205106,-0.401717,-0.091558,-0.030235,-0.985109,0.169250,-0.038368,-0.028944,0.093674,5.200684,-34.925903,-11.973267,,,,,,
1478502864.48,-3.000166,1.376563,0.455891,1.071459,-0.267296,-0.109529,-0.027207,-0.981196,0.191087,-0.030701,-0.023839,0.051878,5.500854,-35.527344,-11.145630,,,,,,
1478502864.50,-3.029369,1.356273,0.479965,1.046878,-0.303350,-0.117061,-0.023840,-0.977078,0.211542,0.021460,0.003720,-0.027643,5.727539,-36.054688,-9.643555,,,,,,
1478502864.52,-3.055718,1.335127,0.498799,1.097241,-0.481100,-0.093095,-0.020027,-0.972358,0.232634,0.060066,0.008766,-0.093748,5.503418,-36.430969,-8.745117,,,,,,
1478502864.54,-3.080195,1.313298,0.509949,1.108386,-0.826780,-0.024379,-0.015626,-0.967030,0.254183,0.062058,-0.062313,-0.168398,5.503418,-36.430969,-8.745117,,,,,,
1478502864.56,-3.101009,1.291783,0.509860,1.063837,-1.167053,0.095118,-0.011174,-0.961328,0.275180,0.072591,-0.113456,-0.205463,5.354736,-36.431824,-8.071289,,,,,,
1478502864.58,-3.122014,1.271116,0.504972,1.018495,-1.347631,0.089822,-0.005780,-0.955431,0.295158,0.059689,-0.063414,-0.250709,5.130554,-36.732971,-7.322754,,,,,,
1478502864.60,3.133999,1.252013,0.504526,0.916904,-1.412959,-0.055409,0.002380,-0.949618,0.313402,-0.064224,-0.038297,-0.272020,4.607666,-37.109985,-5.751465,,,,,,
1478502864.62,3.095133,1.237052,0.515430,0.622940,-1.448861,-0.256031,0.015214,-0.944822,0.327229,-0.227540,-0.150713,-0.182088,4.458130,-37.561035,-5.002441,,,,,,
1478502864.64,3.055608,1.229126,0.528054,0.266056,-1.317070,-0.181549,0.028775,-0.942196,0.333823,-0.159222,-0.211368,-0.161384,4.458130,-37.561035,-5.002441,,,,,,
1478502864.66,3.030524,1.225035,0.530345,0.192294,-1.085369,-0.010922,0.037565,-0.940818,0.336825,-0.016173,-0.133874,-0.345904,3.935181,-37.261780,-4.331543,,,,,,
1478502864.68,3.007559,1.221855,0.531754,0.100106,-1.108296,-0.102941,0.045689,-0.939735,0.338837,-0.158116,-0.260002,-0.395493,3.708679,-37.861694,-4.333008,,,,,,
1478502864.70,2.969193,1.225444,0.547889,-0.488118,-1.164554,-0.277472,0.058074,-0.940956,0.333510,-0.326872,-0.551201,-0.166976,3.634460,-38.087646,-3.658325,,,,,,
1478502864.72,2.933178,1.243944,0.569619,-1.277131,-0.493534,-0.133799,0.066431,-0.947057,0.314116,-0.179483,-0.411707,-0.188994,3.032837,-38.161316,-4.337891,,,,,,
1478502864.74,2.896550,1.276198,0.604793,-1.931397,-0.029912,-0.189196,0.070440,-0.956919,0.281682,-0.112218,-0.377600,-0.189824,3.032837,-38.161316,-4.337891,,,,,,
1478502864.76,2.837254,1.318047,0.666423,-2.432574,0.016484,-0.256955,0.074936,-0.968229,0.238575,0.081925,-0.177630,-0.235935,3.104919,-38.610046,-5.237061,,,,,,
1478502864.78,2.739677,1.365847,0.765638,-2.726462,-0.129396,-0.190219,0.079612,-0.979071,0.187300,0.202935,-0.075464,-0.171858,2.502258,-38.607727,-6.591553,,,,,,
1478502864.80,2.594060,1.412144,0.907785,-2.574839,-0.362989,-0.035743,0.082245,-0.987441,0.134891,0.170593,-0.166383,0.062268,2.344360,-38.827087,-10.267578,,,,,,
1478502864.82,2.382666,1.451367,1.114911,-2.384643,-0.250101,0.106709,0.081989,-0.992877,0.086449,0.037197,-0.313199,0.238884,2.115601,-38.598694,-12.444458,,,,,,
1478502864.84,2.037390,1.485224,1.459795,-2.473205,-0.014372,0.431600,0.076332,-0.996341,0.038447,-0.165138,-0.347989,0.177342,2.115601,-38.598694,-12.444458,,,,,,
1478502864.86,1.373162,1.506094,2.130045,-2.665548,0.392864,0.753531,0.063399,-0.997908,-0.012696,-0.229216,-0.221819,0.183258,1.138489,-38.220947,-13.952026,,,,,,
1478502864.88,0.628426,1.488217,2.891221,-2.826803,0.915365,0.767818,0.048491,-0.996592,-0.066727,-0.169935,-0.095311,0.252152,0.460022,-37.917480,-16.057129,,,,,,
1478502864.90,0.296853,1.441977,-3.036681,-2.913035,1.193470,0.573182,0.037577,-0.991714,-0.122845,-0.148478,-0.004044,0.292980,0.005066,-36.485779,-20.336426,,,,,,
1478502864.92,0.185343,1.387220,-2.897539,-2.928948,1.351333,0.309923,0.033640,-0.983197,-0.179421,-0.166071,0.010480,0.325463,-0.595947,-35.282471,-22.366455,,,,,,
1478502864.94,0.147172,1.331878,-2.830595,-2.792792,1.410613,0.205195,0.034703,-0.971595,-0.234094,-0.154118,-0.030969,0.331353,-0.595947,-35.282471,-22.366455,,,,,,
1478502864.96,0.133881,1.281174,-2.786990,-2.484909,1.466971,0.235543,0.038121,-0.958352,-0.283035,-0.141927,-0.040901,0.342758,-0.671936,-33.929138,-24.542603,,,,,,
1478502864.98,0.126377,1.237552,-2.747765,-2.116014,1.503795,0.379092,0.041229,-0.944986,-0.324502,-0.100021,-0.003546,0.371727,0.600525,-31.899048,-28.359253,,,,,,
1478502865.00,0.116481,1.202009,-2.706131,-1.697677,1.439459,0.561433,0.041895,-0.932765,-0.358042,-0.018000,0.112224,0.364314,0.076416,-30.546997,-29.563721,,,,,,
1478502865.02,0.103315,1.175407,-2.663804,-1.252809,1.225177,0.681299,0.039723,-0.922847,-0.383114,-0.000477,0.176966,0.373058,1.874939,-29.945740,-31.050537,,,,,,
1478502865.04,0.087257,1.157959,-2.624028,-0.760761,0.918427,0.700437,0.034964,-0.915986,-0.399683,0.014429,0.236528,0.425226,1.874939,-29.945740,-31.050537,,,,,,
,,,,,,,,,,,,,,,,37.392599,-122.003837,10.837952,-1.000000,-1.000000,1478502865.04
1478502865.06,0.069622,1.150861,-2.589272,-0.199127,0.597740,0.657174,0.028362,-0.913115,-0.406714,0.024433,0.313582,0.496618,2.025940,-29.270142,-31.424805,,,,,,
,,,,,,,,,,,,,,,,37.392598,-122.003840,10.837952,-1.000000,-1.000000,1478502865.06
,,,,,,,,,,,,,,,,37.392598,-122.003841,10.837952,-1.000000,-1.000000,1478502865.07
1478502865.08,0.051064,1.155349,-2.559865,0.436302,0.318319,0.590834,0.020600,-0.914936,-0.403073,0.018310,0.396305,0.550793,2.175781,-28.669006,-32.249023,,,,,,
,,,,,,,,,,,,,,,,37.392598,-122.003842,10.837952,-1.000000,-1.000000,1478502865.08
1478502865.10,0.031016,1.172396,-2.532306,1.051943,0.292929,0.594256,0.012031,-0.921683,-0.387758,-0.010306,0.448553,0.519502,1.351685,-28.669250,-31.805054,,,,,,
1478502865.12,0.006896,1.199509,-2.495323,1.517456,0.689698,0.820819,0.002502,-0.931861,-0.362807,-0.159332,0.394431,0.349730,2.322266,-30.319580,-31.947021,,,,,,
1478502865.14,-0.021163,1.232319,-2.441895,1.687329,1.325780,0.928299,-0.007027,-0.943261,-0.331977,-0.238792,0.193460,0.024879,2.322266,-30.319580,-31.947021,,,,,,
1478502865.16,-0.039120,1.260675,-2.389002,1.220396,1.830472,0.751452,-0.011935,-0.952297,-0.304940,-0.035932,-0.292790,-0.545218,1.872864,-30.770691,-31.050171,,,,,,
1478502865.18,-0.050747,1.273348,-2.332282,0.321392,2.370074,0.863850,-0.014867,-0.956088,-0.292704,-0.140391,-0.769697,-1.030859,1.947571,-32.648926,-28.873779,,,,,,
1478502865.20,-0.045868,1.270678,-2.283924,-0.281069,2.532084,0.532427,-0.013555,-0.955302,-0.295322,-0.176188,-0.482595,-0.620480,3.221619,-33.475403,-28.338745,,,,,,
1478502865.22,-0.025426,1.263672,-2.265112,-0.248017,1.429994,0.252194,-0.007686,-0.953207,-0.302221,0.115673,0.084158,-0.208994,4.420532,-33.550354,-28.779663,,,,,,
1478502865.24,-0.038818,1.268651,-2.235668,0.693385,0.454593,0.612266,-0.011548,-0.954700,-0.297345,0.190824,0.623341,0.261166,4.420532,-33.550354,-28.779663,,,,,,
1478502865.26,-0.079934,1.298326,-2.190409,1.817102,-0.011107,0.381766,-0.021488,-0.963109,-0.268252,0.082111,0.331975,0.475558,5.244568,-33.625244,-29.148438,,,,,,
1478502865.28,-0.119030,1.322126,-2.130945,0.516086,1.732273,1.059630,-0.029226,-0.969240,-0.244374,-0.565257,-1.421522,0.064000,4.343689,-35.202026,-27.654419,,,,,,
1478502865.30,-0.126006,1.309944,-2.069637,-0.495069,2.564978,0.359817,-0.032411,-0.966171,-0.255859,-0.435438,-1.776109,0.138489,4.792358,-36.328369,-26.900513,,,,,,
1478502865.32,-0.070959,1.319644,-2.083184,0.972409,1.787783,-0.502761,-0.017620,-0.968627,-0.247895,0.195843,0.597182,0.771760,6.067200,-36.253784,-27.041016,,,,,,
1478502865.34,0.037612,1.350835,-2.159111,1.841909,1.941298,-1.131594,0.008205,-0.975906,-0.218038,0.809788,1.462371,1.054082,6.067200,-36.253784,-27.041016,,,,,,
1478502865.36,0.194100,1.388417,-2.281020,2.068037,1.539031,-0.719906,0.034983,-0.983415,-0.177964,0.585439,1.299989,0.371079,7.642517,-36.329956,-26.804199,,,,,,
1478502865.38,0.268907,1.428843,-2.332479,2.058527,1.052056,0.529440,0.037587,-0.989942,-0.136392,-0.193196,0.045178,0.375665,10.795166,-37.761169,-23.704712,,,,,,
1478502865.40,0.298410,1.466401,-2.353603,1.655254,0.130239,0.107086,0.030637,-0.994556,-0.099601,-0.363767,-1.383664,0.241157,11.170654,-39.114258,-21.751343,,,,,,
1478502865.42,0.428190,1.491894,-2.483731,1.370307,-0.114024,-0.118717,0.032728,-0.996889,-0.071704,-0.349043,-0.472548,-0.025982,11.245911,-39.941101,-20.550415,,,,,,
1478502865.44,0.639116,1.517247,-2.699740,1.517660,-0.209534,0.114299,0.031926,-0.998567,-0.042959,0.013316,0.472383,0.001440,11.245911,-39.941101,-20.550415,,,,,,
1478502865.46,1.178706,1.539641,3.041459,1.584010,-0.049288,0.155935,0.028786,-0.999515,-0.011903,0.089912,0.311832,0.042024,11.097534,-41.069336,-18.375854,,,,,,
1478502865.48,2.216818,1.537984,2.001328,1.601094,-0.119430,0.110362,0.026195,-0.999462,0.019750,0.000340,0.063045,0.090236,11.023193,-41.520630,-17.476074,,,,,,
1478502865.50,2.673657,1.513767,1.541439,1.536023,-0.100886,-0.035860,0.025709,-0.998374,0.050871,-0.051878,-0.131371,0.182100,11.022888,-42.722656,-16.125610,,,,,,
1478502865.52,2.795452,1.486973,1.420618,1.322803,0.173320,-0.198188,0.028405,-0.996489,0.078759,-0.147577,-0.086183,0.154502,10.724792,-43.099670,-14.702637,,,,,,
1478502865.54,2.830647,1.461562,1.390832,1.257933,0.307687,-0.311586,0.033355,-0.994040,0.103790,-0.206664,0.036932,0.058839,10.724792,-43.099670,-14.702637,,,,,,
1478502865.56,2.854436,1.434180,1.372054,1.413913,0.215667,-0.263751,0.038573,-0.990682,0.130615,-0.220061,0.088949,-0.018814,11.402161,-43.778015,-12.672363,,,,,,
1478502865.58,2.885490,1.404835,1.344320,1.500507,0.192867,-0.154661,0.041847,-0.986260,0.159813,-0.155815,0.018776,-0.009117,11.479370,-43.854858,-11.471680,,,,,,
1478502865.60,2.912429,1.376041,1.321551,1.411287,0.252708,-0.163758,0.043962,-0.981095,0.188467,-0.084672,-0.025527,0.021113,12.080322,-44.231628,-10.491821,,,,,,
1478502865.62,2.925049,1.349316,1.314581,1.278983,0.312857,-0.267833,0.047198,-0.975573,0.214544,-0.030841,-0.020078,0.020564,12.232117,-44.458374,-9.365601,,,,,,
1478502865.64,2.928647,1.324570,1.317392,1.165159,0.301589,-0.300376,0.051513,-0.969839,0.238240,0.018311,0.013800,-0.024968,12.232117,-44.458374,-9.365601,,,,,,
1478502865.66,2.929249,1.301525,1.320832,1.127159,0.116706,-0.289659,0.056066,-0.963965,0.260054,0.053278,0.017157,-0.097563,12.761536,-44.462036,-7.111694,,,,,,
1478502865.68,2.926512,1.278453,1.319925,1.132052,-0.373659,-0.153694,0.061509,-0.957571,0.281557,0.081054,-0.046686,-0.201921,13.214172,-44.389038,-5.908447,,,,,,
1478502865.70,2.926817,1.255176,1.307822,1.204785,-0.705788,-0.045274,0.066156,-0.950604,0.303275,0.004110,-0.052539,-0.231894,12.990234,-44.690308,-5.009888,,,,,,
1478502865.72,2.923742,1.232136,1.293840,1.141269,-0.879953,-0.036842,0.071804,-0.943201,0.324372,-0.037350,-0.161521,-0.260239,12.840698,-44.916016,-4.485962,,,,,,
1478502865.74,2.913249,1.212846,1.285373,0.867726,-0.940600,-0.109574,0.079308,-0.936617,0.341261,-0.073632,-0.118834,-0.311751,12.840698,-44.916016,-4.485962,,,,,,
1478502865.76,2.889487,1.200129,1.289950,0.412695,-1.000466,-0.290819,0.090358,-0.932086,0.350787,-0.193385,-0.150479,-0.281420,13.219177,-44.843628,-2.833008,,,,,,
1478502865.78,2.860251,1.196372,1.301582,0.006734,-0.844109,-0.191096,0.101545,-0.930718,0.351358,-0.177305,-0.197913,-0.244973,12.994141,-44.993835,-2.684570,,,,,,
1478502865.80,2.840912,1.196497,1.306795,-0.038340,-0.686867,-0.050004,0.108286,-0.930764,0.349217,-0.064829,-0.137595,-0.396184,13.294495,-44.843933,-2.682373,,,,,,
1478502865.82,2.818510,1.198076,1.314310,-0.235382,-0.891201,-0.171064,0.115614,-0.931340,0.345309,-0.296156,-0.384196,-0.373965,13.818970,-44.768616,-3.053467,,,,,,
1478502865.84,2.776560,1.210471,1.340134,-1.076303,-0.742781,-0.196137,0.125864,-0.935782,0.329348,-0.484735,-0.566690,-0.165225,13.818970,-44.768616,-3.053467,,,,,,
1478502865.86,2.734336,1.238175,1.381403,-1.822672,0.116401,-0.122773,0.129333,-0.945190,0.299816,-0.164321,-0.372971,-0.166225,13.817505,-44.391785,-4.253906,,,,,,
1478502865.88,2.672514,1.276276,1.453113,-2.426029,0.405611,-0.239365,0.131226,-0.956941,0.258926,0.007629,-0.306318,-0.146225,13.889832,-44.915894,-4.927979,,,,,,
1478502865.90,2.572421,1.320274,1.565723,-2.759966,0.364068,-0.183654,0.133607,-0.968783,0.208827,0.116225,-0.172086,-0.093165,13.736633,-44.687988,-6.804199,,,,,,
1478502865.92,2.437403,1.362704,1.707617,-2.599500,0.071821,0.057185,0.133752,-0.978427,0.157453,0.185889,-0.265699,0.079928,14.332886,-44.384888,-9.049805,,,,,,
1478502865.94,2.268740,1.400829,1.881999,-2.508766,0.223156,0.283127,0.129597,-0.985590,0.108703,0.111629,-0.354589,0.157120,14.332886,-44.384888,-9.049805,,,,,,
1478502865.96,2.028703,1.436472,2.131658,-2.601533,0.376071,0.552768,0.120124,-0.990992,0.059202,-0.165305,-0.333410,0.125170,14.700500,-43.853577,-13.397461,,,,,,
1478502865.98,1.639280,1.464347,2.533379,-2.748122,0.599403,0.780490,0.106000,-0.994340,0.007271,-0.265088,-0.263275,0.219307,14.398254,-43.250549,-15.275024,,,,,,
1478502866.00,1.093310,1.468889,3.100931,-2.859151,1.157965,0.785456,0.090352,-0.994812,-0.046750,-0.165731,-0.165939,0.279630,13.570557,-42.647095,-17.381470,,,,,,
1478502866.02,0.661970,1.440853,-2.720016,-2.988586,1.516001,0.559591,0.079648,-0.991569,-0.102209,-0.115384,-0.081475,0.289312,13.492432,-40.841248,-21.208008,,,,,,
1478502866.04,0.439981,1.392150,-2.463035,-3.166764,1.651990,0.338054,0.075686,-0.984085,-0.160774,-0.093035,-0.025299,0.312599,13.492432,-40.841248,-21.208008,,,,,,
1478502866.06,0.338206,1.340273,-2.325620,-3.085062,1.627503,0.208667,0.075811,-0.973547,-0.215543,-0.099676,0.008596,0.309995,14.241882,-39.563782,-23.078003,,,,,,
1478502866.08,0.286690,1.287092,-2.240563,-2.736221,1.510441,0.236310,0.079154,-0.960025,-0.268489,-0.093879,0.061817,0.349925,14.992798,-37.986877,-24.573120,,,,,,
1478502866.10,0.253850,1.241138,-2.175960,-2.344478,1.400455,0.391918,0.081297,-0.946153,-0.313345,-0.057066,0.114274,0.388922,15.142639,-36.634338,-26.372681,,,,,,
1478502866.12,0.226108,1.203616,-2.120058,-1.882859,1.132931,0.528989,0.080479,-0.933343,-0.349848,0.001094,0.173333,0.387919,16.869263,-34.307068,-28.460938,,,,,,
1478502866.14,0.200270,1.175129,-2.071981,-1.419797,0.842143,0.592653,0.076674,-0.922740,-0.377720,0.029054,0.227168,0.400639,16.869263,-34.307068,-28.460938,,,,,,
1478502866.16,0.176474,1.155273,-2.032938,-0.945744,0.460075,0.551131,0.070868,-0.914905,-0.397399,0.043771,0.263080,0.407012,17.168457,-33.930847,-29.358887,,,,,,
1478502866.18,0.154546,1.144971,-2.004274,-0.394718,0.065090,0.458955,0.063585,-0.910698,-0.408149,0.050734,0.294854,0.442710,17.169006,-33.179871,-30.034180,,,,,,
1478502866.20,0.133006,1.145912,-1.984481,0.221194,-0.312078,0.392657,0.054666,-0.911086,-0.408575,0.040641,0.360534,0.509435,16.794678,-32.654175,-30.337402,,,,,,
1478502866.22,0.108248,1.159388,-1.968401,0.884603,-0.617302,0.437218,0.043204,-0.916559,-0.397560,0.007303,0.439187,0.543739,15.742676,-33.478760,-30.269897,,,,,,
1478502866.24,0.073114,1.184991,-1.944265,1.432822,-0.573827,0.698838,0.027489,-0.926496,-0.375300,-0.009147,0.463483,0.474772,15.742676,-33.478760,-30.269897,,,,,,
1478502866.26,0.030136,1.218886,-1.900448,1.762183,0.260262,0.966567,0.010386,-0.938716,-0.344535,-0.134043,0.370372,0.298484,15.441528,-34.304260,-29.821655,,,,,,
1478502866.28,-0.000939,1.251734,-1.846066,1.452228,1.547917,0.826648,-0.000295,-0.949530,-0.313676,-0.303493,0.117651,-0.027068,14.840637,-35.205017,-29.150757,,,,,,
1478502866.30,-0.014058,1.265383,-1.790635,0.103705,2.061372,0.917455,-0.004227,-0.953723,-0.300658,-0.338760,-0.919385,-1.403962,14.016357,-36.106812,-27.656494,,,,,,
1478502866.32,-0.016416,1.258398,-1.739892,-0.292315,2.389699,0.545398,-0.005045,-0.951599,-0.307300,-0.288977,-0.636291,-0.814252,15.293884,-36.560181,-25.846558,,,,,,
1478502866.34,0.012154,1.253806,-1.732578,-0.215638,1.151807,0.027164,0.003788,-0.950178,-0.311685,0.202419,-0.155550,-0.316229,15.293884,-36.560181,-25.846558,,,,,,
1478502866.36,-0.001817,1.257679,-1.716062,0.588106,-0.352739,0.469251,-0.000560,-0.951378,-0.308025,0.268168,0.288307,0.108059,16.043762,-37.011353,-25.315674,,,,,,
1478502866.38,-0.037482,1.287103,-1.680075,1.908342,0.283058,0.434022,-0.010489,-0.960028,-0.279707,0.261740,0.145255,0.601225,16.718628,-37.086731,-25.310669,,,,,,
1478502866.40,-0.067947,1.310916,-1.618442,0.334407,2.041072,1.151879,-0.017446,-0.966421,-0.256372,-0.626215,-1.024805,-0.262396,16.043701,-37.537231,-24.715454,,,,,,
1478502866.42,-0.125653,1.291563,-1.507506,-0.797919,2.371890,1.320796,-0.034541,-0.961267,-0.273445,-0.568852,-1.363348,0.254143,15.744141,-38.890076,-22.767090,,,,,,
1478502866.44,-0.104028,1.299290,-1.494812,1.023609,1.250743,-0.475007,-0.027848,-0.963368,-0.266733,0.169785,0.549046,1.057764,15.744141,-38.890076,-22.767090,,,,,,
1478502866.46,-0.020629,1.329019,-1.565697,1.597607,0.904553,-1.147283,-0.004939,-0.970914,-0.239378,0.812129,1.280088,1.103224,16.043030,-39.490356,-22.614624,,,,,,
1478502866.48,0.090611,1.362093,-1.649123,1.744351,1.534581,-0.581122,0.018748,-0.978300,-0.206341,0.689946,1.165404,0.161618,17.470276,-39.567932,-21.403809,,,,,,
1478502866.50,0.119448,1.403636,-1.653841,2.214301,0.996155,0.628358,0.019827,-0.986061,-0.165197,-0.121603,0.107948,0.337301,19.724915,-40.399170,-18.011353,,,,,,
1478502866.52,0.038811,1.443164,-1.566469,1.698980,-0.196029,0.596470,0.004939,-0.991866,-0.127191,-0.271434,-1.045991,0.158761,19.201538,-41.301819,-16.064941,,,,,,
1478502866.54,0.051000,1.470761,-1.586917,1.282164,-0.410978,-0.331607,0.005091,-0.995001,-0.099739,-0.191645,-0.726618,0.100761,19.201538,-41.301819,-16.064941,,,,,,
1478502866.56,0.156683,1.496545,-1.704477,1.408276,-0.592129,-0.327445,0.011576,-0.997245,-0.073274,-0.120340,0.309455,0.002581,18.977722,-41.753418,-14.941406,,,,,,
1478502866.58,0.298182,1.525450,-1.853317,1.572497,-0.193570,0.040103,0.013317,-0.998972,-0.043330,-0.085995,0.454966,0.096598,19.354492,-41.754944,-14.038574,,,,,,
1478502866.60,0.663199,1.557556,-2.220909,1.692084,-0.183863,0.343063,0.008151,-0.999912,-0.010433,-0.122729,0.240879,0.019528,18.906616,-42.958496,-11.491455,,,,,,
1478502866.62,2.961946,1.547169,1.755287,1.691736,-0.523527,0.038067,0.004221,-0.999721,0.023245,-0.074656,-0.005208,0.069925,18.457275,-43.334534,-10.669434,,,,,,
1478502866.64,2.967695,1.514109,1.739886,1.589392,-0.394861,-0.389555,0.009803,-0.998394,0.055802,-0.088462,-0.158696,0.157622,18.457275,-43.334534,-10.669434,,,,,,
1478502866.66,2.927838,1.484562,1.776007,1.339056,-0.097422,-0.395641,0.018270,-0.996284,0.084167,-0.185369,-0.062706,0.067048,18.907898,-43.936340,-9.615845,,,,,,
1478502866.68,2.922545,1.458708,1.780229,1.257233,-0.057041,-0.235413,0.024306,-0.993725,0.109181,-0.214262,0.015133,-0.003605,18.985657,-43.863342,-8.340332,,,,,,
1478502866.70,2.939505,1.432494,1.761576,1.354461,-0.094750,-0.131565,0.027671,-0.990451,0.135057,-0.127509,0.073276,-0.032899,19.589539,-43.866577,-6.385742,,,,,,
1478502866.72,2.954863,1.404774,1.743718,1.406708,-0.122520,-0.154654,0.030680,-0.986250,0.162387,-0.019907,0.050795,-0.028705,19.666565,-43.943237,-5.260132,,,,,,
1478502866.74,2.956171,1.376956,1.740171,1.356375,-0.103013,-0.272055,0.035513,-0.981272,0.189327,0.004419,-0.056784,0.028309,19.666565,-43.943237,-5.260132,,,,,,
1478502866.76,2.948442,1.350972,1.745943,1.223473,-0.103570,-0.314300,0.041857,-0.975936,0.214003,-0.021639,-0.066133,0.012269,19.893799,-44.020142,-4.058472,,,,,,
1478502866.78,2.941423,1.326821,1.750879,1.172006,-0.132174,-0.277282,0.048031,-0.970385,0.236739,-0.027310,-0.015989,-0.041655,20.195312,-44.096558,-3.231201,,,,,,
1478502866.80,2.934966,1.302431,1.752227,1.224389,-0.358819,-0.262810,0.054399,-0.964206,0.259516,-0.008867,-0.028592,-0.116663,20.949707,-43.949951,-1.200562,,,,,,
1478502866.82,2.925341,1.277002,1.750932,1.258264,-0.668359,-0.231282,0.062137,-0.957152,0.282841,0.008496,-0.079210,-0.209233,20.951965,-43.575989,-0.525635,,,,,,
1478502866.84,2.916869,1.252456,1.743018,1.208761,-0.868315,-0.092865,0.069746,-0.949756,0.305121,0.005114,-0.131558,-0.272101,20.951965,-43.575989,-0.525635,,,,,,
1478502866.86,2.912999,1.231107,1.726452,1.027045,-1.058316,0.069294,0.075504,-0.942858,0.324527,-0.039997,-0.181913,-0.389605,21.252869,-43.727051,0.076660,,,,,,
1478502866.88,2.905403,1.214696,1.711070,0.760654,-1.124383,0.042383,0.081578,-0.937263,0.338943,-0.064000,-0.129128,-0.515091,20.879517,-43.577881,0.748779,,,,,,
1478502866.90,2.883605,1.202893,1.709878,0.454454,-1.184519,-0.259397,0.091762,-0.933083,0.347757,-0.171901,-0.073020,-0.512430,21.256042,-43.579224,1.501587,,,,,,
1478502866.92,2.838791,1.197298,1.731430,-0.029853,-1.248383,-0.531279,0.108804,-0.931057,0.348275,-0.284616,-0.152073,-0.324593,20.955566,-43.578674,1.274292,,,,,,
1478502866.94,2.791342,1.199634,1.760678,-0.395724,-0.837062,-0.396595,0.124454,-0.931907,0.340678,-0.204044,-0.184320,-0.272334,20.955566,-43.578674,1.274292,,,,,,
1478502866.96,2.752308,1.206665,1.787474,-0.574775,-0.711178,-0.313675,0.135164,-0.934434,0.329492,-0.227708,-0.188507,-0.435800,21.780884,-43.053345,0.755249,,,,,,
1478502866.98,2.701437,1.217918,1.825107,-0.957813,-0.778840,-0.427449,0.147254,-0.938382,0.312660,-0.393790,-0.440967,-0.316718,22.379456,-42.301147,-0.890625,,,,,,
1478502867.00,2.631312,1.239392,1.887910,-1.769104,-0.369997,-0.449524,0.158918,-0.945586,0.283921,-0.418028,-0.483598,-0.119859,22.827576,-42.450256,-1.637085,,,,,,
1478502867.02,2.534697,1.273351,2.139089,-2.594626,0.300385,-0.430574,0.167149,-0.956088,0.240742,-0.209599,-0.289731,-0.085041,22.898621,-42.522461,-3.511719,,,,,,
1478502867.04,2.399253,1.314284,2.293393,-3.066429,0.822675,-0.329641,0.171511,-0.967281,0.186955,-0.044588,-0.276799,-0.009343,22.898621,-42.522461,-3.511719,,,,,,
1478502867.06,2.218541,1.352098,2.493130,-3.032668,1.029574,-0.159449,0.173014,-0.976181,0.130911,0.001806,-0.402726,0.126627,23.420837,-42.445496,-5.007812,,,,,,
1478502867.08,1.999687,1.383152,2.738960,-2.892133,1.081596,0.224464,0.169649,-0.982446,0.077577,-0.042467,-0.571081,0.202635,24.391113,-41.390503,-8.676025,,,,,,
1478502867.10,1.725353,1.411493,3.035872,-2.861764,0.803999,0.835011,0.156739,-0.987338,0.024420,-0.180268,-0.562131,0.187998,24.388672,-41.088135,-10.251099,,,,,,
1478502867.12,1.359265,1.431231,-2.863204,-2.824794,0.668301,1.150513,0.136012,-0.990277,-0.029208,-0.282206,-0.438556,0.244280,24.310974,-40.635132,-12.202026,,,,,,
1478502867.14,0.936761,1.430029,-2.419461,-2.874252,0.995758,1.235967,0.113034,-0.990109,-0.083115,-0.161175,-0.312641,0.263611,24.310974,-40.635132,-12.202026,,,,,,
1478502867.16,0.589945,1.403805,-2.045231,-2.942934,1.237536,1.110676,0.092469,-0.986089,-0.138121,-0.087494,-0.125864,0.229598,23.408691,-40.407593,-13.633911,,,,,,
1478502867.18,0.384915,1.360264,-1.810190,-2.962183,1.334831,0.835781,0.078468,-0.977920,-0.193689,-0.110817,0.022262,0.270411,22.353027,-39.801575,-17.241943,,,,,,
1478502867.20,0.277271,1.309770,-1.671507,-2.885192,1.402939,0.657265,0.070643,-0.966126,-0.248216,-0.128641,0.085922,0.351243,22.501648,-39.049316,-18.816406,,,,,,
1478502867.22,0.222776,1.259812,-1.583255,-2.649643,1.593687,0.575238,0.067606,-0.952033,-0.298434,-0.172403,0.101523,0.421130,22.725830,-38.147095,-20.390137,,,,,,
1478502867.24,0.192689,1.214039,-1.516406,-2.376992,1.690497,0.640459,0.066878,-0.937034,-0.342774,-0.220153,0.080467,0.428589,22.725830,-38.147095,-20.390137,,,,,,
1478502867.26,0.170236,1.173681,-1.456018,-2.090288,1.691429,0.789998,0.065523,-0.922180,-0.381169,-0.183855,0.100220,0.410161,22.949829,-37.470215,-21.738770,,,,,,
1478502867.28,0.152345,1.139565,-1.400129,-1.740236,1.680614,0.853679,0.063433,-0.908452,-0.413148,-0.137422,0.168370,0.419908,23.100525,-35.742493,-23.538452,,,,,,
1478502867.30,0.139513,1.112777,-1.350815,-1.327505,1.531475,0.867884,0.061489,-0.896930,-0.437876,-0.073986,0.204013,0.434183,23.925964,-35.592957,-23.532349,,,,,,
1478502867.32,0.127209,1.095129,-1.306472,-0.808652,1.270356,0.884971,0.058096,-0.888987,-0.454231,-0.011221,0.206904,0.483330,23.926208,-35.292603,-23.757446,,,,,,
1478502867.34,0.113539,1.088644,-1.265994,-0.208751,1.032366,0.901404,0.052533,-0.885999,-0.460702,0.053637,0.247464,0.540246,23.926208,-35.292603,-23.757446,,,,,,
1478502867.36,0.096311,1.094715,-1.228656,0.483540,0.637866,0.877067,0.044071,-0.888798,-0.456176,0.075375,0.352634,0.559066,23.625549,-35.367126,-23.984741,,,,,,
1478502867.38,0.073628,1.114915,-1.195594,1.219572,0.185889,0.810479,0.032386,-0.897874,-0.439061,0.027322,0.480179,0.548970,23.475037,-36.193176,-23.235352,,,,,,
1478502867.40,0.044450,1.147776,-1.161388,1.825235,0.123248,0.855418,0.018242,-0.911853,-0.410111,-0.017830,0.529499,0.455140,23.326599,-36.870544,-21.586304,,,,,,
1478502867.42,0.018916,1.189459,-1.119098,2.175491,1.043786,0.896392,0.007039,-0.928168,-0.372096,-0.179799,0.416601,0.322291,22.725464,-37.921387,-20.840332,,,,,,
1478502867.44,0.010557,1.232594,-1.075153,2.090460,2.036252,0.738997,0.003503,-0.943352,-0.331774,-0.191018,0.102532,-0.059507,22.725464,-37.921387,-20.840332,,,,,,
1478502867.46,0.021695,1.263147,-1.037920,1.029456,2.313261,0.545393,0.006569,-0.953048,-0.302748,-0.071648,-0.442536,-0.882891,22.275574,-39.499207,-18.817871,,,,,,
1478502867.48,0.039754,1.267049,-1.004248,-0.162773,2.773320,0.484917,0.011887,-0.954222,-0.298862,-0.279694,-0.991105,-1.085278,22.206055,-40.855835,-14.392578,,,,,,
1478502867.50,0.075687,1.262315,-0.989266,-0.224098,2.148078,0.060797,0.022958,-0.952796,-0.302743,-0.168801,-0.503061,-0.494437,23.182861,-41.083130,-13.185303,,,,,,
1478502867.52,0.085800,1.266498,-0.978180,0.538243,0.396241,0.341229,0.025676,-0.954057,-0.298522,0.118901,0.162065,-0.234575,23.634827,-41.009705,-12.281860,,,,,,
